timestamp,x,y,z,vx,vy,vz,roll,pitch,yaw
1546877122.954599,0.000563895544513864,0.16912808579323108,0.00016606669485523214,-0.0020721087311884466,0.2945896067927189,-0.00451206116716946,-89.25003265788519,1.447500938213549,0.16912808579323108
1546877123.054599,0.0012937812684440167,0.19548320750100331,0.00039812668291111465,0.00927906682517306,0.29297198026224763,-0.0009760176547283957,-89.16418170923617,1.4506120879214595,0.19548320750100331
1546877123.154599,0.0016427557265139506,0.2621911180825932,0.0007193156918715677,0.0032815602721525975,0.32585875875185755,-0.005297470374466788,-89.16807463758497,1.43079817147964,0.2621911180825932
1546877123.254599,0.0017792714219128716,0.2585367907910037,0.001057545448087336,0.0035373172242654798,0.004963954030230142,0.3255665235930743,-89.11388493359865,1.4142249246331373,0.2585367907910037
1546877123.354599,0.002215647860664918,0.24778868092921486,0.0015704963192173873,0.0001732243629813516,0.00754040717332866,0.3108688727125216,-89.0113994565785,1.4069601106910472,0.24778868092921486
1546877123.454599,-0.0030390604547664824,1.4523959152973032,0.0020430918596730497,-0.06866964415616128,0.003292779258004686,0.27839578303161083,-88.95095058559879,1.392162344521485,1.4523959152973032
1546877123.554599,-0.0072651114313320945,2.3334001082287226,0.0025701758891950198,-0.01896387304536257,-0.007053016421511492,0.28964894349058373,-88.86013436798193,1.3512630830897683,2.3334001082287226
1546877123.654599,-0.009166875233785132,2.574484527469994,0.0032388765013045087,0.0018443501636537228,0.004343141565416855,0.29258217876059156,-88.77826205008034,1.265461150060401,2.574484527469994
1546877123.754599,-0.009269690208624792,2.4281254949570443,0.0031162968953519733,-0.00032113798752423284,0.0031848562126190884,0.2557283171918768,-88.88315402104827,1.1961408822907482,2.4281254949570443
1546877123.854599,-0.01011757520355562,2.5133063421644644,0.002113601005145525,0.009037868012725308,0.0046926644421806125,0.24592881895072985,-89.17449980907917,0.9959693329052207,2.5133063421644644
1546877123.954599,-0.010697565071361746,2.433943501669446,0.0006904296121422165,-0.000336311241886767,0.002239307386426234,0.25181254053654223,-89.58675096224975,0.7277837785492928,2.433943501669446
1546877124.054599,-0.011388025658302856,2.401155415670245,-9.851292410827908e-05,0.0035854514993003475,-0.007501409601004462,0.24289359703834007,-89.77311158416802,0.19656348594382966,2.401155415670245
1546877124.154599,-0.011965134059735188,2.393383678665211,-0.0004515200415769721,0.0062348907858334164,0.0011525397793858308,0.2788727336504036,-89.84360377818444,-0.28096616160598903,2.393383678665211
1546877124.254599,-0.013097505617185357,2.413519925993123,-0.00034066233610867826,0.004669966217068312,-0.0029356327520823544,0.3092169854069274,-89.85177640030538,-0.5790577089072861,2.413519925993123
1546877124.354599,-0.014111071107027924,2.388682064807641,-0.00019348377868279526,0.005640086091012316,-0.00620960908458205,0.3430772603317887,-89.82308053929002,-0.6916619528725261,2.388682064807641
1546877124.454599,-0.015113539136725949,2.417746154376613,-0.0001035659815388224,0.00463389935556748,-0.0007965133146576472,0.39236844179551855,-89.77879873891047,-0.6207610210936578,2.417746154376613
1546877124.554599,-0.01610257161326669,2.4226257891568004,-0.0006501160441397104,0.007447894559273099,0.00203059671143292,0.4175771525252703,-89.84329048972917,-0.45443392770510194,2.4226257891568004
1546877124.654599,-0.016877729846335038,2.4780207059975807,-0.001029553246448321,0.007363603700246738,-0.002039433475704719,0.3278321653777536,-89.88618027871138,-0.3157602837436566,2.4780207059975807
1546877124.754599,-0.01754269892167099,2.426936609790354,-0.000785001019609024,-0.006119045170981006,-0.005674449524739015,0.3103471416412999,-89.74954006126295,-0.2138551505648725,2.426936609790354
1546877124.854599,-0.01905234739018862,2.4024429236646663,-0.0003845246582997576,0.0024539950614146217,-0.001685998855115987,0.36246437173841034,-89.65226036709193,-0.15616096688138478,2.4024429236646663
1546877124.954599,-0.020005066255449757,2.4189665962669324,3.4264623885514427e-06,0.00502100517758299,0.009434761736983262,0.37282482563863867,-89.5101874102006,0.02837774223018787,2.4189665962669324
1546877125.054599,-0.0210197903842923,2.507557036140886,-0.0001268031010878254,0.00703454097693374,0.010764955585733123,0.3651074535633016,-89.46996791340652,0.08988208988699237,2.507557036140886
1546877125.154599,-0.02127098805373915,2.4909662596567608,-0.00014542873428179354,0.012192618410435523,-0.004964481439513038,0.34884558132211024,-89.49739995323928,0.12599478810024178,2.4909662596567608
1546877125.254599,-0.02226277845198579,2.505758146661276,-0.0005314605925852887,0.0003059850849480301,-0.0010667044539090227,0.3107725862623718,-89.56379163937486,0.2122620392298052,2.505758146661276
1546877125.354599,-0.02289014749970473,2.4173797250628613,-0.0007843463736477606,0.007254333697231379,-0.005755164013762077,0.3053071873804494,-89.58499102706244,0.2631895617102507,2.4173797250628613
1546877125.454599,-0.023845556424007486,2.372010311560052,-0.0008996578123997314,0.003677995249214095,-0.015491332037201657,0.3737136190252421,-89.67073745169714,0.3033592566723732,2.372010311560052
1546877125.554599,-0.02481830997135349,2.3872881493142613,-0.0005439407464502162,-0.0012937200448187348,-0.0011567851672625714,0.39594647059425886,-89.67788358799821,0.3111060454368497,2.3872881493142613
1546877125.654599,-0.026103024760989767,2.428233939268745,-0.0002862828626763773,0.009357990832717728,-0.0023412118761986923,0.40131459325499363,-89.69341830896344,0.19478962443813472,2.428233939268745
1546877125.754599,-0.0268154933540418,2.444163472018795,-6.25068107401497e-05,0.00855907238327231,-0.0007244272991351851,0.39716626893314777,-89.60967326145943,0.291807441291503,2.444163472018795
1546877125.854599,-0.028266108746648907,2.4960245951640023,-0.00039746072414668736,-0.0034377705149118477,-0.004049225457899209,0.4263305326551176,-89.62671609679987,0.2153382679068461,2.4960245951640023
1546877125.954599,-0.02977845362177193,2.555207887003285,-0.0010323734881989514,0.008097131182007259,-0.00406973325626269,0.40422630636432255,-89.67227655750881,0.12563919471269852,2.555207887003285
1546877126.054599,-0.03114531509699711,2.5539996806963794,-0.0015930741514981347,-0.008046134627693855,0.003532401001467799,0.40793551090528873,-89.70402818559927,0.16242541336195823,2.5539996806963794
1546877126.154599,-0.03791179932924079,3.5392290473974617,-0.0021201923211432755,-0.09698811175121194,0.005995513749447843,0.3816672279277472,-89.76599405089702,0.20245344619945552,3.5392290473974617
1546877126.254599,-0.0478989938400287,5.403251694394274,-0.0026507360598303793,-0.05183638863822427,0.0013098890715562352,0.3711754616957066,-89.78031828010467,0.18801987052001606,5.403251694394274
1546877126.354599,-0.05417299773223746,6.189027536911916,-0.003021341719914333,-0.03210852206477106,0.0021396289117993723,0.39438408834347993,-89.83239748932213,0.2552007315545251,6.189027536911916
1546877126.454599,-0.06313750235893292,7.230152844155465,-0.00411710808749493,-0.08685198201582857,0.008467833540621866,0.39427970531614,-89.97486943855397,0.4090129324886816,7.230152844155465
1546877126.554599,-0.07853116005932456,9.587312869033177,-0.005475230345387799,-0.1172292193360607,-0.003523134613386991,0.33727048451268044,-90.23481569559934,0.34770856247678933,9.587312869033177
1546877126.654599,-0.09805752904616431,12.475809285333735,-0.006502652479901041,-0.16143576004105592,0.004022502495901138,0.3699458873872141,-90.29711539527878,0.5471778207342319,12.475809285333735
1546877126.754599,-0.12393120520671774,16.307331770898077,-0.006294901530837666,-0.22170859592077302,0.013857367472111899,0.3371024029544748,-90.17560325704912,0.7548219323445884,16.307331770898077
1546877126.854599,-0.15310187405547301,20.580548663736675,-0.006303363906490992,-0.21197855901423024,0.007911236253806957,0.3280031423775354,-90.13955971597713,0.9590117398491959,20.580548663736675
1546877126.954599,-0.1846725596031922,24.875489358064314,-0.006582049326174476,-0.22837427412254518,0.002159713730812451,0.32616758307112015,-90.13765257768827,1.0895637461881207,24.875489358064314
1546877127.054599,-0.2181399565174889,29.304547844269646,-0.006273970478384567,-0.22660658096823277,0.011315368451794414,0.3186219846420738,-90.03652548267759,1.0721509755485412,29.304547844269646
1546877127.154599,-0.2504877969846762,33.459556220582634,-0.005490777404773783,-0.19206350595847896,0.009096205415488208,0.26378392473705126,-89.81898239132425,1.0758274583642016,33.459556220582634
1546877127.254599,-0.28552599216804525,37.592903344755236,-0.005169230876771283,-0.23239027339440027,0.0070512096581268795,0.349268037298954,-89.64749054205174,1.0795756899774962,37.592903344755236
1546877127.354599,-0.3322911771693291,43.909174110900686,-0.00449130471225071,-0.37864177647842745,0.0041213772538767615,0.3213963807720703,-89.62959729861988,1.1032909798733792,43.909174110900686
1546877127.454599,-0.37906285625551944,51.54921008139532,-0.0032258753933120383,-0.32462194470680134,0.0025057198261195087,0.26204807234814803,-89.7061637278493,1.0689838959049678,51.54921008139532
1546877127.554599,-0.4119171540041605,58.54905691753262,-0.0038447287729648566,-0.3258149711156573,-0.001092820226020877,0.11149958188627408,-89.7674076060477,1.1205522706504552,58.54905691753262
1546877127.654599,-0.43408875839902006,65.58052518961694,-0.004652006354595877,-0.35054871903600326,0.006143085615942077,0.009031202915836686,-89.77510104483518,1.073114075292386,65.58052518961694
1546877127.754599,-0.45082400787577603,72.8512123788406,-0.004412047578932781,-0.36002605003609683,-0.0005260652823125015,0.008842861652481226,-89.79861548102035,1.0869541952780124,72.8512123788406
1546877127.854599,-0.4609316085324842,80.33890778580769,-0.0047055206594009795,-0.3393444704864048,-0.002346112335682952,0.026099550125588514,-89.78628013389608,1.1762011700455255,80.33890778580769
1546877127.954599,-0.4747690278163791,86.46683362726435,-0.004134396063323408,-0.22474466443882568,-0.0019067747530316682,0.14569444853061858,-89.70134237917694,1.2472824755381728,86.46683362726435
1546877128.054599,-0.4921553976579307,88.83850447728078,-0.003851199562133545,-0.04815823199185365,-0.00184016297768893,0.19453546557434478,-89.65950074833013,1.316864431032534,88.83850447728078
1546877128.154599,-0.5166239193359763,89.19234054676365,-0.004072478178145928,0.0022760175790531552,0.002622474297085097,0.27797634104856855,-89.68618543240456,1.328293938730128,89.19234054676365
1546877128.254599,-0.5464926891063709,89.21580957064462,-0.004896197944889126,0.010250496827663248,0.00036670642919549887,0.30156773399272385,-89.7406085042016,1.3402117370894135,89.21580957064462
1546877128.354599,-0.5781058752508889,89.21084487476604,-0.004778548632471596,0.006743781425272266,0.005030282334881557,0.3178987211474808,-89.70635997715117,1.3655023296735822,89.21084487476604
1546877128.454599,-0.6132378967632005,89.19303830666979,-0.0046569511895844205,0.00796287979973196,0.00666517563900784,0.3802237216452824,-89.66259715022119,1.3406182132513553,89.19303830666979
1546877128.554599,-0.6541626267410614,89.18493218751583,-0.004645186412951815,0.0028735088681320284,-0.0011556256917072882,0.43374236261512383,-89.64713177734482,1.3347038639686393,89.18493218751583
1546877128.654599,-0.6970939106700914,89.21820803519986,-0.004494386746857676,0.007015857715323282,0.011453448037226465,0.4205784618686319,-89.62995482518572,1.3880797233374016,89.21820803519986
1546877128.754599,-0.7379999724717086,89.3601168304543,-0.004744510914928446,-0.043421276473579795,0.006338190155070018,0.3831240671806463,-89.67039110675239,1.4654701115960262,89.3601168304543
1546877128.854599,-0.7750538983153432,92.29371471874514,-0.004819162128117506,-0.23279210784200735,-0.009982296177429194,0.3749431048580302,-89.71110832587132,1.5619278358837738,92.29371471874514
1546877128.954599,-0.8128173450799956,96.82693081746018,-0.004786516972733665,-0.08704986785307373,0.006297462949217537,0.37625363884523066,-89.70557139466084,1.3644050670484975,96.82693081746018
1546877129.054599,-0.8460494375559919,96.8850336532197,-0.004971473618010162,0.026945824272588993,0.0049057206300312465,0.3236293049688664,-89.6905296468442,1.5162051984930303,96.8850336532197
1546877129.154599,-0.8766861544117642,96.72020063049186,-0.004201246847062402,-0.0023413528360849496,-0.0035852109797995316,0.33151098005021157,-89.61481463865024,1.5651466514266001,96.72020063049186
1546877129.254599,-0.9100979037946053,96.72976725014931,-0.0037731113466205717,0.0027800607398353475,-0.0006841875879477497,0.3589065711133873,-89.56592272346336,1.623356391048016,96.72976725014931
1546877129.354599,-0.9457637461254413,96.77245456191335,-0.004248011299526301,0.006974271269200414,0.0012159725404752395,0.34981446002980554,-89.5641237440137,1.5771891453817917,96.77245456191335
1546877129.454599,-0.9821661684564589,96.7551351522147,-0.004533396255031948,0.000662897429464606,0.0008136286983820963,0.3833404383491864,-89.56661810533707,1.5257178445071355,96.7551351522147
1546877129.554599,-1.0221337037614853,96.80876663467929,-0.004920850924129685,0.0014175592486424338,-0.002140464077182467,0.43004339455692225,-89.56371698730048,1.3360461085658033,96.80876663467929
1546877129.654599,-1.0666255859919866,96.79420584800829,-0.00559632026400228,0.004973755632866852,0.026602620562053328,0.46007146196656146,-89.6303963504291,1.3474767711893547,96.79420584800829
1546877129.754599,-1.111499288332028,96.86495482985215,-0.005684134829205437,0.005439582109035399,0.008548974593575186,0.42144999611243006,-89.62492796520193,1.3339734630832567,96.86495482985215
1546877129.854599,-1.1502339052061328,96.87252267328334,-0.00557581496740853,0.014960564392539606,0.012466777094510254,0.35911500733680174,-89.58237305376845,1.4250801155349713,96.87252267328334
1546877129.954599,-1.1861427819471326,96.78185557154087,-0.004944973409940845,0.009178668166027566,-0.0042413606376744736,0.37702293778612045,-89.53629250033657,1.498629072955323,96.78185557154087
1546877130.054599,-1.226348868552815,96.81371568704385,-0.004173619760975681,0.007314915930169082,-0.0001998714675912664,0.4230664784619889,-89.49562814067514,1.5726827675118797,96.81371568704385
1546877130.154599,-1.2685770377082661,96.86857315240574,-0.0037468008599089906,0.01697744846922527,0.0019111835933967628,0.42121125940235965,-89.47952207036417,1.6482451193883714,96.86857315240574
1546877130.254599,-1.312520021894325,96.86045056581833,-0.0036406321940858737,0.009269162807063842,0.019790473045103098,0.47148038474344545,-89.41194661495888,1.7367882469270515,96.86045056581833
1546877130.354599,-1.3615751594380656,96.94628861552218,-0.0034096554311804847,0.013250185010317538,-0.0016144100553062042,0.5081941001623367,-89.3518145405008,1.6590303485232814,96.94628861552218
1546877130.454599,-1.4121563757547686,96.99573583306544,-0.0032259053189675918,0.006557316317480034,0.012164002910565354,0.5160646356752904,-89.3105707196453,1.5550853119213937,96.99573583306544
1546877130.554599,-1.4654912998394796,97.01655899643612,-0.00320514889066102,0.004048413313573875,0.005057907656298924,0.5554364094861376,-89.25115007122723,1.4998584386509353,97.01655899643612
1546877130.654599,-1.5209245275395786,97.07428988441531,-0.0037855506029332207,0.010170550936984428,0.018467363135521497,0.5194873392968304,-89.35074716092942,1.5794427719238318,97.07428988441531
1546877130.754599,-1.569548856672992,97.07647521433205,-0.0033202700220514533,0.00896011067201813,-0.0044979406612943645,0.4490025327359063,-89.29574457460517,1.5737621960684895,97.07647521433205
1546877130.854599,-1.614725664298211,95.82053153012868,-0.0032019765837569005,0.11956357210874001,-0.0034606637476841864,0.42870586970747104,-89.27767310224166,1.4825139657375423,95.82053153012868
1546877130.954599,-1.6589770258280432,94.81740660590478,-0.002903240210292862,-0.0081016894801931,-0.0014923905997486263,0.4354035460984719,-89.25961098944873,1.5963802973747114,94.81740660590478
1546877131.054599,-1.7034812846822835,95.03837147753586,-0.0026491186476890606,0.007138017635073571,0.006796500206089039,0.47764066866653604,-89.26227613709673,1.5419156680255928,95.03837147753586
1546877131.154599,-1.7539845798015294,95.08652615052468,-0.0024207662269630412,0.007343876845504064,0.011700320209836853,0.5322008320410594,-89.20106011955023,1.550792205311463,95.08652615052468
1546877131.254599,-1.8084218540129693,95.11122910723736,-0.0034680397524387285,0.01393245045604827,0.02439354596673006,0.554388835809839,-89.31005289069974,1.5876609894552423,95.11122910723736
1546877131.354599,-1.864012478818634,95.16107439214777,-0.004142528183458899,0.002749427012415738,0.03062491305470339,0.5549661138854148,-89.38763598472872,1.641577047323972,95.16107439214777
1546877131.454599,-1.9204406838289099,95.20487102711694,-0.0044543303139063265,0.009769093405486535,0.027371495052775655,0.5935393635600827,-89.3601558570503,1.7091747717561594,95.20487102711694
1546877131.554599,-1.9831843333542276,95.26030097134634,-0.004841350408264911,0.010836527260268656,0.04025117881134504,0.6435009790865179,-89.39878264783037,1.7797119719316117,95.26030097134634
1546877131.654599,-2.044398124756431,94.87872342709625,-0.004477298376422903,0.08990727223283601,0.00011746975885688384,0.5704492422385402,-89.47939146616248,1.5359756843611205,94.87872342709625
1546877131.754599,-2.1017874663108307,92.87929954358029,-0.004128836743458869,0.07956628945051561,0.00041431146312288824,0.5647190549198908,-89.48510016445732,1.535638591735784,92.87929954358029
1546877131.854599,-2.160750946307574,92.12133299576057,-0.004227621881395526,0.01572609048031394,0.008755586434103926,0.6007881381223718,-89.53952382619084,1.4838574910106004,92.12133299576057
1546877131.954599,-2.219876472452331,92.38328362732676,-0.005268261456507799,0.005798072428214316,0.009303896277568464,0.5802605002703666,-89.5962197429549,1.3618834471558912,92.38328362732676
1546877132.054599,-2.277130366419914,92.38645032044391,-0.0056703927346259415,0.0198773803418603,0.00869239232933578,0.5752450403480969,-89.65683402188962,1.489054497654113,92.38645032044391
1546877132.154599,-2.3329841176300583,92.40587770176666,-0.005372947630484837,0.011249659596444727,0.01191201530580472,0.5442435927262118,-89.6581224806253,1.4657674023168288,92.40587770176666
1546877132.254599,-2.3852009008489357,92.42422525500031,-0.004846517777080643,0.0059307482913629455,-0.02760251215164101,0.5162811291022767,-89.64209859028283,1.536025582493064,92.42422525500031
1546877132.354599,-2.4382942143867927,92.42802913393395,-0.005136613371308438,0.00580884603733662,0.009464488934446501,0.5497746774051699,-89.61707823135296,1.587859018560372,92.42802913393395
1546877132.454599,-2.4949861102519617,92.46438495653433,-0.005812939598206335,0.008721480210377308,0.0027641089365143885,0.5690441189494597,-89.67435898088864,1.5157189581450052,92.46438495653433
1546877132.554599,-2.554570944927886,92.49445445024075,-0.005377679030109433,0.008965284558164487,-0.006450789668412394,0.6230323283212993,-89.63244879514018,1.4955865829630366,92.49445445024075
1546877132.654599,-2.617504180277011,92.55669131954316,-0.00490623830341069,0.01136912748399126,0.006845998522721504,0.634735585529591,-89.46264504948766,1.5395607302026573,92.55669131954316
1546877132.754599,-2.6792982322052077,92.58953316320164,-0.004442720558611853,0.010416343002083774,-0.00891405215390913,0.5791705404668883,-89.43528039910223,1.6246477600278766,92.58953316320164
1546877132.854599,-2.73514018447425,92.62045391398729,-0.0036354474656382237,0.012861327232100234,-0.01934659990362647,0.5303452982570287,-89.31213705874816,1.4955428126717958,92.62045391398729
1546877132.954599,-2.792681505911211,92.51792057062023,-0.004646584962568136,0.010334604191310479,0.015343451157177276,0.579443873651635,-89.35978793159127,1.61357954973583,92.51792057062023
1546877133.054599,-2.850797064545239,92.60891726941247,-0.00454893206561741,0.01712495850843685,0.001162851067195457,0.5754688360973894,-89.32805865110991,1.6486988127901623,92.60891726941247
1546877133.154599,-2.9081087623849364,92.63862412388633,-0.004337610946088959,0.016107319614322373,0.0023053541185636788,0.5704226522036449,-89.22779200705864,1.6584182689028197,92.63862412388633
1546877133.254599,-2.9650134558912637,92.60001700767381,-0.0044910159869018685,0.01633256797958538,-0.0020830188260345583,0.5906653234027632,-89.28690924635589,1.6606963603623761,92.60001700767381
1546877133.354599,-3.025622818843585,92.58801886826075,-0.0046689934234075275,0.015455295968473507,0.008022903777795501,0.6308601750459321,-89.39370046837408,1.6937855347944994,92.58801886826075
1546877133.454599,-3.09188896194472,92.65088338460035,-0.004985196926580332,0.01540696452944782,-0.0036602249638630607,0.6790683963520171,-89.44901111648223,1.7402200620419859,92.65088338460035
1546877133.554599,-3.1608667780049475,92.67052205958566,-0.005770668427079922,0.017475420511673282,0.021563614894453364,0.6954087550716693,-89.52265288527057,1.866581701064286,92.67052205958566
1546877133.654599,-3.2310408223318725,92.69341803589333,-0.0057370891104261395,0.017608852579642766,0.017806330620057993,0.6913919015578874,-89.54419144007474,1.9120439919509784,92.69341803589333
1546877133.754599,-3.2986474939331227,92.63537833467521,-0.006057840426473033,0.015172130594255978,-0.0013363464877448935,0.6753190241145578,-89.67404428284968,1.755106417809349,92.63537833467521
1546877133.854599,-3.3635643550284984,92.81165234721911,-0.005619994275365712,0.005272869988374719,-0.0032191871981384107,0.6202751603300442,-89.7310870399732,1.6690719360408472,92.81165234721911
1546877133.954599,-3.419743760482261,92.86357379690206,-0.005258198826375368,0.012495498853913987,-0.0045097078183458945,0.5044583937796804,-89.68810109208452,1.4847619560404601,92.86357379690206
1546877134.054599,-3.472810812398653,92.79724357801669,-0.005356291971949081,0.007079046638152391,-0.004441746918014066,0.541470796013684,-89.62536292710044,1.492408301668142,92.79724357801669
1546877134.154599,-3.5323550735749567,92.85103323573382,-0.004857372688792184,0.005485043093412381,0.008780546335165269,0.5922525137063824,-89.50583518437756,1.502631108958745,92.85103323573382
1546877134.254599,-3.5945438798704323,92.93902858476291,-0.004140628661634669,0.008088695943308289,0.004322849552578906,0.598516053966201,-89.43080569577039,1.5506159246711335,92.93902858476291
1546877134.354599,-3.658641876054462,92.9601010643829,-0.0035591538358896685,0.004608071139032709,0.010061675473069853,0.6356592635499217,-89.395013166694,1.5605325998647563,92.9601010643829
1546877134.454599,-3.721535849264308,93.05122556696591,-0.002659011669297616,0.01345418625586083,0.005865101502859645,0.627654290618745,-89.22279709508523,1.4069197663792845,93.05122556696591
1546877134.554599,-3.784915981505978,93.03470222489459,-0.002722643429581695,0.0074238795351078985,0.002153694916241888,0.5796605973831499,-89.23789553267581,1.3488436156980386,93.03470222489459
1546877134.654599,-3.837789727745178,94.69828379737437,-0.0018427057881730737,-0.16005774029221473,0.014507484949771606,0.5147623521734974,-89.13054118522494,1.4330291823711148,94.69828379737437
1546877134.754599,-3.8839438093723766,99.04918034081696,-0.0012003987260771004,-0.23140743129082272,0.0166907542878982,0.47568948173816594,-89.1645939855089,1.376687816775056,99.04918034081696
1546877134.854599,-3.9271370062951654,103.3418157326809,-0.0005494844168066233,-0.18307273263291174,0.003048576886487589,0.4767238877262203,-89.13545194726304,1.4289740932695734,103.3418157326809
1546877134.954599,-3.9671422387693704,107.45686074474716,-2.508347060774154e-05,-0.21972366224908585,-0.002752397432232224,0.4410944236286471,-89.11836674358187,1.3666135629960727,107.45686074474716
1546877135.054599,-4.00342300426923,111.57634961220164,-6.843339102100866e-06,-0.21483305577701794,0.00563294547323821,0.40955732768615566,-89.16641115517909,1.305401708553142,111.57634961220164
1546877135.154599,-4.030242475547953,115.7253174293777,-0.0001183926182827524,-0.21059427892394492,-0.0020660903907733716,0.31566431075025814,-89.2855115983352,1.349289239563555,115.7253174293777
1546877135.254599,-4.045792081781524,119.62416177099391,-0.0004319893257842926,-0.20009877737515552,0.006285847483608243,0.21673439666930064,-89.26573505697289,1.3797870115981214,119.62416177099391
1546877135.354599,-4.055570112304583,123.76519328891821,-0.0005182912141230951,-0.19273704938796485,0.012384513983861926,0.28295706474921684,-89.21707860029967,1.3168174175716065,123.76519328891821
1546877135.454599,-4.071858402931803,127.91242998494155,-0.0006186519702739797,-0.2407936500592477,0.027363061570738558,0.363942134456024,-89.31329646398059,1.4093415619950305,127.91242998494155
1546877135.554599,-4.079410361845434,135.20763889493077,-0.0011410372432508079,-0.44365864163980917,0.022872863754376804,0.35549952156137316,-89.32055160146756,1.6267647200593962,135.20763889493077
1546877135.654599,-4.078315006154036,144.25768741042552,-0.001902250824186289,-0.3853442383999071,0.02370450724542214,0.4096559509830441,-89.39984818102958,1.5385917620984297,144.25768741042552
1546877135.754599,-4.08040982055362,150.8457957017356,-0.0009337460785001015,-0.2958464538296428,0.003459785015570937,0.44411918789534977,-89.33611862863695,1.5783147810089901,150.8457957017356
1546877135.854599,-4.0802385634617195,156.01906086356914,0.0009039215556884255,-0.2622049030811379,0.004695840791109548,0.42238853851701935,-89.19379865512803,1.5947277424060893,156.01906086356914
1546877135.954599,-4.074565243842481,160.99925843790618,0.002163253593018,-0.26628142568981333,0.010052319560445968,0.43681463342505594,-89.21401209786335,1.5096438579886444,160.99925843790618
1546877136.054599,-4.06685371670048,165.83381876740995,0.002199445739391008,-0.2747366715298403,0.010807918861519153,0.4705922729423152,-89.22167466369577,1.50878523736949,165.83381876740995
1546877136.154599,-4.055501861120888,170.7965586855561,0.002503465753899786,-0.25111101956123116,0.008591563990493269,0.4908661248133993,-89.20752603652697,1.4462559662569625,170.7965586855561
1546877136.254599,-4.041816169782137,175.34433833126295,0.0033548762619060378,-0.18970392365389022,0.01867275977532859,0.48618843306287723,-89.17008264289828,1.443430542694833,175.34433833126295
1546877136.354599,-4.026179643392628,179.33082098586192,0.0035604140785062853,-0.19241358797773012,0.004340519832739972,0.44146425452691984,-89.06185996571797,1.4554761918019072,179.33082098586192
1546877136.454599,-4.012325578777022,-177.58722411868487,0.0035463999283525203,-0.15325339006373107,-0.014004843155439666,0.43708900844415566,-89.1290765127747,1.5133290966147546,-177.58722411868487
1546877136.554599,-3.998048582029646,-174.87688928430873,0.0036046590862069128,-0.12282378334236098,-0.006221903390813429,0.44389951288234486,-89.13150934885927,1.4702213354548233,-174.87688928430873
1546877136.654599,-3.993238167318343,-174.37265141436237,0.003438580844286454,0.020630427782471816,0.009712848233465937,0.377830396805282,-89.14494952897287,1.4550241713619503,-174.37265141436237
1546877136.754599,-3.991155012598745,-174.65916861425714,0.003196684652265521,-0.001189351648860042,0.00342370308094404,0.423527288578771,-89.16899911008069,1.4569409833328177,-174.65916861425714
1546877136.854599,-3.9877924535469895,-174.58912047943025,0.003070646446085238,0.007560830001746807,-0.00048310837876156063,0.4453783056090941,-89.22773173613496,1.5219522953186835,-174.58912047943025
1546877136.954599,-3.984388656270449,-174.54944162228554,0.0032990460307021907,0.007285458588067057,0.0024498980245840837,0.43852988729039233,-89.22335708956484,1.535321427836108,-174.54944162228554
1546877137.054599,-3.9813882915882925,-174.5745073142439,0.0036038196689326617,0.004270780791407263,-0.0030233104288163812,0.4156394052974639,-89.23891303999994,1.5690363438447983,-174.5745073142439
1546877137.154599,-3.97850164476843,-174.52844575695713,0.0038549761760545923,0.009754258589732993,0.002700954651212761,0.35676755080268985,-89.2717759677263,1.5464166144661478,-174.52844575695713
1546877137.254599,-3.975228614967526,-174.596164717181,0.00400905535913979,-0.0016329255439770265,-0.001888134391685648,0.43104155640102615,-89.24495641620804,1.5849530989222962,-174.596164717181
1546877137.354599,-3.971330804495332,-174.50302622261103,0.004357377587511704,0.0021353217951565902,0.016602896604962954,0.44964773937184144,-89.22568783146046,1.5985021707803317,-174.50302622261103
1546877137.454599,-3.967933554061364,-174.45988462120283,0.004139627148320082,0.008388365733645336,0.006065836280323793,0.4594235202157422,-89.29191830099319,1.5177538694735802,-174.45988462120283
1546877137.554599,-3.963880351985772,-174.42421558472995,0.004208011675442254,0.0027780842110001857,0.008031545899130289,0.45929408372893027,-89.2958498641223,1.5176208778374911,-174.42421558472995
1546877137.654599,-3.9601454294659972,-174.42285472703756,0.004686973840724155,0.008754108848102604,-0.007582306186039876,0.4646663776723808,-89.2466202882177,1.5094030352028667,-174.42285472703756
1546877137.754599,-3.956060200650099,-174.3479127640572,0.005091714811663771,0.00824824168109516,0.005097422485997647,0.4616002897038786,-89.23374009762753,1.471787179774703,-174.3479127640572
1546877137.854599,-3.9527031255034775,-174.4156501345203,0.0051194548224032105,0.01017864077107022,0.001935987734844235,0.4457820019476909,-89.26163371913081,1.5025100535419136,-174.4156501345203
1546877137.954599,-3.9488687097173503,-174.40285953542744,0.005161611641850925,0.0064620559992521745,0.00852727532344032,0.45258295700044626,-89.25223362602885,1.4993987742547112,-174.40285953542744
1546877138.054599,-3.945037849843887,-174.4069392359505,0.00510295254146644,0.0062303751333896915,0.002211841998650685,0.4527448945745233,-89.29768151628377,1.5062796012127753,-174.4069392359505
1546877138.154599,-3.941072021140691,-174.39225248011473,0.005133183326966004,0.0014324353370634608,-0.007859745349944746,0.46907912733415763,-89.39362036643371,1.526369059835279,-174.39225248011473
1546877138.254599,-3.9368888928393737,-174.3645206323313,0.005112638163037947,0.005110246235950603,0.0017809955741659254,0.4731848233530653,-89.47267253919564,1.4511547508139981,-174.3645206323313
1546877138.354599,-3.9328703860269987,-174.3502213731094,0.005373497489432129,0.009387095519994752,-0.001410612816183248,0.4766165853357911,-89.41503521951775,1.431701831406177,-174.3502213731094
1546877138.454599,-3.928725119350442,-174.28891821258958,0.0047096711232316475,0.007334562323395635,0.006196871729254457,0.48710308990909906,-89.49494223069115,1.2861361133754619,-174.28891821258958
1546877138.554599,-3.9244893879798948,-174.26753550669721,0.004801096138513286,0.006666429856759916,-0.001303918904691415,0.46621698372307296,-89.51866515040108,1.3109918358682449,-174.26753550669721
1546877138.654599,-3.920533986463711,-174.22267125359565,0.004578724042902199,0.030783952128589684,-0.0028001218710547744,0.45415339771937047,-89.58405672250059,1.3008969994994246,-174.22267125359565
1546877138.754599,-3.9246126104933823,-175.90364667236196,0.0045869937641474035,0.06500730926039548,-0.007591648919034294,0.45867799393776837,-89.58432992480483,1.3907845740701552,-175.90364667236196
1546877138.854599,-3.921623593229905,-175.9752807308757,0.005060723451240525,0.00218872769350154,-0.001983860258283226,0.5060209601602219,-89.57931995503539,1.300450390941592,-175.9752807308757
1546877138.954599,-3.918511401696156,-175.86448292468214,0.005211335896189211,0.005791982009716219,-0.008503317536059627,0.5363217227360221,-89.58280602129825,1.3252343550812142,-175.86448292468214
1546877139.054599,-3.915265406253065,-175.80286796290883,0.005237015689907884,0.011912403599776104,0.0014429159459658104,0.544352078988484,-89.53949810104237,1.2527851580105986,-175.80286796290883
1546877139.154599,-3.911938080350895,-175.80094019236816,0.004977481010355169,0.01090850331284181,0.0024504664038348424,0.5386603429134176,-89.60921935881733,1.1286364951523566,-175.80094019236816
1546877139.254599,-3.908446107199698,-175.82392356837678,0.00472998636504656,-0.004977479086452276,0.0017383529608163196,0.523282456503531,-89.55243870964317,1.2113749535121154,-175.82392356837678
1546877139.354599,-3.9047593369600744,-175.7610626016555,0.004724078207063084,0.0004541544282606641,0.00033080387744095774,0.5507931418638464,-89.5322788753112,1.1026296002743028,-175.7610626016555
1546877139.454599,-3.900826594915716,-175.66701319864856,0.005012916060667646,-0.000609839972341234,0.003066822963464722,0.5696567365418016,-89.46371123601266,1.1559435846366006,-175.66701319864856
1546877139.554599,-3.897393448001797,-175.63443302772868,0.0047961117671417855,0.01246179101142566,0.0015126341387408449,0.5656086960465404,-89.4170626691669,1.157513618479934,-175.63443302772868
1546877139.654599,-3.893962080603015,-175.62703141266513,0.004621118108515211,0.005474799937169347,-0.0059123441983326705,0.5699534955958921,-89.4231416714583,1.133509823203038,-175.62703141266513
1546877139.754599,-3.889891887024288,-175.6365220337783,0.0045726323897893545,0.0040913761751459115,-0.012083365189741731,0.6190848288696261,-89.52169795648793,1.1133946062072706,-175.6365220337783
1546877139.854599,-3.8856210955322985,-175.6290832951063,0.004275253485985448,0.007086278016691721,0.02729343538578755,0.6777469966520797,-89.55497419060214,1.117616513694447,-175.6290832951063
1546877139.954599,-3.8815682132076605,-175.51273843839243,0.0040303840974313,0.00322842953757818,-0.009255402266106872,0.5763312828025272,-89.74872963214173,1.1331486136746527,-175.51273843839243
1546877140.054599,-3.8780778571386465,-175.54127463332497,0.004091306336468156,0.0036271273215613725,-0.01529589094476603,0.5063019349112222,-89.6434825467135,1.106849669667969,-175.54127463332497
1546877140.154599,-3.8741730453013976,-175.59997501661854,0.004441289992547918,0.0001765453627053294,-0.008081434880720295,0.5494776809167246,-89.62963167881388,1.0686167074761164,-175.59997501661854
1546877140.254599,-3.86979977364785,-175.52568376770122,0.0038558177021433314,0.007494643904309646,0.006925542627707334,0.5724978200549494,-89.6490972322744,1.0560765626520756,-175.52568376770122
1546877140.354599,-3.8658951890190223,-175.4681069899432,0.004074697195482069,0.008390341519358876,0.005846805379683849,0.5729818823911823,-89.51531305611276,1.096864157493066,-175.4681069899432
1546877140.454599,-3.8625570628661205,-175.50973765290206,0.004415445243281183,0.005167971167854009,0.0005070399555842028,0.5577063150892316,-89.45001160837398,1.1349659375344658,-175.50973765290206
1546877140.554599,-3.8588534702534405,-175.55298157823464,0.0047149753089770425,-0.004913598647481233,0.02021312066524606,0.5620422078459875,-89.3645931537962,1.1820146892082657,-175.55298157823464
1546877140.654599,-3.8502071837574556,-174.71445806001708,0.004359165292579078,-0.11347519321896225,0.0004353926261752572,0.5363486280071389,-89.41032932466345,1.1370287383709639,-174.71445806001708
1546877140.754599,-3.8273160679301137,-170.99592773552106,0.004316756140928633,-0.28239509789232875,0.02166121353279933,0.46552028510701415,-89.4084215311343,1.173318246156238,-170.99592773552106
1546877140.854599,-3.788972376010021,-164.3684011384063,0.0043094305031604295,-0.3539198971726487,0.020457582902958266,0.42143796010355045,-89.50548203480412,1.1533194171414547,-164.3684011384063
1546877140.954599,-3.7493971229666463,-158.06226316469682,0.00406315835040791,-0.271469818755282,0.008505331830496505,0.41047847553547395,-89.48593140231516,1.166619044762542,-158.06226316469682
1546877141.054599,-3.714019771689543,-153.73222966944283,0.004851939954947681,-0.2202449239623391,0.002887925800565374,0.42393536095062045,-89.45312253962592,1.2321181917022592,-153.73222966944283
1546877141.154599,-3.676270486825804,-149.82562627668997,0.005374028071214407,-0.19228914744528697,5.479912789688353e-05,0.4785939197737427,-89.47765966708387,1.1261743201689345,-149.82562627668997
1546877141.254599,-3.62730399719502,-143.7526190348117,0.0059646205810555694,-0.3883638056891064,0.01765450013353023,0.45110970055366334,-89.45515977586906,1.2210538069537984,-143.7526190348117
1546877141.354599,-3.5709515152616196,-136.16379649051072,0.005507652598016275,-0.35891111913013496,0.015342891862053742,0.46212243351588417,-89.52302350823852,1.1690098394222748,-136.16379649051072
1546877141.454599,-3.513140462125423,-129.55096824612517,0.004807106219213611,-0.35529265689799355,0.016594226803076827,0.511316087928665,-89.52667342468008,1.2924577334369332,-129.55096824612517
1546877141.554599,-3.45200499881987,-123.10761821716466,0.004028148116791409,-0.325686494554453,0.0075685740724721505,0.5262350918322971,-89.5731585719881,1.3729211338786627,-123.10761821716466
1546877141.654599,-3.3914289445853143,-116.7873367081498,0.003390583302035439,-0.3264725159640445,0.019022642588495696,0.4930859502918468,-89.58255732086575,1.3689094939455333,-116.7873367081498
1546877141.754599,-3.3323007715578314,-110.98242289312778,0.003327962379033497,-0.2921725240872205,0.005002148248933219,0.5079472220603881,-89.60348749963171,1.3121473054970128,-110.98242289312778
1546877141.854599,-3.278057371462678,-106.22654828776162,0.002693382285589205,-0.21800884419052527,0.009921884841280221,0.44331301007219814,-89.6781900971476,1.196727636757504,-106.22654828776162
1546877141.954599,-3.2363932112549554,-102.13851330608557,0.0033177708994351148,-0.2062153688374912,0.006701315431543946,0.2881765039656831,-89.66178448549171,1.2077563548679267,-102.13851330608557
1546877142.054599,-3.21326094683682,-98.22953517559192,0.003638548188458101,-0.19234903656952737,0.0023949724834853056,0.12173403218867619,-89.57949137277056,1.2294040185277257,-98.22953517559192
1546877142.154599,-3.2018718410489684,-93.72833796124901,0.0042472987108002425,-0.2476023258681209,-0.0008232670836800932,0.11513958792870646,-89.49113565839671,1.2513943670766172,-93.72833796124901
1546877142.254599,-3.1844373852147183,-89.30259389612168,0.004914817270322565,-0.21009095549675666,-0.0027080253933351676,0.22723888539200313,-89.4503225641352,1.284990884536678,-89.30259389612168
1546877142.354599,-3.157221933213732,-85.25382078987182,0.005076868256646586,-0.1908351779017308,0.010639298698172043,0.3455687918121449,-89.40084024577138,1.309490883409661,-85.25382078987182
1546877142.454599,-3.117542583029351,-81.23355286140482,0.0047676505247788055,-0.18699515283451612,0.007249530590129503,0.4669749465347157,-89.48912737326857,1.2916506332423603,-81.23355286140482
1546877142.554599,-3.0685960606484946,-79.48654656083137,0.004228636120892612,0.008428563967467067,0.015428686728536756,0.49419789425644967,-89.58796080026097,1.2512658000232577,-79.48654656083137
1546877142.654599,-3.019086378276928,-79.74125531979864,0.0035824324802681182,0.008956254374772455,0.0051339581819888685,0.5013827569513225,-89.60564522624034,1.2580894013679245,-79.74125531979864
1546877142.754599,-2.9682492910295983,-79.74219021517189,0.002986254677223316,-0.00792089819680728,0.000269842148647875,0.5325278494603999,-89.68543030797262,1.1747222283218834,-79.74219021517189
1546877142.854599,-2.9150034534274534,-79.62227961330714,0.0028495317478045663,0.005005704937070882,0.008177767875826764,0.5465886913517254,-89.64123173895054,1.254262878685809,-79.62227961330714
1546877142.954599,-2.8615108262871334,-79.60287499107808,0.003128930654850362,0.011142338491886743,-0.00045911918647957746,0.5444703736949758,-89.59085297903749,1.2169381922948186,-79.60287499107808
1546877143.054599,-2.8081423102037992,-80.24593460196074,0.003131941725078847,0.13710844120411592,-0.007553467049233615,0.5079239087441826,-89.58186354174774,1.0875967519694316,-80.24593460196074
1546877143.154599,-2.757131024921447,-83.607514007055,0.0032285356404867147,0.14963744784605879,0.0043471089921019055,0.44201601872754737,-89.48771924096648,1.1872900827672437,-83.607514007055
1546877143.254599,-2.7112807254244196,-84.13958919199497,0.003343843965886112,-0.01831247903333179,-0.0034719411963841,0.43595666423859764,-89.46558683826828,1.1355560413628265,-84.13958919199497
1546877143.354599,-2.6660017514633174,-83.94625895101014,0.0031411056926244634,0.004126662862629709,0.0027253937033928696,0.4647536305295589,-89.45299752014824,1.1684143152213844,-83.94625895101014
1546877143.454599,-2.616690276277221,-83.88339849868404,0.003541658634645233,0.00757683621111884,0.002799834051843034,0.5043873679964377,-89.38532821017112,1.1424456484265377,-83.88339849868404
1546877143.554599,-2.5654640572788625,-83.83153738958602,0.0038180408186248107,0.012047284088472218,-0.0013056234047781907,0.5029308403104913,-89.37160479128296,1.1925897254995659,-83.83153738958602
1546877143.654599,-2.5163024343124567,-85.03812735864196,0.00423034750283556,0.11128387101689587,-0.011608552192758633,0.448724381434642,-89.3753443005457,1.0976007298263606,-85.03812735864196
1546877143.754599,-2.4717684593897777,-85.36129175186278,0.0047321744222888745,-0.02058607978598756,-0.007165510769181276,0.44104279603596497,-89.30395695583526,1.1231820426626944,-85.36129175186278
1546877143.854599,-2.423184511667459,-85.2018062052679,0.004665373600228024,0.004961811794698547,0.0022087239867759436,0.4862499364753722,-89.2763435698756,1.1288209677697014,-85.2018062052679
1546877143.954599,-2.3724353190531557,-85.17545785344284,0.0043125859576249575,0.01087343095257697,0.007908698777546951,0.4912501856426478,-89.26428255340454,1.2882314454920774,-85.17545785344284
1546877144.054599,-2.322016199193496,-85.13105782768658,0.004858171637942131,0.012159312069168433,-0.019578192559889792,0.5223710457249708,-89.24288005821494,1.3070081674448033,-85.13105782768658
1546877144.154599,-2.2640894620929695,-85.15538529193314,0.005518816465147066,0.012969292233441858,0.002948869471804923,0.6401969222127338,-89.13914652847737,1.3907542288934016,-85.15538529193314
1546877144.254599,-2.199729232105912,-85.09497871871355,0.005466385283907648,0.007633579942725674,0.03662393830164078,0.6548229998385338,-89.21818864282757,1.4938999281313379,-85.09497871871355
1546877144.354599,-2.1430200305450935,-84.97466423040922,0.005414132174067832,0.010426346509749683,0.00391754520320396,0.5136598771082614,-89.25557789222366,1.446440387404047,-84.97466423040922
1546877144.454599,-2.0911037390282265,-85.13779880249633,0.0059672231944436025,0.003348170345301152,0.016345208236898657,0.5463157880232462,-89.21606324812976,1.50054592785016,-85.13779880249633
1546877144.554599,-2.035475161361219,-85.11834568413089,0.0058914334793457165,0.007022090638708786,-0.0024320882862196493,0.5537909789350092,-89.29132405750498,1.4857154586833403,-85.11834568413089
1546877144.654599,-1.9802511902005902,-85.75454911217875,0.005790155925004541,0.013811269675023928,0.011050650443593449,0.5579242695421572,-89.30245417992012,1.498295198197572,-85.75454911217875
1546877144.754599,-1.9225858447005946,-85.6672891505747,0.004938969899020345,7.952967753020284e-05,0.005290458477729888,0.5959848930174648,-89.28343927974085,1.4359700031136013,-85.6672891505747
1546877144.854599,-1.8583839057808624,-85.53222553117806,0.005476749236300128,0.007063252490290359,0.018541459528291546,0.6243450144249644,-89.3722030465814,1.5260200016639633,-85.53222553117806
1546877144.954599,-1.7949954545868736,-85.50296151705928,0.005010907816772596,0.006573631168871569,0.017483496710644197,0.6603324806171647,-89.49601592486916,1.5636445687369367,-85.50296151705928
1546877145.054599,-1.7280277602180996,-85.39437460924893,0.004865175688415397,0.011145402417372314,0.024071081068127893,0.6675007662735121,-89.52612342492402,1.508110355969047,-85.39437460924893
1546877145.154599,-1.6614087225249454,-85.43158087279475,0.004070673977227811,0.005784286318401297,0.028843096403740484,0.7231172219124076,-89.59064465948008,1.4840596580295722,-85.43158087279475
1546877145.254599,-1.5851364653227038,-85.39772178070186,0.0018243762871963023,0.008825517996946775,0.02832611095713085,0.7938243948830656,-89.60462979620164,1.4905048362947366,-85.39772178070186
1546877145.354599,-1.5055870642825724,-85.28663878566165,0.0005570020868562973,0.00647260572216189,0.011183774948997124,0.7541109760563917,-89.7820589017237,1.4305538601336873,-85.28663878566165
1546877145.454599,-1.4336862467584348,-85.24447622756874,0.0015871596412778506,0.0048934481375635525,0.0017343266628295504,0.6982316390995117,-89.69633525996795,1.4084698140256027,-85.24447622756874
1546877145.554599,-1.3632956543418593,-85.28915838412648,0.0003009158926246076,0.0063310105187058124,0.030600731634114343,0.7178883717965414,-89.5849000313181,1.4592221407741972,-85.28915838412648
1546877145.654599,-1.291368650919897,-85.27033456323174,0.0010206650568798598,0.013689893159323455,0.018067700465994624,0.7132883444011854,-89.45804608167668,1.3895619003253226,-85.27033456323174
1546877145.754599,-1.2228118099505856,-85.8110203139837,0.005457071663651784,0.1074556727126721,-0.0018885155843639586,0.6540738149698742,-89.38828283274005,1.4231275435247377,-85.8110203139837
1546877145.854599,-1.157298908359004,-87.51491177741468,0.006833817806559805,0.020335460295058182,-0.009978059928125272,0.6744611490689314,-89.23957776303031,1.3908230955727259,-87.51491177741468
1546877145.954599,-1.0902316435738069,-87.21511191481146,0.008183762350220924,0.0026551565989293164,-0.007070108462669858,0.6901608884489737,-89.19942698660726,1.2472274870234819,-87.21511191481146
1546877146.054599,-1.0221437416715138,-87.13954312095765,0.007510224593415425,0.005811542790693795,-0.0035733471855327603,0.6739721157911164,-89.14001079710422,1.347692463499564,-87.13954312095765
1546877146.154599,-0.9542084094077423,-87.12211476918657,0.00842215060598864,0.005955855735559651,-0.005471439601096141,0.6536033030751801,-89.1415828871432,1.4166461497253573,-87.12211476918657
1546877146.254599,-0.8908841461593113,-87.09723275933858,0.009978747943121348,0.008371007982445137,-0.0002921276379988548,0.6340930367117626,-89.0828414087705,1.4944103040716814,-87.09723275933858
1546877146.354599,-0.8259679714618607,-87.14767385973562,0.009919756587915031,0.013096932497516344,0.0033045786798134268,0.6125499542343958,-89.23514398227371,1.5474315179174163,-87.14767385973562
1546877146.454599,-0.7638757272166546,-87.46260256181955,0.010435897778610956,0.09600865087312524,-0.018822187742068355,0.6026938661385872,-89.26242985254464,1.493139638577066,-87.46260256181955
1546877146.554599,-0.7066647090625888,-90.55659370489005,0.008677878359060403,0.11631484248531983,-0.00195777837096554,0.5208352265466407,-89.30949668886905,1.5483051755166843,-90.55659370489005
1546877146.654599,-0.6528633823541645,-90.75737666844772,0.008788689687462811,-0.008230642439465563,0.007200217429813763,0.5403590628617235,-89.36040097536167,1.424790510780131,-90.75737666844772
1546877146.754599,-0.598142497862577,-90.6256328665454,0.007898126613146978,0.0029903772679395917,0.01853476529483778,0.530244627479096,-89.4099625857538,1.4891390261421065,-90.6256328665454
1546877146.854599,-0.5450640971893611,-90.6030796555954,0.008170629675682732,0.007889645241114155,0.013808404022990911,0.5540524371965022,-89.36595062487177,1.5749515152640383,-90.6030796555954
1546877146.954599,-0.48267214527067737,-90.54390803392076,0.008520532835005444,0.00904144362278925,0.001117804461735825,0.552908938847959,-89.38022190395834,1.5859256675957978,-90.54390803392076
1546877147.054599,-0.4295157315184104,-90.5444220310162,0.009054314765346622,0.007514312483221728,0.010969010124606163,0.549406152156676,-89.34023014747224,1.6094749150418781,-90.5444220310162
1546877147.154599,-0.3790886542492058,-90.50994866495994,0.008387606450299154,0.0066137316050581966,0.015006534343764102,0.5387379165512123,-89.32126732422412,1.6377051264337055,-90.50994866495994
1546877147.254599,-0.32532266657695713,-90.5216881203108,0.00827812860118095,0.01053713591769172,-0.001721348252812051,0.5200143917304781,-89.30885742888916,1.6339211237958318,-90.5216881203108
1546877147.354599,-0.2746446174772164,-90.52102052060927,0.008456322946029354,0.00921203538430016,0.010446227561912502,0.48872542847290623,-89.34606332423867,1.5685353038125376,-90.52102052060927
1546877147.454599,-0.22476273532994484,-90.5675570522954,0.00803309696670632,0.008434427589014406,0.008099687084558022,0.4640299619020581,-89.40973174212508,1.5226068282942298,-90.5675570522954
1546877147.554599,-0.17700586688835207,-90.11369176195738,0.0081489971967428,-0.05874040432107927,0.005375442656814432,0.4984808818471254,-89.42257540304075,1.4787615176144395,-90.11369176195738
1546877147.654599,-0.12465139947358117,-88.88231416651567,0.007524418683021664,-0.07453520730432307,0.02729365227303522,0.552204965001024,-89.4675545903206,1.5381768236861137,-88.88231416651567
1546877147.754599,-0.07446742263934086,-86.21286742016049,0.007504442760082242,-0.18440732912338542,-0.0021906402956641882,0.5235149401069817,-89.4940785194539,1.6138084041660108,-86.21286742016049
1546877147.854599,-0.028363013673220083,-82.37178099426,0.008844758835092488,-0.19323195942448454,-0.003789280905224835,0.4903524330938518,-89.44314883209775,1.5561569969829638,-82.37178099426
1546877147.954599,0.013202246076437496,-76.97303763778635,0.009961548478513707,-0.3666956667272102,-0.006692678746027527,0.42864869964841545,-89.37089956277994,1.5923816907264132,-76.97303763778635
1546877148.054599,0.037851756823343796,-69.05540706370108,0.010076596583624083,-0.342782758288594,0.0017642131901114463,0.19988174835974373,-89.44553173045388,1.5970625817454076,-69.05540706370108
1546877148.154599,0.03151311301297599,-61.29994808183159,0.010522552476730205,-0.3609949397315295,0.024982612205663588,0.007108407794869469,-89.34404712766816,1.6006527260288899,-61.29994808183159
1546877148.254599,0.010358311166800277,-53.31559841933452,0.010405384674871263,-0.38932088144002086,0.007860774390284923,-0.03358912531954827,-89.31609047341301,1.5969419081378455,-53.31559841933452
1546877148.354599,-0.00441940567417734,-45.66639299989453,0.010829676708665028,-0.3176853269703356,0.011193649779998307,0.24103074290703083,-89.20265022955361,1.4951710561946372,-45.66639299989453
1546877148.454599,0.0020083358383795047,-40.175798735578844,0.012313187318979384,-0.20219848185445996,0.006556328349671897,0.40621446022588314,-89.16392115209818,1.3841608436086237,-40.175798735578844
1546877148.554599,0.02634902741743876,-38.930704581027776,0.012648156455536326,0.02366096628621053,0.002537945816384993,0.38220831794698007,-89.20233365795228,1.3653038674278266,-38.930704581027776
1546877148.654599,0.0537363145680769,-39.247099705976716,0.01372706267381816,0.004856475750977794,-0.002470000833875426,0.42121922300375053,-89.12677596642976,1.366710268680488,-39.247099705976716
1546877148.754599,0.0832902389658299,-39.23503997525654,0.013318247073926665,-0.0014713760087779405,0.0021571869831458904,0.4496478972671382,-89.1385873598431,1.366849452925551,-39.23503997525654
1546877148.854599,0.11262960971880853,-39.137010569405284,0.012793262352692751,-0.015092735007859865,-0.006445408551433097,0.46220541508662977,-89.17566060866817,1.4129388798308349,-39.137010569405284
1546877148.954599,0.12900105213411148,-35.62392722669921,0.012467164331045399,-0.2792029398787293,0.029249946401971195,0.4505258320399195,-89.15573760768541,1.4842949919514887,-35.62392722669921
1546877149.054599,0.13375903154130867,-29.44835454036933,0.01199654471646148,-0.3128593415000674,0.0250477374346212,0.483596248378539,-89.10696748478095,1.3756890419618972,-29.44835454036933
1546877149.154599,0.1348959531559049,-23.301666199227462,0.011979521627046205,-0.3235295933636428,0.027862343817289525,0.5050656965023421,-89.01959361671307,1.3892775543027522,-23.301666199227462
1546877149.254599,0.13110715978081516,-17.24567590950426,0.0124485318776987,-0.28429670839132115,0.02528829096642113,0.5147779231866519,-89.11692792769361,1.3272304324404012,-17.24567590950426
1546877149.354599,0.12183479431925737,-11.514190652758769,0.01277904002520453,-0.29479398601576984,0.03220850489099242,0.48909160147099534,-89.04310334973317,1.414445426488216,-11.514190652758769
1546877149.454599,0.10674896087666394,-6.1771760755848,0.014102950129617644,-0.28539438920194266,0.0022285129943695383,0.48328512343986035,-89.09362923944275,1.4646023903950203,-6.1771760755848
1546877149.554599,0.08664630994842762,-0.9616952968558203,0.015036009691177347,-0.2639322788804963,0.01552595343473807,0.4651380569869799,-89.14503863980369,1.4043050539935784,-0.9616952968558203
1546877149.654599,0.0706514068835121,2.560207373372043,0.015233398987801497,-0.13843866724268847,0.003375858722125917,0.4399392763135484,-89.25288960357116,1.3831461597461359,2.560207373372043
1546877149.754599,0.059615428079182006,4.520121620925717,0.015266391382989554,-0.0777135210636526,0.0005619236899211972,0.47024820823722996,-89.2736317298586,1.343951973473562,4.520121620925717
1546877149.854599,0.05527039342992569,4.937915734935929,0.015374092884730595,0.024934643642642102,0.0040759640664875885,0.42579109854286074,-89.29479944618572,1.2663668795932486,4.937915734935929
1546877149.954599,0.05298374448192654,4.681153613469272,0.015803978150493204,-0.00834439292763504,0.0058424396293665325,0.41600000564485634,-89.23399485168908,1.3279703109471717,4.681153613469272
1546877150.054599,0.049047120456241655,4.73480450782132,0.015906181759155424,-0.008086155599857354,0.010289142771979589,0.4457174846605773,-89.22966002744818,1.3036307938208553,4.73480450782132
1546877150.154599,0.03553222493675123,6.693551123086078,0.016140586007166904,-0.22408657416313038,0.005639298905904184,0.46805959991062895,-89.2004127983907,1.3649616127771143,6.693551123086078
1546877150.254599,0.006923949317576852,11.846192028707263,0.016344758071001896,-0.19048094922076325,0.008351238387360115,0.4673542754388906,-89.19444720835834,1.1680657253054068,11.846192028707263
1546877150.354599,-0.0047234979116684145,12.877816732088283,0.016324957081612995,0.024874763559935127,0.009302491271686808,0.4204073764978521,-89.19640305388033,1.2424096090990633,12.877816732088283
1546877150.454599,-0.011758737715132347,12.594680439818612,0.01613542417260786,0.010736937726985873,0.0011091026102461,0.4270129899959207,-89.29140211000954,1.2076629802272614,12.594680439818612
1546877150.554599,-0.01929954277646445,12.459760666293601,0.01620244743959342,0.09749665870426273,0.0064640672071681424,0.4306961233132038,-89.3512552768588,1.1625827960827189,12.459760666293601
1546877150.654599,-0.010247810353703563,8.902281593876609,0.016363458470526143,0.24376379956518995,-0.006529368497034185,0.3422186500841102,-89.33375360156676,1.2895364048951448,8.902281593876609
1546877150.754599,0.007955434842151249,3.752864738929969,0.016975142502708464,0.25787917912114766,-0.018559451011677844,0.34356568224140555,-89.28338287531794,1.3129468394777206,3.752864738929969
1546877150.854599,0.013073377903124357,1.789925085030597,0.017864468451667215,-0.019244716503975485,-0.005058553650909585,0.40546788189553995,-89.34185534299192,1.4034135849397016,1.789925085030597
1546877150.954599,0.010822567213069626,2.041393432907889,0.01757276915846429,0.001335060806856826,-0.006538900540476281,0.4412472532879781,-89.37589536013608,1.3707119244237216,2.041393432907889
1546877151.054599,0.00917487555422301,2.145810262475815,0.016318416981216034,0.004260768274277354,0.016923684897791266,0.48118194218093957,-89.3980863951705,1.4143035112005125,2.145810262475815
1546877151.154599,0.0076694908607415554,2.1944815815002623,0.01592998267847498,-0.004758098968731946,0.014414995231700999,0.5375951293379192,-89.49270528990168,1.3862847764954638,2.1944815815002623
1546877151.254599,0.006416908937407647,2.247113844391557,0.016181387759455185,0.002411352598294506,0.018646370204306695,0.5535125139508219,-89.50500275734731,1.4302609305981209,2.247113844391557
1546877151.354599,0.005142884846866057,2.3328645487557886,0.01640829062498848,0.004750347186304787,0.0073412171122544945,0.5409852344363598,-89.48163222545645,1.4298676742541896,2.3328645487557886
1546877151.454599,0.003733561078381043,2.33362248860258,0.01673873922524208,0.0005949861903323242,0.0037676625480390054,0.5372117814840525,-89.4977437338405,1.4346420957610646,2.33362248860258
1546877151.554599,0.001768142559201288,2.4359681779851186,0.016851139925500736,0.006741581861930412,-0.0036009561415068564,0.5223723124251985,-89.48942775960289,1.431067123374961,2.4359681779851186
1546877151.654599,0.0011743637917450839,2.3207273502542733,0.01675555798731032,0.00024194045176397806,0.004632884727766524,0.4791087685640866,-89.467544642064,1.5289075410967414,2.3207273502542733
1546877151.754599,0.0016102300930699413,2.215427322172664,0.016897534838663297,0.07660187398943182,0.00574583716840578,0.44541197781350544,-89.44760758085839,1.3699054324024331,2.215427322172664
1546877151.854599,0.00629666585152764,0.9632378924006302,0.01709109496874478,-0.0029969116643388262,0.005987023360550964,0.47639787390853794,-89.38856893518765,1.493045571683289,0.9632378924006302
1546877151.954599,0.005990400405831927,1.062015507122423,0.017678798049296982,0.002275629575413507,8.405292563283973e-05,0.4966130661272145,-89.36702830820235,1.539607012139533,1.062015507122423
1546877152.054599,0.005974989145631177,1.1633009232677072,0.017133006369867906,0.009133232488311632,0.0075148021391926965,0.48566421624242107,-89.46549595202788,1.448139805563509,1.1633009232677072
1546877152.154599,0.005530334017065331,1.2343832793497762,0.01679668813905476,0.009398708193244214,-0.0004874978912153688,0.48487258553029267,-89.5120224410249,1.3108742649617044,1.2343832793497762
1546877152.254599,0.005262773729172342,1.214210826972862,0.01657245543714193,0.0060451128383521196,0.010671754907343466,0.49840207185067087,-89.54077232455522,1.2990287185686202,1.214210826972862
1546877152.354599,0.004825054139279141,1.260485555307184,0.01725075135220756,0.007710001847332188,-0.005626910146591816,0.49408270386865183,-89.45903510503878,1.2970220512740411,1.260485555307184
1546877152.454599,0.004051124711477847,1.295863941262553,0.017906583059506296,0.0007573466390504854,-0.003322106852415305,0.47045172215702274,-89.40273914586332,1.208309921657792,1.295863941262553
1546877152.554599,0.0021584726780935416,1.4688782808216605,0.018329867582928303,-0.021428557781265165,0.02358537658425367,0.5093351470316395,-89.27426610460284,1.2066051884978573,1.4688782808216605
1546877152.654599,-0.007213137580375154,3.1902307630806677,0.017818053537174913,-0.13715312629521836,0.013512341935511568,0.5273873418049052,-89.43003420379027,1.294093922862236,3.1902307630806677
1546877152.754599,-0.02378553478326674,6.198734510823628,0.017906214518450494,-0.12202524524415145,0.014822910585840052,0.5514448383362047,-89.4220520153388,1.4166547679055395,6.198734510823628
1546877152.854599,-0.03650182932867207,7.91524404169365,0.01808863391802202,0.009999049335357559,-0.025783781611535304,0.525703492954439,-89.43978787482652,1.3947767466891088,7.91524404169365
1546877152.954599,-0.04110088466932332,7.546960107745241,0.01806736764498104,0.0014425550564709424,0.009281046555431514,0.4802790616866667,-89.32582598446629,1.405639443710919,7.546960107745241
1546877153.054599,-0.0477967081213117,7.594469566330334,0.017974470157840067,0.004285195622153918,0.010365523686403491,0.505588054530965,-89.23034408714747,1.3511658099888622,7.594469566330334
1546877153.154599,-0.053484125939545005,7.598411743235548,0.017459021247131314,0.005326190379195924,0.0036538443834815753,0.5147883187571135,-89.34582148143791,1.4757659266594734,7.598411743235548
