timestamp,x,y,z,vx,vy,vz,roll,pitch,yaw
1546877122.954599,0.0006885903386166847,0.18011209870675268,0.00016536481515339635,-0.0015692035061618745,0.29020410352800324,-0.004594823744903239,-89.2246584137729,1.45510164148483,0.18011209870675268
1546877123.054599,0.0013960133109794833,0.20568032831427516,0.000366016627590241,0.010266979656035367,0.004796470860054602,0.2968783831381817,-89.18098328520712,1.4498128898875815,0.20568032831427516
1546877123.154599,0.0017388957093838133,0.26951357576425444,0.0006859328809412162,0.004853314988530446,0.009466097067970119,0.3306836187626144,-89.21139775356008,1.4310465985035994,0.26951357576425444
1546877123.254599,0.0018732533282741558,0.264672354548301,0.0009053422230679417,0.003584823267635106,0.004398619932767468,0.32847379996802956,-89.2154201420635,1.420246061778313,0.264672354548301
1546877123.354599,0.0022694446956407744,0.2543734094771935,0.0013015442810907164,1.281031402387069e-05,0.007149933722729998,0.31022593146357125,-89.16400246454442,1.419084341867549,0.2543734094771935
1546877123.454599,-0.0030968720330527898,1.4567019529503353,0.0013269675453080434,-0.06916694812045845,0.0032068763320216025,0.27569953292426164,-89.1922312880993,1.4181358030809004,1.4567019529503353
1546877123.554599,-0.007307174233282526,2.3373332232296344,0.001019731151062608,-0.014480555703359932,-0.006641922316829242,0.28832628128611976,-89.23746605814704,1.3957877816690427,2.3373332232296344
1546877123.654599,-0.009174565835258126,2.5787347237446654,0.00041705683700370323,0.003928017692482636,0.004517140527953887,0.291099528819383,-89.3973768616333,1.2630748867029356,2.5787347237446654
1546877123.754599,-0.009298046093705417,2.4318739546806056,-0.0008613195072177905,0.0005375407442247318,0.0032901737661363045,0.2558102881265483,-89.72652013864895,1.0241565185723636,2.4318739546806056
1546877123.854599,-0.01007496792068613,2.5167586078104427,-0.0027207971017259615,0.00996100281279313,0.004361894674435696,0.24613252062877986,-90.1558534363537,0.6446119357613662,2.5167586078104427
1546877123.954599,-0.010719513588546666,2.433511109657915,-0.0045409448145220365,0.00013844626890860748,0.0022256590365872897,0.25219039357793155,-90.54545118540204,0.25789825157036056,2.433511109657915
1546877124.054599,-0.01148564406785434,2.3978356200476543,-0.00553674104758765,0.003842231067549228,-0.00805798947077803,0.24382114329490545,-90.70211436030047,-0.2692053572954992,2.3978356200476543
1546877124.154599,-0.012130287090945137,2.3878312881728525,-0.006275803744146945,0.006326227714390697,0.0012806883316904844,0.2801126811545464,-90.76983429067035,-0.6794069400427356,2.3878312881728525
1546877124.254599,-0.013262478973921852,2.4076284906334697,-0.006920128511202793,0.004830656318001867,-0.0023521583618750916,0.31046813485238567,-90.81802655064713,-0.8611792772159261,2.4076284906334697
1546877124.354599,-0.014400911298976785,2.381499178321422,-0.00751473633485642,0.00510304678240879,-0.005183165206356178,0.34518326261984134,-90.78188829923052,-0.9080673409018802,2.381499178321422
1546877124.454599,-0.015581079203193224,2.405539550908653,-0.00793195955983014,0.0032258164943403203,-0.0005407329234416187,0.3939672937175244,-90.6846726917883,-0.8584270648934647,2.405539550908653
1546877124.554599,-0.01656422900640049,2.4063496065085177,-0.009131296088736767,0.006836657064389018,0.0021647856792248238,0.4176086783987883,-90.7442471478141,-0.728782025893589,2.4063496065085177
1546877124.654599,-0.017547803926349293,2.45463367053117,-0.010162319788794446,0.0063918325232317046,-0.0017122586439467188,0.32834007097598694,-90.78809793138821,-0.5852019258815919,2.45463367053117
1546877124.754599,-0.01830665807681332,2.3967538399989636,-0.010619071149809468,-0.006950394376629651,-0.004997858577817907,0.31140446022958884,-90.6754253163981,-0.4597773277801291,2.3967538399989636
1546877124.854599,-0.01992419159760322,2.36729947068188,-0.011187853689009129,0.0015903613562440685,-0.0006939407170649717,0.36451515910418625,-90.65218774875903,-0.41127813311287903,2.36729947068188
1546877124.954599,-0.020844619140088914,2.376047518404701,-0.012029117093713116,0.004465126591554159,0.010654530292020178,0.3755278386147465,-90.61349977432894,-0.22580753761963962,2.376047518404701
1546877125.054599,-0.02182639286589054,2.4588236377022823,-0.013088642366746268,0.00607704595525931,0.011194256207500097,0.367126465684189,-90.60995735673657,-0.19544339860409632,2.4588236377022823
1546877125.154599,-0.022025924068893265,2.4395977398286424,-0.01364977901760918,0.01122847847676292,-0.0054448831913830945,0.3488609149030561,-90.62330769418001,-0.19494115504442688,2.4395977398286424
1546877125.254599,-0.023004450271654025,2.45474801393813,-0.014441803454514932,-0.0009179061578010973,-0.0015881014902231502,0.3101782750953477,-90.66142939711384,-0.15891615530539785,2.45474801393813
1546877125.354599,-0.023524333104620754,2.3681539026191945,-0.015102746353054424,0.007325235914594061,-0.0061633752330842555,0.30421178007631866,-90.65416612500309,-0.13383273107435378,2.3681539026191945
1546877125.454599,-0.024396921058265922,2.323793074397596,-0.015844976037841938,0.00375340081162467,-0.014245134901776577,0.372152245216891,-90.69502492684616,-0.1567454639228521,2.323793074397596
1546877125.554599,-0.02539799129960646,2.3375182778494126,-0.016224232881615206,-0.0015651080004143807,-0.0003132112898309178,0.3959253418461249,-90.69530671961448,-0.1982194938079789,2.3375182778494126
1546877125.654599,-0.02658112231548109,2.3813116004759363,-0.01664378842058961,0.009833533350710667,-0.0022338059378006073,0.40265094645191435,-90.7093450132049,-0.33145556930926773,2.3813116004759363
1546877125.754599,-0.02718636662502092,2.398343164688916,-0.017228650671928962,0.009197376086063757,-0.001102588558966582,0.398993221342927,-90.6274192942762,-0.21872032595692503,2.398343164688916
1546877125.854599,-0.02864046292184797,2.4527049830713814,-0.018343401130120594,-0.0033579892357989815,-0.003977228586885511,0.4283100671237188,-90.63611846179508,-0.2709911538386199,2.4527049830713814
1546877125.954599,-0.030103375958176984,2.5130749121899,-0.019450970758545568,0.008194026803610078,-0.0048617676638169245,0.4058043570913051,-90.67033361677078,-0.35156503254419896,2.5130749121899
1546877126.054599,-0.03146958944839261,2.5128823673518403,-0.020334081863629252,-0.008266414384900028,0.0022312767238587185,0.4077463004623332,-90.6687537583452,-0.3396535236603811,2.5128823673518403
1546877126.154599,-0.038291233627028784,3.4970768611013274,-0.021444443874948614,-0.0975955994720589,0.005253355834889895,0.3814083485520106,-90.72605042647209,-0.28994241411937055,3.4970768611013274
1546877126.254599,-0.04808609297670494,5.364063584058972,-0.022570801615283485,-0.05148298278097082,0.0010357015830089362,0.37049858409890846,-90.74323396128432,-0.28137671437770145,5.364063584058972
1546877126.354599,-0.054341202713932196,6.149446117872583,-0.023473641093832858,-0.02601741010026505,0.001617204691113548,0.39411714382811136,-90.78571844790083,-0.2022479715772169,6.149446117872583
1546877126.454599,-0.06357613790846435,7.18039950540979,-0.024787512532521472,-0.07934496038464087,0.006764038891229228,0.39689285070087915,-90.8900432146784,-0.05108022719667845,7.18039950540979
1546877126.554599,-0.07865983494938887,9.534535471580293,-0.026868860544109367,-0.11522588105946731,-0.0040228342036495845,0.3382060694694542,-91.16741532525461,-0.0273990003671283,9.534535471580293
1546877126.654599,-0.09807021401712052,12.41369797843938,-0.027660835064051027,-0.15931161502969765,0.0031641805699624357,0.3703750680328511,-91.05862530613742,0.2474679804408528,12.41369797843938
1546877126.754599,-0.12361196088910208,16.239971404219688,-0.02793164949788302,-0.21749080481554875,0.013912890265045484,0.33687809749500586,-90.91559004343505,0.646588785497236,16.239971404219688
1546877126.854599,-0.15212585760633587,20.509381062369776,-0.02798232057244347,-0.1808208076994965,0.009983899265505674,0.34049533176787244,-90.76383202876129,0.9828881454105252,20.509381062369776
1546877126.954599,-0.1834870759184405,24.802095183842688,-0.02684391693375433,-0.19926344710487456,0.0022458717213348542,0.3386805099662125,-90.46729098690328,1.1726422563358263,24.802095183842688
1546877127.054599,-0.21717188998152742,29.229776846690893,-0.02574169031321695,-0.2236554529079905,0.010247830374791265,0.31523341322035464,-90.21234661759459,1.2030688847660769,29.229776846690893
1546877127.154599,-0.24947421971155218,33.38430043894422,-0.02466570078988261,-0.1701929173254562,0.01023132255285443,0.2715364568829393,-89.91242075274675,1.2731938567863097,33.38430043894422
1546877127.254599,-0.28333285796534247,37.513080225465735,-0.024531829059930153,-0.22759468885249853,0.007795348476384664,0.339964551729889,-89.75035689642269,1.338629288078123,37.513080225465735
1546877127.354599,-0.32895239439082535,43.824920801994374,-0.02387829393898709,-0.3355599344988548,0.004824161072126216,0.34849403194375933,-89.68958953617175,1.3779083853438996,43.824920801994374
1546877127.454599,-0.3742829193545173,51.46031291384556,-0.022765468342736964,-0.34633027759300294,0.003650348779805128,0.20500042038730998,-89.80556428505393,1.3002921265004925,51.46031291384556
1546877127.554599,-0.4056230253591766,58.45640684955784,-0.023151546404281305,-0.32771786725912,-0.0014314497288110562,0.055015128897495005,-89.80423038084952,1.3628687654606237,58.45640684955784
1546877127.654599,-0.42751899270403926,65.4850945553174,-0.02411548593473179,-0.34106628269127026,0.006535110953780127,-0.005075303115952914,-89.80835570531693,1.2569421743783287,65.4850945553174
1546877127.754599,-0.4432651806840941,72.75379010216074,-0.024219435547996042,-0.3497641160880659,0.0004536509048404299,-0.005651339208365316,-89.82119340804644,1.2438480721728278,72.75379010216074
1546877127.854599,-0.4568882588932167,80.23801807643784,-0.02458587845361977,-0.3305569572639898,-0.0016791121641313612,0.023777280881608985,-89.84442287411413,1.219945751567535,80.23801807643784
1546877127.954599,-0.4719523453732513,86.36272647441761,-0.023954256025565872,-0.22033133737959568,-0.0017579674047447647,0.14552366332787972,-89.72332836586686,1.2538770580396006,86.36272647441761
1546877128.054599,-0.4899999486130593,88.73094199728556,-0.023695701773584127,-0.05481783655636163,-0.0019426999960384496,0.1934024155335064,-89.66064425812195,1.3032125670492059,88.73094199728556
1546877128.154599,-0.5146022554075932,89.08125076326573,-0.023738518646224283,0.002671514788701306,0.001919799252853417,0.2794619823660479,-89.68328152803963,1.3133109097660631,89.08125076326573
1546877128.254599,-0.5448191939499119,89.10406494179716,-0.024555401191296802,0.010175785056328613,-0.0001733869360004941,0.3024517655876349,-89.72515661624807,1.3322603470772152,89.10406494179716
1546877128.354599,-0.5760945009582908,89.0979817948737,-0.02439698864842049,0.0062980837390922105,0.004792947775225346,0.31741541808626383,-89.68158910120489,1.365048018795646,89.0979817948737
1546877128.454599,-0.6113404598280943,89.0819756318936,-0.024347028329569878,0.007658232074674493,0.006110554080747026,0.3801003997487452,-89.63498776582831,1.336572082262454,89.0819756318936
1546877128.554599,-0.652358038841848,89.08296853979998,-0.024410008411873584,0.0026120727948010015,-0.001159536986257669,0.4339854620749358,-89.61740629655202,1.3305629274374007,89.08296853979998
1546877128.654599,-0.6956726841787075,89.12106605588484,-0.02442077300757608,0.006783367401616499,0.011892152089339424,0.42102538046173077,-89.59470651136061,1.3873210093111992,89.12106605588484
1546877128.754599,-0.7361526670014376,89.26848502344602,-0.02475384250294598,-0.044392682050276015,0.007424855106134786,0.382563192402793,-89.63284964555164,1.4636231424846475,89.26848502344602
1546877128.854599,-0.7734711861654612,92.201957655541,-0.024594141673621478,-0.23322130504138158,-0.010194499481101507,0.3746936226418709,-89.67523192090603,1.5630820469063706,92.201957655541
1546877128.954599,-0.8108476373270567,96.73210073601437,-0.02432137912701155,-0.08701687791361894,0.005511777498722737,0.3749478081913613,-89.66837822952964,1.370018373079371,96.73210073601437
1546877129.054599,-0.8438392263588455,96.78816107443319,-0.02460223822906354,0.026756440949269655,0.004908025222185551,0.32188044601888277,-89.65240187778774,1.5224909353000724,96.78816107443319
1546877129.154599,-0.8748550594914626,96.62192165231333,-0.02436818250690634,-0.0023152403822469738,-0.0017020783417499266,0.3304017338604992,-89.57674293711345,1.5656610785719227,96.62192165231333
1546877129.254599,-0.9086448023352278,96.62945306847716,-0.024176328979794673,0.0024377858076287647,0.0010420619787232487,0.3583231127199593,-89.52594007523034,1.6202130458740982,96.62945306847716
1546877129.354599,-0.9437025879385146,96.6713154306477,-0.02450717858400463,0.006826086760082578,0.0013148166125313099,0.34647368361152575,-89.51669226546824,1.5819666019419998,96.6713154306477
1546877129.454599,-0.9796804015109579,96.65270389161361,-0.02463373289490131,-2.381597889290638e-06,-0.00028199120417675546,0.37870620056371573,-89.5155516751821,1.5322315352994944,96.65270389161361
1546877129.554599,-1.0193666766816472,96.7053536501852,-0.02496648037013972,0.0015180286012070256,-0.0032746056831643258,0.42448843374100237,-89.51061723427298,1.3462562961448283,96.7053536501852
1546877129.654599,-1.0633129293272872,96.68433434227032,-0.02547546982533059,0.004250976379877637,0.025307336873611166,0.4539929339600756,-89.57479675600305,1.3570458009710573,96.68433434227032
1546877129.754599,-1.1075170920564623,96.75764859632116,-0.025593028182478265,0.004651035309512194,0.008021607090972098,0.41591893792962237,-89.57376360320654,1.3397563854392995,96.75764859632116
1546877129.854599,-1.1456061677774998,96.76561865608689,-0.025398985107859606,0.013301445513499691,0.011841099827338894,0.3532780171673073,-89.53355021287136,1.4270657655286887,96.76561865608689
1546877129.954599,-1.180912577371838,96.6742371441924,-0.024847254153114767,0.008016820789069064,-0.004289085245148117,0.3710313859891907,-89.48843022488465,1.5005007886643285,96.6742371441924
1546877130.054599,-1.220748782791517,96.70311139387924,-0.024165415966604004,0.006792678127296756,-9.42895371760003e-05,0.41711984622036297,-89.44856498698019,1.575683575744325,96.70311139387924
1546877130.154599,-1.2627249735099497,96.7553245317041,-0.023634114033870106,0.017561670453620542,0.0017123540667698582,0.41535075283046785,-89.43502563247328,1.6551613553022355,96.7553245317041
1546877130.254599,-1.306100899858592,96.74478148943102,-0.023581910931837955,0.009278680168652641,0.020044209360164246,0.4653595336162625,-89.36646040017091,1.743945668821438,96.74478148943102
1546877130.354599,-1.3544825334467123,96.82839663017376,-0.023403732844625113,0.012735253509495234,-0.0010330963602474055,0.5014879635913801,-89.30641405800245,1.6636279318292324,96.82839663017376
1546877130.454599,-1.4043415077622725,96.87787945352908,-0.02319791490821114,0.006716403917789326,0.01249151444253066,0.5093334785862282,-89.26700194597883,1.5585724137675916,96.87787945352908
1546877130.554599,-1.4570413567861888,96.8994790301552,-0.02306827632975969,0.004607281196907211,0.005130780538907148,0.5486447376522807,-89.20831633573162,1.5024623600231555,96.8994790301552
1546877130.654599,-1.5114769229394076,96.95697364507248,-0.023340162794157487,0.01021608918798081,0.01757332813377701,0.5120796806934472,-89.30942028887671,1.5823108265812322,96.95697364507248
1546877130.754599,-1.5585906975956212,96.95712642605938,-0.022669479614179644,0.009015882083680527,-0.005707885610722974,0.44017672452365164,-89.25283621621614,1.579812909616474,96.95712642605938
1546877130.854599,-1.6032712085881324,95.6993087809236,-0.022374126605488032,0.1187847026061435,-0.004802873207531902,0.42043892320497506,-89.23553889312488,1.4897413163831765,95.6993087809236
1546877130.954599,-1.6474713499231572,94.69531826671354,-0.021950597959605665,-0.017197007748225097,-0.002164727083880915,0.42773241332269923,-89.21924987199684,1.6040707433632522,94.69531826671354
1546877131.054599,-1.69179286620002,94.91823903974418,-0.021633289421699137,0.0064722623765810046,0.0064485187252477354,0.4705504212201347,-89.22467841110577,1.553667323032961,94.91823903974418
1546877131.154599,-1.7421055751857564,94.96751239135962,-0.02132898969260556,0.007606069990321396,0.011343128530502445,0.5256882307151596,-89.16579371354813,1.568400650926593,94.96751239135962
1546877131.254599,-1.7960356611432382,94.99106050812321,-0.022217645224610116,0.014522039379190499,0.02361416931735813,0.548580765219847,-89.27850301646696,1.6093756404723956,94.99106050812321
1546877131.354599,-1.8512553771218654,95.0404452107427,-0.02277135625625084,0.0038531926386425387,0.02984456505388474,0.5499530248910185,-89.35972961651605,1.6646286097898946,95.0404452107427
1546877131.454599,-1.9072329927096838,95.08384094300058,-0.022873607006645116,0.01196992260666088,0.025965527077996618,0.5889881040919576,-89.33553200538567,1.7349843558240643,95.08384094300058
1546877131.554599,-1.9691065453934393,95.13311061785656,-0.0233587215373373,0.011246661777992255,0.039523343355850137,0.6384156368567071,-89.3713422131837,1.7973770328315049,95.13311061785656
1546877131.654599,-2.029926692888551,94.74636995437973,-0.023076069787169425,0.08879496701122327,0.0003808576280025524,0.5657255404177529,-89.45158750543446,1.5507634805878379,94.74636995437973
1546877131.754599,-2.0865799564353593,92.74136064573669,-0.022634409583286427,0.05812610506361382,0.0014910273819807225,0.5622088385340028,-89.45953373751385,1.5559075725680909,92.74136064573669
1546877131.854599,-2.1449813716919257,91.97923068481391,-0.02272300077076448,0.015019578187488693,0.009464193015574898,0.5965816026913976,-89.51659671165815,1.5082048924045504,91.97923068481391
1546877131.954599,-2.203808911096302,92.23614923205312,-0.023226995304491228,0.008905425631144189,0.007647208357672854,0.5761356890123771,-89.57721882385457,1.3927527927668817,92.23614923205312
1546877132.054599,-2.2605159052584556,92.23375219788889,-0.023617975682075434,0.020798261910150488,0.008324088294755347,0.5707653080252881,-89.63770967000191,1.5189770605563175,92.23375219788889
1546877132.154599,-2.3159870239180025,92.24696885152487,-0.02348222734617933,0.011663651753264108,0.012307371070253061,0.5399263463340855,-89.63918479891494,1.490822825805419,92.24696885152487
1546877132.254599,-2.3679165182788546,92.25893976843919,-0.022991237870618766,0.006171062351762534,-0.027138982689264138,0.5122779373195152,-89.62365962803808,1.5550230619780652,92.25893976843919
1546877132.354599,-2.4215420780120445,92.26051345572252,-0.023203417859719813,0.006659758440663205,0.009153967828168769,0.547820214832794,-89.60163446181011,1.605909842226127,92.26051345572252
1546877132.454599,-2.476683984301723,92.29146059731224,-0.02398846325301374,0.008796148060318665,0.0030821092163790687,0.5645214978835386,-89.653536524337,1.5263999697988895,92.29146059731224
1546877132.554599,-2.535588637251627,92.31899616243089,-0.023387504879423468,0.008238131129626118,-0.006589498221295043,0.6174567854559926,-89.6100091302123,1.5021324210840057,92.31899616243089
1546877132.654599,-2.59819027308719,92.37539170418445,-0.022844209532403615,0.01045451198405167,0.008340328675972723,0.6291312587723485,-89.43889568977453,1.53968917085041,92.37539170418445
1546877132.754599,-2.659230770763621,92.4015137241997,-0.02218475149705008,0.008453715541518567,-0.009858073075158617,0.5732646662083749,-89.41075278244007,1.6229323292599744,92.4015137241997
1546877132.854599,-2.713127768369704,92.42555943647238,-0.020987544431629323,0.010479804019973345,-0.021380732187247585,0.5223284977175746,-89.28893267867596,1.4938380873285675,92.42555943647238
1546877132.954599,-2.768385619221385,92.31969929957289,-0.021654973550779947,0.008460965205012013,0.01300407681684214,0.5681579672174786,-89.33856153241797,1.6126957758366256,92.31969929957289
1546877133.054599,-2.8248368462870426,92.41108277026194,-0.021668686414516143,0.01667858159391337,-0.00010128346314400728,0.5629343083764701,-89.30854107851583,1.6470287369793173,92.41108277026194
1546877133.154599,-2.8813263599763297,92.44127422297156,-0.02139623417114649,0.015547129197005207,-0.00038031069311419193,0.5585020163468647,-89.21057516252043,1.6537689043860846,92.44127422297156
1546877133.254599,-2.937869638649796,92.39796589562334,-0.0216799674998221,0.015044976513764283,-0.0027582658823663182,0.5801677722571276,-89.27161287932569,1.6499643524987062,92.39796589562334
1546877133.354599,-2.99826377989414,92.38586449859527,-0.021634963275561202,0.014799047651332905,0.006989382637760692,0.6217296399164259,-89.38306771977511,1.688359589230961,92.38586449859527
1546877133.454599,-3.0635685564033244,92.450430535354,-0.021952473443678365,0.015894796538737894,-0.004728354290464135,0.6704864313524981,-89.43978294596378,1.7368945373943834,92.450430535354
1546877133.554599,-3.1319052355623764,92.4707926106218,-0.02283017496372783,0.017300915616681407,0.020892252892217866,0.6878276545632683,-89.51333758435217,1.864952791927771,92.4707926106218
1546877133.654599,-3.200815989006743,92.49374466995339,-0.02289481820901977,0.017265124234761235,0.018007299939286896,0.6834765185546505,-89.53483184345653,1.9132859156504256,92.49374466995339
1546877133.754599,-3.2687246887197308,92.43573967400052,-0.023237660850955397,0.014775620613501284,-0.0007773824643138843,0.669100413658888,-89.6674566878453,1.7585409403652845,92.43573967400052
1546877133.854599,-3.3340850320318967,92.6114403704689,-0.022859338258124633,0.00480754892709869,-0.002477349568107156,0.6159143525009102,-89.7284567362408,1.6732885885655182,92.6114403704689
1546877133.954599,-3.3905036516195053,92.65929812771697,-0.022490641773201096,0.010880355119386039,-0.0037831554218520354,0.5017967003885115,-89.68654874387904,1.4906224351930608,92.65929812771697
1546877134.054599,-3.443696342062519,92.5885591917649,-0.022477842432970786,0.00561679013872487,-0.004590200488491,0.5400776957564346,-89.62428951299822,1.5008185778968517,92.5885591917649
1546877134.154599,-3.5017985627952424,92.6436797153113,-0.021916318685915682,0.0040120331692494755,0.006441272163226774,0.5890828283019705,-89.50057560150157,1.5130072850727943,92.6436797153113
1546877134.254599,-3.561668362552155,92.72753218362776,-0.02113734961741438,0.007314549125454661,0.0026711932334935688,0.5924688417823273,-89.42244655494011,1.5663404176948847,92.72753218362776
1546877134.354599,-3.6238341160297804,92.744151080934,-0.02042620869673852,0.0040378742174085975,0.008398521577473426,0.6275238179147881,-89.3876876248319,1.5834020548836836,92.744151080934
1546877134.454599,-3.6861253627616355,92.83129869927672,-0.01964530347535975,0.013787518551313873,0.005152112381435597,0.6193580366356215,-89.2149027753546,1.4343192687254618,92.83129869927672
1546877134.554599,-3.7478361106726044,92.81225646321018,-0.019640667013017456,0.007853887526103701,0.0010970670851367355,0.5705080527106267,-89.23276248992062,1.3767032508665056,92.81225646321018
1546877134.654599,-3.7990500056556007,94.47515235024828,-0.018822902475041623,-0.17422613212356397,0.012757520051481544,0.5000064566962693,-89.1243320268112,1.4617645875854668,94.47515235024828
1546877134.754599,-3.845232707260138,98.82579370772565,-0.018332428819879888,-0.23003720351899512,0.016205296000765698,0.46728484187862085,-89.1582521618383,1.4064386458088634,98.82579370772565
1546877134.854599,-3.88859029605134,103.11691226904274,-0.017622264048497403,-0.2168596492425866,0.002701881366501657,0.4547984546782907,-89.13032021024543,1.4569251533129974,103.11691226904274
1546877134.954599,-3.929515673461042,107.22851630460615,-0.017029452904029373,-0.18619095444888267,-0.003818982094700189,0.45092359285798395,-89.11635878014489,1.393971900791118,107.22851630460615
1546877135.054599,-3.9659143858874724,111.34161613621504,-0.016814392820606493,-0.2128704300962142,0.004561739028426034,0.4056644800903214,-89.16529944601335,1.3341293377445669,111.34161613621504
1546877135.154599,-3.992670112342566,115.48455996802167,-0.016825996438063106,-0.2080966142472033,-0.0031512532867506264,0.312230772433638,-89.28609663790746,1.3816932780757205,115.48455996802167
1546877135.254599,-4.007516407321619,119.37763137911861,-0.017141901644512403,-0.19741259207757222,0.005574083963969058,0.21235119320185505,-89.2647618963073,1.4177392338513428,119.37763137911861
1546877135.354599,-4.017228535734611,123.51780498660042,-0.017087537584742275,-0.16953895404870065,0.011270531106957183,0.29208296339264583,-89.21522003890084,1.3592845760450536,123.51780498660042
1546877135.454599,-4.0338332897375375,127.66580450662659,-0.017284031466890983,-0.2384675458134662,0.027163933520017145,0.36119910765641217,-89.30897982919399,1.4521107865680642,127.66580450662659
1546877135.554599,-4.041470609808726,134.96210650412297,-0.017838352582413012,-0.4412650695255166,0.02291796653901246,0.35277414065263946,-89.30925099352827,1.6705262743341731,134.96210650412297
1546877135.654599,-4.040712241180367,144.0161040091127,-0.018684795345791472,-0.3822575344466307,0.023921301465115553,0.4072167633519698,-89.38330949031938,1.5812207090701478,144.0161040091127
1546877135.754599,-4.043318579888291,150.60355016323905,-0.018072194121184628,-0.2927487911864525,0.004711963202502395,0.44174493250921776,-89.31318771576463,1.6179237610039567,150.60355016323905
1546877135.854599,-4.043285861580945,155.7768995911177,-0.01625635721852961,-0.25884185824332323,0.005519968201876814,0.41872302912129417,-89.16368568044788,1.6335621675990146,155.7768995911177
1546877135.954599,-4.036989559156316,160.75434139410083,-0.015004402734553913,-0.2643953465879501,0.010963330820023688,0.4303881847897465,-89.16996579314873,1.5459796529508023,160.75434139410083
1546877136.054599,-4.030079400155457,165.59019336986694,-0.014823850126399512,-0.2309168581346273,0.010235034713656627,0.48520284855987245,-89.18117919283871,1.549827537203001,165.59019336986694
1546877136.154599,-4.0192239287576585,170.55286689006064,-0.014816966979919232,-0.24630962945822032,0.009944721791016051,0.4830813225476053,-89.16354028440249,1.4915526211688497,170.55286689006064
1546877136.254599,-4.0063980882982895,175.10010978153892,-0.014265531366694737,-0.22152383003436732,0.02079364058659937,0.4609657379515789,-89.12169566584437,1.4920901976688896,175.10010978153892
1546877136.354599,-3.9913924957455973,179.08271509594735,-0.013669089009967442,-0.186329616531797,0.004793368995189033,0.4311926930780973,-89.00783056701249,1.5079358693838085,179.08271509594735
1546877136.454599,-3.977741854550263,-177.83265690286754,-0.013339865365212684,-0.14960753295067516,-0.014205086279186012,0.4238873153141158,-89.06135151326976,1.5604797944745832,-177.83265690286754
1546877136.554599,-3.9638193442935283,-175.12241000193018,-0.013163935130098777,-0.12029408793178106,-0.006437076127206887,0.4286405083693625,-89.05581720494162,1.5122266996197413,-175.12241000193018
1546877136.654599,-3.9589128034323404,-174.6227083493649,-0.012936545171282657,0.017634689798492705,0.00841525305800431,0.36427820821223633,-89.07342570392504,1.4897261321476452,-174.6227083493649
1546877136.754599,-3.9570450583538492,-174.91235510693076,-0.01261995636765569,-0.0014045484843749922,0.0009556631206862291,0.4102609149562076,-89.10312670063784,1.4921552295174891,-174.91235510693076
1546877136.854599,-3.954489456898416,-174.840729270513,-0.012450627227664714,0.008917204246094065,-0.002400779032680111,0.43194916804018313,-89.17236471765344,1.5672895235474695,-174.840729270513
1546877136.954599,-3.9515797715482197,-174.8031768524506,-0.01236750446797682,0.007950124659581264,0.001503264989145968,0.4241716477775086,-89.16593713136457,1.5801289478583544,-174.8031768524506
1546877137.054599,-3.9484904040993403,-174.83193313849694,-0.012327543064434258,0.004106517565995946,-0.0023815065664278615,0.40312292037482017,-89.18546211805275,1.6071769291788134,-174.83193313849694
1546877137.154599,-3.945804579061554,-174.78696180389574,-0.012416712174755266,0.009683540041910388,0.003999623717178198,0.3459035937470529,-89.22030933912876,1.5814127048038367,-174.78696180389574
1546877137.254599,-3.9427525946250914,-174.85623245277498,-0.01224857834943291,-0.0010004601003751,-0.0013448708854642312,0.4212467623066417,-89.1957285847672,1.6182852753717711,-174.85623245277498
1546877137.354599,-3.9390469328831337,-174.76401650508203,-0.011829865563272826,0.002384979702896569,0.016809643448934937,0.4403710110213098,-89.17566868785296,1.6295190984919,-174.76401650508203
1546877137.454599,-3.9359465748543974,-174.72029627096575,-0.01179670773043078,0.008505283299435765,0.005288212268547568,0.450226901760943,-89.24350143843083,1.5484460797480382,-174.72029627096575
1546877137.554599,-3.9322610442253803,-174.68343736507413,-0.011829925663721456,0.0030969010158663755,0.008329797663550381,0.4499521178333939,-89.24674588845727,1.5484685883629266,-174.68343736507413
1546877137.654599,-3.9288479904418727,-174.68131251726533,-0.011435095312900836,0.00920305651070668,-0.007161477915848685,0.4551534597416284,-89.19669919791485,1.537211515425514,-174.68131251726533
1546877137.754599,-3.9250015547750134,-174.60577168115975,-0.010758358914909583,0.007913497928711322,0.004223794621520351,0.4509311402329512,-89.1823963596422,1.4969328486871176,-174.60577168115975
1546877137.854599,-3.921973817405553,-174.672688385392,-0.010831371297578423,0.008895029928844979,0.0016505085005525484,0.4324620578771349,-89.20431926983588,1.5259171250313794,-174.672688385392
1546877137.954599,-3.9184492595488067,-174.6592355939276,-0.010812665642237535,0.005660497152944029,0.008448079575389116,0.4389985912150204,-89.1949308599834,1.5227976485887602,-174.6592355939276
1546877138.054599,-3.9150295967033233,-174.66303525164264,-0.010856829337511035,0.006428180889084512,0.0021149223753704057,0.43911772332451765,-89.24261676861806,1.5313485165178362,-174.66303525164264
1546877138.154599,-3.9113355940808407,-174.64916256978262,-0.010796326667691982,0.0014604839451005797,-0.008241465065806296,0.45607114758213707,-89.33976747132402,1.5510665616487234,-174.64916256978262
1546877138.254599,-3.907587866648006,-174.62016663999535,-0.01087634729820916,0.005823417540821288,0.001697762207175788,0.4610750580529206,-89.42112201245695,1.4769033829234968,-174.62016663999535
1546877138.354599,-3.9039077183221935,-174.60634449943265,-0.01085826766810632,0.010030528585612038,-0.0009540448875197307,0.4648838342154383,-89.36274148399023,1.4572936023698269,-174.60634449943265
1546877138.454599,-3.899988364606975,-174.54550080167417,-0.01141443824168518,0.007399180684940542,0.006581384947971496,0.47515748338261354,-89.44214686058314,1.3114597968810224,-174.54550080167417
1546877138.554599,-3.8963102303763786,-174.5229659258338,-0.011345362196130826,0.007471096148922832,-0.0007013397200797931,0.45289565789992964,-89.46299763076941,1.3379100126123247,-174.5229659258338
1546877138.654599,-3.8925557566139117,-174.48069289621247,-0.011471953518258658,0.030182225518114864,-0.0020441601014764108,0.4388752060136379,-89.52603933245996,1.3272478275960584,-174.48069289621247
1546877138.754599,-3.8968050582405733,-176.16118816488134,-0.011314076301332193,0.06419073905447442,-0.007934783198306343,0.4448063750559849,-89.52927634901926,1.4174512491886047,-176.16118816488134
1546877138.854599,-3.893858012050245,-176.2341943113343,-0.010744309468987537,0.0014009772189979063,-0.0028341646354163056,0.49486093727199754,-89.52649942666156,1.327155613066385,-176.2341943113343
1546877138.954599,-3.890627500989495,-176.12709920260872,-0.010507334443764095,0.0036923656556299505,-0.009445616560645612,0.5252832474825064,-89.529069116574,1.349720840926925,-176.12709920260872
1546877139.054599,-3.8876813151941567,-176.06668874838257,-0.010425094698849039,0.011316711082793439,0.0013110247702450791,0.5339007235668737,-89.48856496601518,1.2797548497185727,-176.06668874838257
1546877139.154599,-3.884740815970333,-176.06759459887522,-0.01060404703465525,0.010430778863494137,0.002227998383413058,0.5278724058219583,-89.56011960929773,1.1564192255437236,-176.06759459887522
1546877139.254599,-3.881714865930299,-176.09299023201376,-0.010779284559249196,-0.004680197172907074,0.0014203793518852885,0.5117311546521038,-89.50435061083184,1.2399242855029935,-176.09299023201376
1546877139.354599,-3.878776239259131,-176.02940027186864,-0.01031548079306066,0.0018963640602160242,-0.0014873889096345943,0.5392947998309068,-89.49074951445074,1.1323891039467568,-176.02940027186864
1546877139.454599,-3.875211537008895,-175.9367490671719,-0.010121051499540136,0.0006735161171419883,0.0022019160515964298,0.5617888159266794,-89.42825901286443,1.184754587317398,-175.9367490671719
1546877139.554599,-3.872153700222451,-175.90353076147593,-0.010140212224679116,0.013222763099252483,0.0006515488188022847,0.5582609082579217,-89.38826136531809,1.184910190841048,-175.90353076147593
1546877139.654599,-3.869001605654595,-175.89475003928266,-0.010423631027839985,0.006030514029188676,-0.006143798882780362,0.5639391276714447,-89.39846489207913,1.1620423352764395,-175.89475003928266
1546877139.754599,-3.8652577697875747,-175.90270850210317,-0.010792159960152311,0.004829706481788946,-0.010100051499376386,0.6136187233952722,-89.49666218252551,1.1438509290861234,-175.90270850210317
1546877139.854599,-3.8615087556290058,-175.89271863100632,-0.0110306769477681,0.008098073528234611,0.02790291611935928,0.6708497644611063,-89.53058678448286,1.1546619081729852,-175.89271863100632
1546877139.954599,-3.8576963864252725,-175.77645187951114,-0.011127861785406604,0.003885702649429414,-0.009381649166457059,0.5697827850524124,-89.72584006842922,1.1716343140127865,-175.77645187951114
1546877140.054599,-3.8546209358737693,-175.80386215898437,-0.010780771505810725,0.004289615139258359,-0.016838459400510285,0.499424042414555,-89.62280784836267,1.1477984845442188,-175.80386215898437
1546877140.154599,-3.8509596867565903,-175.8617007258522,-0.010487551538922672,-6.81177721646373e-05,-0.008891839706493009,0.5437938407350856,-89.61060216350654,1.1095474701371149,-175.8617007258522
1546877140.254599,-3.847258404613022,-175.7833561976888,-0.010962679030227379,0.008859820540198408,0.006126135829118225,0.5657537590837955,-89.6302269550901,1.100939384437692,-175.7833561976888
1546877140.354599,-3.8438216968030665,-175.72418383236362,-0.010552483205019622,0.009813707847374243,0.0046298482321425576,0.5664844978702241,-89.49744947541596,1.140149749595297,-175.72418383236362
1546877140.454599,-3.840868403759047,-175.76316149759228,-0.009974736462582479,0.006895521569467647,-0.0006717390045720729,0.5544042729557823,-89.43862043824815,1.178076993114811,-175.76316149759228
1546877140.554599,-3.837289872470498,-175.805479423876,-0.009660844997024298,-0.0040080416614477424,0.019772523360113238,0.5613663758529243,-89.35729333912137,1.223341337533054,-175.805479423876
1546877140.654599,-3.8289017544703126,-174.96676890852834,-0.010210484751130192,-0.1135194667758625,0.0010015744178863703,0.5341962026410568,-89.39928128031299,1.1789496162900013,-174.96676890852834
1546877140.754599,-3.8063584437280347,-171.24881892015947,-0.010228439081450942,-0.28263630717333915,0.02197293130614013,0.46050891567123553,-89.38544692241453,1.2139968333510718,-171.24881892015947
1546877140.854599,-3.7683363818991107,-164.6218525434524,-0.009946675879536886,-0.3536675280539875,0.019755508704828582,0.41773306108329356,-89.47428629859381,1.1952845485889292,-164.6218525434524
1546877140.954599,-3.729144208643581,-158.3175604602178,-0.00975963995622969,-0.2713059695884645,0.006977722451151214,0.40585864054760434,-89.44468481571064,1.2094911460587787,-158.3175604602178
1546877141.054599,-3.69397219122713,-153.98748203095866,-0.009008508635856553,-0.21943009914540154,0.0020834183563857387,0.421766219694378,-89.4082618157169,1.276886238560441,-153.98748203095866
1546877141.154599,-3.6564734301922437,-150.0821620594375,-0.00838022775584213,-0.22417542386145367,0.00039893869449722334,0.4618840176993078,-89.42707962479153,1.1680002886669258,-150.0821620594375
1546877141.254599,-3.607628770483546,-144.00615107664945,-0.007694777928824319,-0.38893635818848965,0.017064102642611566,0.44786470081907714,-89.39266557796356,1.2556968866736438,-144.00615107664945
1546877141.354599,-3.5513941592031446,-136.41530271131663,-0.00801378786890079,-0.36005624160495947,0.014886439190607784,0.45836944787914724,-89.45041552245252,1.1945303559902074,-136.41530271131663
1546877141.454599,-3.494316451465179,-129.80728457349932,-0.008614690601036284,-0.3583389394094832,0.0163149857567587,0.5048343075202506,-89.44329563313782,1.3070288305119746,-129.80728457349932
1546877141.554599,-3.4336487963541087,-123.37450699946294,-0.008841346273754396,-0.2686985412534498,0.004946940416192519,0.552879376801215,-89.48837606700086,1.3855643820597356,-123.37450699946294
1546877141.654599,-3.3733739401090888,-117.06039156690328,-0.009082960684072555,-0.32802065372200556,0.016480453101280115,0.4868950610802999,-89.49866281562738,1.3818036859698979,-117.06039156690328
1546877141.754599,-3.3143890615354974,-111.2574727257902,-0.009116099575602728,-0.29260038580477976,0.0030347321986694976,0.5024691924149864,-89.5218273787756,1.3223666318661003,-111.2574727257902
1546877141.854599,-3.2597489812536535,-106.50268521912622,-0.009735190920225827,-0.21682051040407666,0.008384318919385755,0.43941082718427354,-89.60172859571732,1.205403878077345,-106.50268521912622
1546877141.954599,-3.2200448738159713,-102.4190864699828,-0.009416928215727496,-0.2073561653498972,0.00629358114280979,0.2796141402277197,-89.57222561228939,1.211213177959774,-102.4190864699828
1546877142.054599,-3.196452851907922,-98.51523180923668,-0.009150067950127709,-0.184223793289189,0.0019664443188536513,0.12820544138538983,-89.50299875664294,1.2330804586551707,-98.51523180923668
1546877142.154599,-3.1842811641902324,-94.01167482021803,-0.008446000885550394,-0.2548401527742146,-0.002003958157758062,0.0911064595510512,-89.42555414256016,1.2561085227412037,-94.01167482021803
1546877142.254599,-3.165084434924415,-89.58426641881795,-0.007993241871874151,-0.20908133934433246,-0.0028008685598830373,0.22630326960022384,-89.39291824788971,1.2847802872842058,-89.58426641881795
1546877142.354599,-3.1377512151898994,-85.53610563808488,-0.007846436723405487,-0.2142316858304803,0.01084621580963468,0.32954758157405367,-89.33944128985831,1.305973854376535,-85.53610563808488
1546877142.454599,-3.0980310201213896,-81.51695432711027,-0.008308012175345422,-0.18695599533613996,0.007855325475088232,0.4647350223068162,-89.42732310986673,1.2820657320186235,-81.51695432711027
1546877142.554599,-3.049780472746942,-79.77313306486771,-0.009005610239834953,0.007010350758327087,0.016765725943832244,0.49024522723517444,-89.52007195055043,1.2362821631608663,-79.77313306486771
1546877142.654599,-3.0007517376937094,-80.0306383043962,-0.010033565420928469,0.005849511808495806,0.007679999796809138,0.49660584933317037,-89.5349330550711,1.2403204598879547,-80.0306383043962
1546877142.754599,-2.950886821878987,-80.03067927461609,-0.010296876297526897,-0.009827701906884671,0.0013528531818744142,0.5264724662691135,-89.61326708137862,1.1631650529669142,-80.03067927461609
1546877142.854599,-2.898285777430998,-79.91235792266967,-0.010260445166432717,0.0029312882075836965,0.008808369957056479,0.5398950224791614,-89.56806257150183,1.2444597739968184,-79.91235792266967
1546877142.954599,-2.845335619017872,-79.89293388969071,-0.0097310413628719,0.00938889476580256,-0.0013298397043566591,0.5370854894989426,-89.51584558725014,1.2092276716930013,-79.89293388969071
1546877143.054599,-2.7929972472317846,-80.53392788678309,-0.009368529698410136,0.13559364341503705,-0.008766190494831436,0.49897590991487895,-89.50480251776334,1.0834788196465512,-80.53392788678309
1546877143.154599,-2.743280634789113,-83.89626744023508,-0.008828089832548642,0.14743029356698345,0.002312679768000569,0.4318965476975973,-89.41045433214299,1.1864380473209999,-83.89626744023508
1546877143.254599,-2.6998871017344794,-84.43022595349977,-0.008242330634822315,-0.021089648827171174,-0.0061795239113109895,0.4223852777008395,-89.38569605611295,1.1393114329864917,-84.43022595349977
1546877143.354599,-2.656344364328098,-84.23953030659752,-0.008597060173362175,0.0011945220571908364,0.0010971100138065016,0.4500433180047799,-89.37417582706901,1.1739999554283267,-84.23953030659752
1546877143.454599,-2.609639052977515,-84.180137346014,-0.008818961504506714,0.004116022783575589,0.0029323854002707393,0.4875049467601284,-89.30734051802798,1.1484057110837935,-84.180137346014
1546877143.554599,-2.5583299502730745,-84.12381877813313,-0.008054278344129907,0.010289318745169253,-0.0024955541346169813,0.488201781292691,-89.2970782214782,1.2037387042946284,-84.12381877813313
1546877143.654599,-2.5097115882548784,-85.32944514361505,-0.008025360783453941,0.11024093389550096,-0.01145138368364658,0.434953182715577,-89.3039747054271,1.1098780218387152,-85.32944514361505
1546877143.754599,-2.4666053183146115,-85.65360419013233,-0.00748504356805663,-0.022381434560422197,-0.007113179429609847,0.4267726247369996,-89.23215128888963,1.1354926359667463,-85.65360419013233
1546877143.854599,-2.41936498116576,-85.49405851522346,-0.007385721236522627,0.0032652542622966913,0.0025351072061493194,0.4719526252059064,-89.20798564397799,1.1432807866068755,-85.49405851522346
1546877143.954599,-2.3701967828844572,-85.46838138740011,-0.007264432528565826,0.009619201316810037,0.00736840277024525,0.47666921411667995,-89.19934629555503,1.3050384645045747,-85.46838138740011
1546877144.054599,-2.3206488935196914,-85.42328003222184,-0.0069199724712731385,0.011483551895758807,-0.01908186610800105,0.5082925181190426,-89.1788761646338,1.3261894408737138,-85.42328003222184
1546877144.154599,-2.2638414353557623,-85.44762088976849,-0.006294676185414566,0.012759844612577776,0.004608689023539717,0.6265032788245192,-89.07234827977037,1.4111786511818654,-85.44762088976849
1546877144.254599,-2.199518992906026,-85.38908422956376,-0.006365114089132724,0.006616354780140301,0.03647835290565495,0.6416941022281288,-89.15173969453559,1.509916416131575,-85.38908422956376
1546877144.354599,-2.143993852094782,-85.26252557624518,-0.006188448736383986,0.009463350640452851,0.002762387915569051,0.49982942880506354,-89.18550203094945,1.463994213188306,-85.26252557624518
1546877144.454599,-2.093396818301275,-85.42044513055733,-0.0056347717663694855,0.002316524191503354,0.015357983463910856,0.5315437086882666,-89.14265839612796,1.52005290191141,-85.42044513055733
1546877144.554599,-2.03919139252332,-85.40941138392164,-0.005956576546685382,0.006135016689242394,-0.0024315752504069903,0.5385186652698074,-89.21366194116987,1.5072329338357031,-85.40941138392164
1546877144.654599,-1.985642633410608,-86.04877693565764,-0.0059630121235632405,0.013702372547028762,0.010907953118046538,0.5414620694630887,-89.2234064515762,1.5321843819601877,-86.04877693565764
1546877144.754599,-1.929420680915267,-85.9649088428278,-0.0062710674555902695,0.0007320562375504972,0.0037523362411094763,0.57953872379417,-89.20953029486515,1.465939818506192,-85.9649088428278
1546877144.854599,-1.8691143626643005,-85.8267541483897,-0.006638080224042214,0.003139133512004518,0.019750407332059773,0.6043374243151399,-89.288608570209,1.5525798261715655,-85.8267541483897
1546877144.954599,-1.8069273191746407,-85.79090024820594,-0.007415366405609923,0.00510539824245562,0.01870417712413025,0.640761004463157,-89.41447428278825,1.5959861024002777,-85.79090024820594
1546877145.054599,-1.7422292194864417,-85.68096086823488,-0.008313561660285976,0.0114790365256914,0.027132850215400572,0.6469137533907496,-89.44258828457933,1.5464402235401213,-85.68096086823488
1546877145.154599,-1.6757097570532407,-85.71603286140503,-0.009042068289414822,0.007463404680222284,0.031210303892249238,0.7041793248721828,-89.50604999131222,1.5278385743356317,-85.71603286140503
1546877145.254599,-1.601539208871079,-85.68445499155352,-0.01111520681387328,0.009737350769229568,0.0300792003497186,0.7739858967602034,-89.52034088727504,1.5321705344166263,-85.68445499155352
1546877145.354599,-1.5243869888130401,-85.57155301861822,-0.01130138827689051,0.007820351089587051,0.010106922379957934,0.7331575955424899,-89.69903043937452,1.476191608033431,-85.57155301861822
1546877145.454599,-1.454606613828734,-85.52167981209546,-0.009438309949216898,0.009458945034263934,-0.001233961751322817,0.6766191740192687,-89.6194496412514,1.4605429074204448,-85.52167981209546
1546877145.554599,-1.3872331400835862,-85.57171692180816,-0.010639968291564293,0.00846442942234341,0.02786456907889751,0.6945875802350878,-89.50547747112333,1.5044915219417325,-85.57171692180816
1546877145.654599,-1.3178516478348068,-85.55022427780406,-0.009254319247376987,0.016558078222213172,0.014730366555942398,0.6893520373773536,-89.38430782732188,1.4364858023692806,-85.55022427780406
1546877145.754599,-1.2529008471269252,-86.07848421528429,-0.008846902400998925,0.11074840308224362,0.0036781622483884834,0.6268131831185787,-89.28312272863364,1.475599868986524,-86.07848421528429
1546877145.854599,-1.1904768214761634,-87.80041603343109,-0.004539063443733191,0.020445375870251338,-0.00993420435385077,0.647113228277824,-89.15854081772108,1.433200595497546,-87.80041603343109
1546877145.954599,-1.1244995071022745,-87.50084979326455,-0.0027017358919349584,0.005085104447363971,-0.008136210881441935,0.664168747886933,-89.12280720856778,1.2863371142083582,-87.50084979326455
1546877146.054599,-1.0579870402041829,-87.42327177215209,-0.0020375049946927655,0.00579853863247857,-0.008356149659710661,0.6487744814527762,-89.07001377305446,1.3911969180473234,-87.42327177215209
1546877146.154599,-0.9937991612329978,-87.40260199103385,-0.0008135113969958731,0.006301533005403611,-0.009470842106866394,0.6266822597223857,-89.07657872027022,1.4613995262540147,-87.40260199103385
1546877146.254599,-0.9324524144327283,-87.37871831474094,0.0004547058067471072,0.00987413422948751,-0.0034397698576041948,0.6078945247609807,-89.01966580829463,1.536719387641877,-87.37871831474094
1546877146.354599,-0.87257400533277,-87.42643785439928,0.0013201342944121437,0.0132960869432159,-0.0009998450966137787,0.5837075521062189,-89.17834808966896,1.5915556864332727,-87.42643785439928
1546877146.454599,-0.8086033063249106,-87.73664546301481,-6.749225673048035e-05,0.09943292553681106,-0.018998676399962534,0.578067886607787,-89.1957552019059,1.5358024110840773,-87.73664546301481
1546877146.554599,-0.753876028481233,-90.83142348292047,-0.0012360148861015885,0.11671033420682907,-0.0027005457820153196,0.49610282615802187,-89.24431430095362,1.5994594640494022,-90.83142348292047
1546877146.654599,-0.7003984479987825,-91.03376525626228,-0.002183079131293123,-0.008630582959537067,0.007502036993539554,0.5174528813144013,-89.29647987006696,1.4754707624516687,-91.03376525626228
1546877146.754599,-0.6435671993370179,-90.90415542466059,-0.0022160079219775385,0.0023418536161090883,0.01659949573083186,0.5116788661218702,-89.35193109000556,1.5390967508035482,-90.90415542466059
1546877146.854599,-0.5904528655379573,-90.88618685568866,-0.0020779276711510525,0.007533460400723655,0.012050369992591129,0.5371997303066572,-89.31108199686376,1.6279766972294265,-90.88618685568866
1546877146.954599,-0.5343435978464386,-90.82784858327064,-0.0018967420256682053,0.009037770705610005,-0.00021479264991874567,0.5313950016358663,-89.32121176518348,1.641620031367856,-90.82784858327064
1546877147.054599,-0.4808034072418691,-90.8328589329325,-0.0015414207240230663,0.006518244776567756,0.010893809423575264,0.5299818642392274,-89.2790189923601,1.6637840023225088,-90.8328589329325
1546877147.154599,-0.4281891172461081,-90.79648749519173,-0.0016194286708057035,0.006786941564861293,0.01378871103739677,0.5235903398723515,-89.266288101402,1.6965088800760204,-90.79648749519173
1546877147.254599,-0.37593993377087426,-90.80402298026839,-0.0013838109013528132,0.010936523268465491,-0.0037424717171191313,0.5051652945894921,-89.2527452419114,1.6949645188227818,-90.80402298026839
1546877147.354599,-0.32588584310891083,-90.80440714393322,-0.001055968239707333,0.009747704840775475,0.00797684526063776,0.47525183757479683,-89.291635769373,1.633234395460564,-90.80440714393322
1546877147.454599,-0.2790650696871401,-90.84688046747368,-0.0013130521009300181,0.008438835846530188,0.005888061620165482,0.4479065188726291,-89.35322864449256,1.5858179687757692,-90.84688046747368
1546877147.554599,-0.23121163036531273,-90.39803165192521,-0.0008849455636100374,-0.05858524592979769,0.002797428181748816,0.4858095475827742,-89.3724148842039,1.5449044058629453,-90.39803165192521
1546877147.654599,-0.17837142087903246,-89.16249371051211,-0.0009872692547765456,-0.07341381881885226,0.02450253781498023,0.542060776362609,-89.42102909410983,1.6078657777705976,-89.16249371051211
1546877147.754599,-0.12700564199054049,-86.48994561248504,-0.0008915550869492356,-0.15820262135346377,-0.004595867504304598,0.5236800775225023,-89.44658753941806,1.683048140626978,-86.48994561248504
1546877147.854599,-0.08077733386805241,-82.65024771792109,0.0010069092619574825,-0.1917524917422416,-0.005814866997926677,0.4845260789730848,-89.3981985996536,1.628870706136701,-82.65024771792109
1546877147.954599,-0.039998963450839975,-77.25588658785612,0.002424071270441497,-0.36544578805860967,-0.008444117094429883,0.42316653257837405,-89.32258700200536,1.6645438784580338,-77.25588658785612
1546877148.054599,-0.01967603804369411,-69.34369649654417,0.002167161987246731,-0.3431215257787507,0.0016822766345743253,0.18864482076365582,-89.38185142256037,1.658905937665773,-69.34369649654417
1546877148.154599,-0.027308917947162004,-61.59308422404235,0.0027275397827815997,-0.36195578940127154,0.024531435174199437,-0.005678534502901848,-89.27118814842684,1.6558809014470368,-61.59308422404235
1546877148.254599,-0.04751492495913662,-53.61245001484871,0.003244859401923026,-0.3902431020989031,0.0057620430997234375,-0.0434594387456027,-89.24143336020374,1.6473491389721158,-53.61245001484871
1546877148.354599,-0.061031402340784136,-45.96618626093593,0.004175148392414,-0.3184606190474633,0.008248156094892888,0.23401097805466217,-89.12702505472916,1.536736660097038,-45.96618626093593
1546877148.454599,-0.05306582693817699,-40.479068695835814,0.005937058045016466,-0.20325516192531315,0.0034995894044333817,0.4026261432751464,-89.09144754394706,1.4167506981459483,-40.479068695835814
1546877148.554599,-0.029616150392616947,-39.240638083629776,0.006849895406908076,0.030292868172922344,-0.0014327435760683044,0.3761765658987287,-89.13049282922445,1.3988903914658446,-39.240638083629776
1546877148.654599,-0.0007856692486876704,-39.5571447987933,0.007116344608743925,0.00782161472585473,-0.003843903687117324,0.4176456583024284,-89.05833139984509,1.400858800578463,-39.5571447987933
1546877148.754599,0.028251096285116406,-39.54344330551379,0.0069150051297737205,-0.0008805540726140606,0.0017806655647045321,0.44500821763179604,-89.07159923707702,1.4027710928252284,-39.54344330551379
1546877148.854599,0.05760788303396079,-39.44478329425961,0.006712458804228731,-0.014689269816998288,-0.007474348577832896,0.45787506627341906,-89.11114504934498,1.4497821273066174,-39.44478329425961
1546877148.954599,0.07418628950162247,-35.93444913943958,0.006313825429555101,-0.27837950432276354,0.028824681542305813,0.4469204681091929,-89.08886102089198,1.5191662321436974,-35.93444913943958
1546877149.054599,0.07904816628258832,-29.759342652106984,0.005844016612957581,-0.3112910947618015,0.02455303911350128,0.47979708009142924,-89.03326769838566,1.4076512813427642,-29.759342652106984
1546877149.154599,0.08063304565773041,-23.609489591343472,0.006206133706970366,-0.3213966245677299,0.02639646451916619,0.500742751889177,-88.94186189363289,1.4141112153182949,-23.609489591343472
1546877149.254599,0.07702522234943046,-17.551688427347308,0.006570630855996583,-0.28292009034353965,0.024718181939314132,0.5098613771616093,-89.03778294174663,1.3405363023264527,-17.551688427347308
1546877149.354599,0.06781213817886711,-11.820984740457458,0.007045216884931628,-0.294027496316985,0.031179823493005354,0.48332489002754414,-88.96601605328063,1.4201806436130078,-11.820984740457458
1546877149.454599,0.05258690798817924,-6.485551274556096,0.007976667049512097,-0.2861455726269711,0.002940480895178116,0.47581524939888764,-89.00984493732449,1.4623912542633437,-6.485551274556096
1546877149.554599,0.033729752511619776,-1.2700300198448795,0.00887907732666034,-0.21972019726238728,0.014503853813738426,0.4830421777325471,-89.06856153937414,1.399106291836949,-1.2700300198448795
1546877149.654599,0.018057511988492557,2.2467476892951,0.009138274603413555,-0.1375865290568789,0.003287826237231768,0.4352787190334424,-89.1760285087768,1.3735513945646878,2.2467476892951
1546877149.754599,0.007302845945592509,4.200269644244775,0.009226244811595249,-0.07787870512965137,0.0004709369219410356,0.464446739313737,-89.1976257669763,1.3293566657153262,4.200269644244775
1546877149.854599,0.003382203155588334,4.621585789049515,0.009581048815673263,0.024877938623920657,0.0035044601696751676,0.4195965582904256,-89.22285019572729,1.253187287298725,4.621585789049515
1546877149.954599,0.0015019173806880004,4.368413668790509,0.009870696084359792,-0.008485640666479662,0.005895025206958127,0.41023027180768523,-89.16448632747347,1.3138850846092034,4.368413668790509
1546877150.054599,-0.002248538699042152,4.424963813512188,0.009921037460282223,-0.0084907981351285,0.010505880071543032,0.44043749444612673,-89.16319961965924,1.2899252208730148,4.424963813512188
1546877150.154599,-0.015262234504912917,6.385338726188414,0.010131540483423032,-0.2091854352649634,0.005892983254630046,0.46982615452970405,-89.13739536629794,1.346996532763424,6.385338726188414
1546877150.254599,-0.04356588656660104,11.53903286345084,0.010374573635808916,-0.1911140904018896,0.008558214324827668,0.4621974030347725,-89.1394951667274,1.1491086122238185,11.53903286345084
1546877150.354599,-0.05493179036831299,12.571166139728371,0.010418491740253449,0.02384582764555369,0.009503794156469172,0.41524976876578606,-89.14673840509684,1.2240534660418152,12.571166139728371
1546877150.454599,-0.06211906845307619,12.286620713671578,0.010107132830736127,0.008990279832641928,0.0017829366486159142,0.42439197118060135,-89.24826454067981,1.1876851552830259,12.286620713671578
1546877150.554599,-0.06950868166040408,12.1532343051651,0.010134296579525413,0.09557157202191066,0.0071188930156779046,0.429011988509872,-89.31271414242799,1.1411207319677825,12.1532343051651
1546877150.654599,-0.06028692335389516,8.596632236836783,0.01038021200741228,0.24157789161898446,-0.005990090056701225,0.3409586314067966,-89.29486460982613,1.2694413278992207,8.596632236836783
1546877150.754599,-0.04202345356880442,3.4447786738459207,0.01085840432521881,0.2557566560765139,-0.017432190691702106,0.34183328797958784,-89.24037242258993,1.2989489351465162,3.4447786738459207
1546877150.854599,-0.03691466467907035,1.4779322293084522,0.011511379799333485,-0.02141111426994045,-0.002842594449109663,0.4041925477387042,-89.29884386173467,1.3907319409991679,1.4779322293084522
1546877150.954599,-0.039246685863393777,1.7227743491590863,0.011048551419910244,-0.001134504102292911,-0.004271703618054422,0.4410266736447989,-89.3311635271729,1.3569924833477378,1.7227743491590863
1546877151.054599,-0.04042349883620273,1.8293273052461898,0.01073707716523795,0.0017972237274830776,0.015596015845310396,0.47840054414955524,-89.3517976584022,1.4028970052958916,1.8293273052461898
1546877151.154599,-0.0417006324006555,1.8756502345026203,0.010110723866800312,-0.0056559102570122805,0.013916024577925703,0.534736954004993,-89.4419082028552,1.3785621632234617,1.8756502345026203
1546877151.254599,-0.04266949687904428,1.9275712621502743,0.010137976803119616,0.0017497192491123048,0.01916193547955755,0.5498713597411586,-89.44959307386054,1.4238567463061498,1.9275712621502743
1546877151.354599,-0.04332019896213868,2.0151860133236292,0.010630855309635449,0.005385990723957572,0.006711067746983715,0.5377153291540459,-89.4293034520213,1.4256926841103594,2.0151860133236292
1546877151.454599,-0.04442200858614431,2.0138276496263443,0.011058491914671061,0.000999323135100894,0.003135300188719963,0.5339407686794152,-89.44781029398906,1.424716881989477,2.0138276496263443
1546877151.554599,-0.046079962691448234,2.120074080594435,0.011269906795390687,0.006379493720978488,-0.0038253625541394476,0.5183182203824958,-89.44124957043348,1.4168533780404842,2.120074080594435
1546877151.654599,-0.04616331528994189,2.0091985424259255,0.011214333947953039,0.0001730296991487895,0.0044641617574410685,0.4736892963333502,-89.41956187452179,1.5176693792901803,2.0091985424259255
1546877151.754599,-0.04536924373247277,1.9070810691157634,0.011420794992896421,0.07669101486743524,0.005892250766332235,0.43706115274926344,-89.39843562691242,1.3650397066707862,1.9070810691157634
1546877151.854599,-0.0407744012027454,0.65654973301791,0.011536560923816828,0.006169328881150654,0.005510091656449877,0.4685862891820497,-89.34019030808624,1.488183385686157,0.65654973301791
1546877151.954599,-0.04111245432685178,0.7566573142463321,0.012026025673143608,0.0002240238493498128,0.0010448565720985997,0.48954101584951076,-89.32066100699247,1.5342551732651917,0.7566573142463321
1546877152.054599,-0.04100234554105943,0.8603762823472728,0.01133676437380334,0.006144823763337399,0.009877582271492357,0.47836894409196323,-89.41756215656659,1.4434864990121103,0.8603762823472728
1546877152.154599,-0.04110038747713019,0.9326863332100027,0.011004925332436768,0.008356902607078394,0.0009090104808584811,0.4788978020231691,-89.46556913019106,1.3097238392549602,0.9326863332100027
1546877152.254599,-0.04076604375006565,0.9154150676022242,0.01094310507178349,0.0068996182922463935,0.010920411795895915,0.4937689725862921,-89.49644470860278,1.3016376302161567,0.9154150676022242
1546877152.354599,-0.04080876432322537,0.9611071280058626,0.01178084965453647,0.009240400450782478,-0.005908145094676694,0.4911671081319844,-89.41796707698718,1.3019773087408673,0.9611071280058626
1546877152.454599,-0.04123412625554059,0.996775565106462,0.012489789914296058,0.0021267807579136307,-0.003703876652731826,0.4669394303977637,-89.36009380892082,1.2136185884865107,0.996775565106462
1546877152.554599,-0.04300643644760674,1.1713910741968865,0.012989356077985077,-0.021172235230644314,0.0232769674258885,0.5039358290483013,-89.22583106964723,1.2083291662167812,1.1713910741968865
1546877152.654599,-0.052079835324289864,2.89373935888668,0.012537995964930368,-0.12167022939261751,0.011610888984241594,0.5240672618903521,-89.37994516268412,1.2929417961282907,2.89373935888668
1546877152.754599,-0.06840147917561179,5.902869727685794,0.012801801807260867,-0.15153801003845424,0.013828890324697907,0.5360946912464263,-89.37025203689684,1.4080476579613317,5.902869727685794
1546877152.854599,-0.08072139410898296,7.617955004323637,0.013348178580276777,0.009089779763933499,-0.027773948239093453,0.5167165109308522,-89.39018461821055,1.380841817415755,7.617955004323637
1546877152.954599,-0.08470848448123205,7.250247508539083,0.013434023553058061,0.0016155889631812527,0.007577154738173403,0.4715731662902069,-89.27617415876874,1.390236951796338,7.250247508539083
1546877153.054599,-0.09094553129903979,7.294029810287134,0.013442171671521157,0.004527951480275494,0.008878667778318526,0.4959801570839201,-89.17768636463002,1.3298524133466292,7.294029810287134
1546877153.154599,-0.09635379809603357,7.2941377028016205,0.012919336323030377,0.005217760530591369,0.0026355598657682453,0.5055109382611963,-89.29180701620213,1.4496470490616944,7.2941377028016205
