timestamp,x,y,z,vx,vy,vz,roll,pitch,yaw
1546877122.954599,0.0006885903386166847,0.0872446239878214,0.00016536481515339635,-0.0015692035061618745,0.29020410352800324,-0.004594823744903239,-89.2246584137729,1.45510164148483,0.18011209870675268
1546877123.054599,0.001396464802198041,0.11535104566370383,0.0003671011012111714,0.009185806037547579,0.2970038103371857,-0.0008063988727388552,-89.18087560159803,1.4498168935886007,0.20568292386051087
1546877123.154599,0.0017389740492548644,0.1488131822750424,0.0006869319308202012,0.004486731956270635,0.009648503197513574,0.3306994454334574,-89.21109944182106,1.431048348287396,0.26951721655978605
1546877123.254599,0.0018732992117691406,0.18427088647794856,0.0009067435554947635,0.0035848274035720717,0.004398520384191691,0.328480828545929,-89.21501179973102,1.4202605746936232,0.2646758039954088
1546877123.354599,0.002269208043601737,0.216339649642268,0.001289991136814385,6.877185488097997e-05,0.00688929748014582,0.3102285157734689,-89.16706399906431,1.4200551939596853,0.2543741413996134
1546877123.454599,-0.0030970622311024803,0.2436714628630482,0.001315428229354763,-0.06916663191566123,0.0032054115518178237,0.2757005339898073,-89.19493801473766,1.4191611099762846,1.4567034040726854
1546877123.554599,-0.00730735319252191,0.27140557587590786,0.001008105144953899,-0.018910070477523872,-0.00630404824371781,0.28807704379104737,-89.2398855327273,1.3968363142733604,2.337335393711328
1546877123.654599,-0.009174716138937111,0.2990303036111697,0.0004055435962095947,0.0027065986145246097,0.005348875165588365,0.29109856813701124,-89.39949289086378,1.2640824662515184,2.5787372648510223
1546877123.754599,-0.009298210131566868,0.3265761816607783,-0.0008724893401474205,0.0005387939628875818,0.003288612699026852,0.25581029515845743,-89.72830880319988,1.0250781786499026,2.4318752424077146
1546877123.854599,-0.010075051869747453,0.35144955697990776,-0.002731543687024644,0.00996208590171073,0.00436062069034861,0.24613137079692443,-90.15735350904528,0.6454224478337515,2.5167594487628584
1546877123.954599,-0.01071948566316175,0.377041996523907,-0.00455102073043929,0.00013931626021328035,0.0022242599718543367,0.2521873920674885,-90.54662630568856,0.25855727426448494,2.433510262081256
1546877124.054599,-0.0114854688652119,0.40166506028118754,-0.0055460515398236005,0.003842952803367827,-0.008059197684289754,0.24381612911972245,-90.70297249474713,-0.2687027144996822,2.3978350087642992
1546877124.154599,-0.012129999934784102,0.42687644764375265,-0.006284478906721546,0.0063268872301409955,0.0012797210238781596,0.28010630470355535,-90.77043335082872,-0.6789442825473038,2.3878310334823585
1546877124.254599,-0.013262274752405741,0.4572200582106408,-0.006929217822997848,0.004831003118421809,-0.002351805294858029,0.3104639331939117,-90.81864224615416,-0.8607926807687647,2.407628118215061
1546877124.354599,-0.014401082597245844,0.4910045537670223,-0.007529432288183321,0.0052605153199479825,-0.005394258390203742,0.345181897163195,-90.7838141554093,-0.905644757675567,2.381504449049244
1546877124.454599,-0.015581082808586982,0.5279345943421873,-0.007944583515074974,0.0032263087493939863,-0.0005460167430713508,0.3939666762633446,-90.6857922216772,-0.857229175353618,2.4055416490565182
1546877124.554599,-0.01656502908430796,0.5692874216490791,-0.009140140802192182,0.006835988927999266,0.0021604276126241584,0.4176017246812558,-90.7440847381878,-0.7172316982653921,2.406346904644691
1546877124.654599,-0.01754760977077048,0.6074541190085878,-0.01018644808251077,0.0063931945397912885,-0.0016934415421390992,0.3283479475691267,-90.79158347074475,-0.5877741304434472,2.454640293171113
1546877124.754599,-0.018306591386132495,0.6368058150182276,-0.01063926549481822,-0.006632539472019776,-0.005629583392380221,0.3114030528410319,-90.6776430267549,-0.4608591916147859,2.396756607482901
1546877124.854599,-0.019924977291286637,0.6704416772819797,-0.011205325517582434,0.0015904569990401979,-0.0006991311961987417,0.3645116324601873,-90.65344469472153,-0.40301900073137875,2.3673007858477857
1546877124.954599,-0.02084500001561565,0.7070698992618619,-0.012048194317310872,0.0044668674042629706,0.010655718736780017,0.3755259011835881,-90.61497253158859,-0.22297715154970346,2.37604663231963
1546877125.054599,-0.02182658362236395,0.7438569244195801,-0.013122060708975706,0.006078490594430815,0.011211328167413517,0.3671281063912842,-90.61412491710682,-0.19436242394384684,2.458815050003533
1546877125.154599,-0.022025891939547848,0.7789141035751588,-0.013694034208875496,0.01123021408063886,-0.0054350946115915,0.34886542285684446,-90.62913278772398,-0.1951288707049369,2.439583167516112
1546877125.254599,-0.02300448084749543,0.8120163118439606,-0.014475211514582238,-0.0009171411270929721,-0.001603255361736469,0.3101810866794361,-90.66440161890124,-0.15955191582604197,2.4547395099647127
1546877125.354599,-0.0235243501618029,0.8412353681539795,-0.015132356986861925,0.00732538435555397,-0.006168958029056109,0.30421322833090647,-90.65603573004897,-0.13495445461913227,2.3681495050480836
1546877125.454599,-0.024396919556806583,0.8761670557190722,-0.01587378275158821,0.0037533089996745427,-0.014247492681414476,0.37215278167877547,-90.69648821546204,-0.15798905542865813,2.323791085450221
1546877125.554599,-0.02539797773871183,0.9138973587196206,-0.016253001028887278,-0.0015652939750494667,-0.00031435078665883933,0.3959255607092828,-90.69656720277383,-0.1994569248179427,2.3375171746636902
1546877125.654599,-0.02658110332385487,0.9540518489184894,-0.016673168616521634,0.009833374366958294,-0.0022339284661424853,0.4026506293451634,-90.71055142764433,-0.3324724811609089,2.3813130702984893
1546877125.754599,-0.02718636135619202,0.9940576172532093,-0.017259226387373868,0.009197234251000306,-0.0011018590340190959,0.3989934837576241,-90.62869291247733,-0.21944516337944997,2.3983425545375496
1546877125.854599,-0.028640466676355218,1.034811462507041,-0.01837498365493357,-0.0033581170066164802,-0.003976905207177306,0.4283099944890404,-90.63740754638775,-0.2714096006787523,2.4527054614138977
1546877125.954599,-0.030103375479696534,1.0777324469682001,-0.019483394368907045,0.008193923017422451,-0.0048617116369068895,0.40580391827422707,-90.67159758472536,-0.3518366597184283,2.513076746120961
1546877126.054599,-0.03146958349129188,1.1180666869475622,-0.020367395894451076,-0.008266511937606422,0.0022314676809038576,0.407745503139829,-90.67001679685717,-0.3398523033771422,2.5128838445109887
1546877126.154599,-0.038291209024306175,1.1587596135741185,-0.02147876296823522,-0.0975955204769012,0.0052535150165423225,0.38140746144537185,-90.72733166332118,-0.29005009187502506,3.4970772626972138
1546877126.254599,-0.048086015855091715,1.1954192376315473,-0.022606075687676055,-0.05148215916514436,0.0010359566811012424,0.3704975702884524,-90.7445381189726,-0.2814215818063398,5.364064416451561
1546877126.354599,-0.054341054725803944,1.232705822264861,-0.02350956894907036,-0.031424489797168255,0.001852014139987715,0.39372067205644595,-90.78698663335935,-0.20228755368223822,6.14944579134234
1546877126.454599,-0.06357590308691599,1.2723957559335364,-0.024823804320494816,-0.08650237035418729,0.007272131428398217,0.3953839750336825,-90.89121689515724,-0.05108922811352193,7.180396684392627
1546877126.554599,-0.07865949136884015,1.3071456412058877,-0.02690532336391883,-0.11522345055629502,-0.004023383127776357,0.3382043055670505,-91.16848684925809,-0.02730499707351162,9.534531861857284
1546877126.654599,-0.09806967997521795,1.3396610035533936,-0.02769704959814416,-0.15930848006906276,0.003163099787832255,0.37037206631752834,-91.05953112527403,0.2477028342591515,12.413693189311715
1546877126.754599,-0.12361114904185098,1.3705593384715835,-0.027967470806344416,-0.21748669657504818,0.013912000755874586,0.336873873799373,-90.91631541629587,0.6469226150394788,16.23996696700339
1546877126.854599,-0.1521247066241052,1.395734569270882,-0.02801771258003142,-0.20573054759694673,0.008530670212090814,0.32608226784848093,-90.76439582868159,0.9832469780562516,20.509377596186756
1546877126.954599,-0.18348587830096558,1.419378219271422,-0.026878622024889866,-0.22406079380158864,0.00046930505859567567,0.322811422505582,-90.46764194935847,1.1729183969223425,24.802093658143935
1546877127.054599,-0.2171707408891832,1.441067661460279,-0.02577596378519418,-0.22365207620421226,0.010247485298786814,0.3152297117665935,-90.21256269037013,1.20328450181003,29.229776258819232
1546877127.154599,-0.24947307425392234,1.4575599322245278,-0.024699596303398828,-0.18942290665651307,0.00905307902767057,0.25852697670709146,-89.9125361577366,1.2734011928996332,33.384301090409316
1546877127.254599,-0.2833315072945686,1.4711544632067304,-0.0245655299018665,-0.25148149173249223,0.007077895468146855,0.322705782282687,-89.7504109853324,1.3387990174795752,37.51308109575338
1546877127.354599,-0.32895065852124755,1.4786981829279107,-0.023911861491657756,-0.37183067982625473,0.004901832624342045,0.3094907423562724,-89.68961206484846,1.3780672910551313,43.824922212371625
1546877127.454599,-0.374280741882686,1.4752667896777054,-0.022798939020595526,-0.34632704489484134,0.0036499911503175865,0.20499459519291616,-89.80556425832711,1.3004411384273085,51.4603147464907
1546877127.554599,-0.4056199422902334,1.4596738047523266,-0.02318498169350844,-0.3277139467016671,-0.0014318571704689184,0.05500732421674393,-89.8042235629484,1.3630196571576756,58.4564090607438
1546877127.654599,-0.42751531820490984,1.4342639266451969,-0.024148803244937005,-0.34106257733977263,0.006534609254325308,-0.005084577359412709,-89.80832837831338,1.2570845941315292,65.4850968285416
1546877127.754599,-0.4432609206417206,1.403845080474396,-0.02425257881040665,-0.3497618768117445,0.00045299705302895114,-0.005661913799781391,-89.82114081389963,1.2439686813117479,72.75379232412062
1546877127.854599,-0.4568858088157774,1.3704768635047122,-0.024619404496613376,-0.33055533148828253,-0.0016787656857233718,0.023773380093121067,-89.84439534642954,1.2199940278063486,80.23801957823788
1546877127.954599,-0.4719504938017416,1.3408370241894045,-0.02398773016928115,-0.22033034529189302,-0.001758325502371756,0.14552183321298232,-89.72330014142166,1.253897312758244,86.36272765612871
1546877128.054599,-0.48999815972040695,1.3304055389618235,-0.023729111552040678,-0.05481792558491684,-0.0019432874611033457,0.19340070550160193,-89.66060858745739,1.3032246009281523,88.73094302134453
1546877128.154599,-0.5146004860111982,1.3286816932652181,-0.023771920680781176,0.0026711232661534644,0.0019192723291762514,0.2794606498330562,-89.68324802972583,1.3133181604540967,89.08125152647317
1546877128.254599,-0.5448174973074853,1.3307001340039275,-0.024588876071540592,0.010175609270976547,-0.00017362538490223569,0.30245079659927887,-89.72512776148209,1.3322664424076853,89.10406563844035
1546877128.354599,-0.5760927604557837,1.3315926172452923,-0.024430472319762322,0.006329842223475919,0.004554224089743759,0.31741732848359977,-89.68156192407677,1.365053746281879,89.09798239206428
1546877128.454599,-0.6113386594631904,1.3327301912943603,-0.02438048527904119,0.007657970794060662,0.006110312263336558,0.38009943164842264,-89.6349589800573,1.3365769839861363,89.0819760471946
1546877128.554599,-0.6523561505500728,1.3340750664224839,-0.024443447204380603,0.002603889772811479,-0.0012930165772688505,0.4339841436785249,-89.61737746823982,1.3305672494567238,89.08296895463677
1546877128.654599,-0.6956707146050757,1.3356410590561063,-0.024454194278311855,0.00678314581692347,0.011891942102891743,0.42102433968657593,-89.59467809619476,1.3873253762383086,89.121066555379
1546877128.754599,-0.7361508589497169,1.336088104544273,-0.02478724516111432,-0.04439289446457184,0.0074246047951991336,0.3825625063875032,-89.63282232014905,1.4636268985805105,89.26848537128737
1546877128.854599,-0.7734696355566002,1.3221310371116433,-0.024627543182707694,-0.23322146855095707,-0.01019471559778471,0.3746934590473028,-89.67520673612465,1.5630835196600517,92.2019578915298
1546877128.954599,-0.8108458066771824,1.300497645339294,-0.024354747180069553,-0.08701705116709749,0.005511496131976425,0.37494721809795895,-89.66835210504279,1.3700187438097848,96.73210088856948
1546877129.054599,-0.8438372793487223,1.2974872514735065,-0.02463558931903742,0.026756234617760975,0.004907746147096381,0.3218797707278755,-89.65237670248572,1.5224919116533233,96.7881612610096
1546877129.154599,-0.874853061256221,1.294586496357207,-0.024403283331164802,-0.002316453176300253,-0.0016959058462296494,0.33039953848942366,-89.57670690523383,1.5656581941051362,96.62192084633328
1546877129.254599,-0.9086426980896909,1.2909268042232096,-0.024209778713773233,0.0024376298285401425,0.0010420767755333498,0.35832221263850894,-89.52591763194786,1.6202173633898154,96.62945355344415
1546877129.354599,-0.9437004539011773,1.2877656589624036,-0.024540579845516053,0.00682596799971059,0.001314631874835754,0.3464728582045355,-89.51667133677248,1.5819710038813892,96.67131600513339
1546877129.454599,-0.9796783377346692,1.2841323400027285,-0.024667115953755064,-2.4967625612105855e-06,-0.00028218221299516465,0.3787055528392142,-89.51553057349206,1.532235269747242,96.65270453994992
1546877129.554599,-1.0193649252912287,1.2799312393047744,-0.024999844907713748,0.001517902290667307,-0.0032747912577636446,0.424488301300573,-89.51059694674885,1.3462593327540502,96.70535433699908
1546877129.654599,-1.0633111456754398,1.2751090151024238,-0.025508806862168703,0.004250844787820595,0.025307150396492162,0.4539928075026978,-89.57477566875407,1.3570485737776048,96.684334966262
1546877129.754599,-1.1075152993533506,1.2705947970900517,-0.025626338699256932,0.00465088450488315,0.008021411272736166,0.4159188165931649,-89.57374164439804,1.3397589816305646,96.75764912964918
1546877129.854599,-1.1456042988795463,1.2668426466927787,-0.02543227653795525,0.013301304574663008,0.011840910696606977,0.35327780436504264,-89.5335273573789,1.4270684816905232,96.76561916427622
1546877129.954599,-1.18091058701861,1.2632689430184443,-0.024880530758492846,0.008016703074082095,-0.004289266000903717,0.3710310463846129,-89.48840665480847,1.5005036452670142,96.67423765555641
1546877130.054599,-1.2207466041520876,1.2589762320448195,-0.024198669699179203,0.006792542271654827,-9.448783818024643e-05,0.4171192972544584,-89.44854108226357,1.5756868339422543,96.70311191481616
1546877130.154599,-1.2627225925358103,1.2549311163841554,-0.023667350400853805,0.017561551128866797,0.0017121691074365936,0.4153499878679954,-89.43500163238213,1.6551650390510975,96.75532508999305
1546877130.254599,-1.3060985419865712,1.251058742296514,-0.023615138709776044,0.009278574701133302,0.020044055973119847,0.4653588907651163,-89.36643707384424,1.7439495999165435,96.74478204528815
1546877130.354599,-1.354480368320941,1.2462032628626076,-0.023436943165973275,0.012735158210886272,-0.0010332578433823857,0.5014876580717251,-89.3063910618098,1.6636316146631311,96.8283971302471
1546877130.454599,-1.404339098514614,1.2410634745571694,-0.023231096603170437,0.006716283230115089,0.012491325999840843,0.5093328566261315,-89.26697811100063,1.558576348009183,96.87787990516118
1546877130.554599,-1.457038886722587,1.235310376019766,-0.023101431548241125,0.004607162280087771,0.005130586396760943,0.5486440911214857,-89.20829190820194,1.5024661351653397,96.89947947336462
1546877130.654599,-1.5114744558043318,1.2295473856356491,-0.023373288512894122,0.010215977257608044,0.017573125435555413,0.5120791181223804,-89.30939495744606,1.5823141935559863,96.95697416394668
1546877130.754599,-1.5585880777073193,1.224980327498617,-0.022702582625710382,0.009015770471975298,-0.005708074034860436,0.44017601967214043,-89.252809901428,1.5798162096439732,96.95712699284893
1546877130.854599,-1.6032691152729013,1.2263843322701122,-0.02240720728884752,0.11878461292597811,-0.004803043265554894,0.42043907522138313,-89.23551234229896,1.489744196991647,95.69930928601563
1546877130.954599,-1.6474694115816133,1.2265710389358024,-0.021983654816032636,-0.009687456641370017,-0.0025125625568801603,0.42796679552485434,-89.21922222701745,1.6040738002614772,94.69531885580406
1546877131.054599,-1.6917913072098891,1.2227373374623942,-0.02166632301299949,0.006472264890859763,0.006448367714241411,0.4705511989321835,-89.22465021855606,1.5536699188748249,94.91823961315556
1546877131.154599,-1.7421043071707922,1.2192776409291035,-0.021361993968696293,0.007606057863453104,0.011342967193130535,0.5256892787269348,-89.1657650646073,1.568402906568797,94.96751298286473
1546877131.254599,-1.796033775089979,1.2157241789277866,-0.022250615710108248,0.014521972095731684,0.02361399778428384,0.5485808789220782,-89.27847345933338,1.6093785989085334,94.99106113568179
1546877131.354599,-1.8512529359841134,1.2120612075654777,-0.02280428578198425,0.0038531056704742593,0.029844360091410116,0.5499523884749028,-89.35969918802566,1.664632206061278,95.040445870982
1546877131.454599,-1.9072304547923562,1.2085195154367798,-0.022906494381182533,0.011969828879269737,0.025965281566200482,0.5889874290188251,-89.33550153719396,1.734987881766781,95.08384157534586
1546877131.554599,-1.9691038725380892,1.2038831003718078,-0.023391572017178452,0.011246559477167375,0.03952309541518027,0.6384148549521509,-89.37131140732464,1.7973804634838768,95.13311123894704
1546877131.654599,-2.0299214259506235,1.2019684833010373,-0.0231055119399585,0.08877147023933404,0.0003715322923155567,0.5657200521580616,-89.4515580670835,1.5507375282360112,94.74633018188483
1546877131.754599,-2.086577296994369,1.207473294211434,-0.022666846948448994,0.07775249915382448,0.0010194772020694172,0.5598328004257757,-89.45950529708335,1.555914167650242,92.7413590017844
1546877131.854599,-2.144978547842456,1.208077968122716,-0.022755558472410654,0.015019635992302336,0.009463990660157257,0.5965811161864516,-89.51656813327934,1.5082124990581127,91.97922876088182
1546877131.954599,-2.2037991178843144,1.2059190747142294,-0.023258181160835507,0.0063410933697962135,0.008296713992696445,0.5761250250506174,-89.57711739632765,1.3927708437249584,92.23613307433021
1546877132.054599,-2.260564260947847,1.2057685796901327,-0.02364633019617342,0.020797402362982106,0.00831820498635249,0.5708789987514034,-89.63781696747809,1.518799843066921,92.23373882780706
1546877132.154599,-2.3160694443452186,1.2050554417746544,-0.02351064053845453,0.011643824435636127,0.0123135768204743,0.5401095977035556,-89.63942240934132,1.4905550100046057,92.2469449060897
1546877132.254599,-2.3680016882035364,1.2038591319731542,-0.023015304633330767,0.006160563447749814,-0.027146225322451933,0.5124440521798875,-89.62395501168112,1.5551346165972633,92.25890613003388
1546877132.354599,-2.421642973117671,1.2027006983528024,-0.023237662883844722,0.006664992445348834,0.009161134154706275,0.5479795516187674,-89.60178237243822,1.6058573333133122,92.26050966452638
1546877132.454599,-2.4767969153234906,1.2008898859353927,-0.024020225335461977,0.008800856022137853,0.0030798149382238894,0.5646764210992145,-89.65368743617881,1.526392353615669,92.29140587394
1546877132.554599,-2.5357118058187433,1.199204625549131,-0.023420955105470587,0.008243595874711468,-0.006589163501030284,0.6176047189986086,-89.6101452594667,1.5021379013603569,92.31890558159
1546877132.654599,-2.5983257345522923,1.1977035583227893,-0.022878907774378003,0.009835273580597527,0.006489057174732327,0.6293083176491411,-89.43902765555701,1.5396896279715035,92.37524939247878
1546877132.754599,-2.659381045443852,1.1964593062010804,-0.022222012455633492,0.008467210511227119,-0.009849775846045739,0.5734036416276458,-89.41089262635762,1.6230559148233064,92.40146131605293
1546877132.854599,-2.7132841427796435,1.1951803052371572,-0.021032524680985404,0.010501874118913542,-0.021353847755881956,0.5224458189129118,-89.28902061430762,1.4940580813243192,92.42559989513747
1546877132.954599,-2.768558793518587,1.1938661115213718,-0.02169295939346853,0.008468423286054641,0.013014310947334459,0.5682965785881475,-89.33868907497921,1.6127735067185507,92.31967890263765
1546877133.054599,-2.8250110165363758,1.1925051286811552,-0.02169893307480748,0.01664916050945168,-0.0001172368584274339,0.5630609722316142,-89.30872202199963,1.6471121274610767,92.4109456021345
1546877133.154599,-2.8815133576056655,1.1918398217304695,-0.0214357303977873,0.015546900028331817,-0.00036126872279288857,0.5586296255258824,-89.21073514996499,1.6540017460023375,92.4412170529191
1546877133.254599,-2.938068571991352,1.1905056520051542,-0.02171527550060386,0.015055036845392241,-0.0027574299241716668,0.5802935756798674,-89.2717331195175,1.6501131593925114,92.39791813209666
1546877133.354599,-2.998474783616728,1.1890523692489146,-0.02166927225349854,0.014808730885750394,0.006987733437819645,0.6218568152622092,-89.38318035526609,1.6884686855398547,92.38580241769466
1546877133.454599,-3.0637926920366887,1.1875510536842677,-0.021986720629875146,0.015156853453509212,-0.004028514454199829,0.6706402385413303,-89.43990692214157,1.7369815777516147,92.45035631918621
1546877133.554599,-3.132141973565218,1.185896555089433,-0.022865310805452753,0.017026245827336067,0.021825448714465658,0.6879399056484689,-89.51347263633721,1.8650123799955227,92.47071284877106
1546877133.654599,-3.201066951006145,1.1844217534091235,-0.022929534123872948,0.016986579222402137,0.018288788564655073,0.6836162895587665,-89.53496718074054,1.9133494320241904,92.49366616457658
1546877133.754599,-3.268990083681318,1.1829241455929125,-0.02327268296712442,0.014782290789706843,-0.0007755945426391308,0.6692446509213614,-89.66759314893332,1.7586046650528253,92.43566161849544
1546877133.854599,-3.3343639841245367,1.1801926257690039,-0.022894498970313173,0.004812848307807166,-0.0024761598419015657,0.6160597698215389,-89.72858794951173,1.6733473795024112,92.61135903897744
1546877133.954599,-3.3907920293065024,1.1779369512287121,-0.02252597181690051,0.010445402828344587,-0.0041709423110130196,0.5019413111372015,-89.68666398762836,1.4906736727692098,92.65921644606742
1546877134.054599,-3.4439906127096385,1.1759079343662793,-0.02251314918910774,0.005621005877727102,-0.004588540249097993,0.5402041127158127,-89.62438620151073,1.5008641391690816,92.58847554169891
1546877134.154599,-3.5021005632420277,1.1738444038923892,-0.021951483123373593,0.004015116705748997,0.006442196437011688,0.5892024910703689,-89.50066080226615,1.5130482826945086,92.6435928521862
1546877134.254599,-3.5619783261752613,1.1720161274777907,-0.02117242221719334,0.0073178520582912535,0.0026718057102001207,0.5925835805662716,-89.4225227753996,1.566379963361077,92.7274445631479
1546877134.354599,-3.624149632443821,1.1701291366994535,-0.020459505420749338,0.004043016744377843,0.00839439900415892,0.6276325353990305,-89.38776283588571,1.583445885548739,92.7440647137629
1546877134.454599,-3.6864507691046375,1.1679971508722764,-0.019679996871790194,0.013791227713620497,0.005151608744814995,0.6194660856939159,-89.2149655940892,1.4343541246697415,92.83121257062801
1546877134.554599,-3.7481705410072803,1.1660201366269354,-0.019675399578858273,0.007857438406248278,0.001097442225602964,0.5706155145542989,-89.23282480534563,1.3767343023701795,92.81217006793065
1546877134.654599,-3.7993915277190973,1.1556802519430525,-0.018857677107207583,-0.17422542719253112,0.012758528115164522,0.5001100392173736,-89.1243880279386,1.4617871120726051,94.47506605548617
1546877134.754599,-3.8455673097638168,1.1311142930708373,-0.018367242776503433,-0.2300424543720955,0.01620689389555249,0.4673643157312568,-89.15828721386316,1.4064429728617283,98.82570532003864
1546877134.854599,-3.88891679170794,1.1038599391594928,-0.017656861016118124,-0.21686855339121344,0.0027025654029953685,0.4548557389029549,-89.1303384778289,1.4569144027544985,103.11681869420742
1546877134.954599,-3.9298387871116565,1.0737275070365218,-0.01706388565532057,-0.21804824648401033,-0.003134486200913592,0.4364663734828737,-89.11636286192443,1.393953113256199,107.22841737523012
1546877135.054599,-3.9662382878950586,1.0418643230619733,-0.016848889383752005,-0.21288203450038146,0.004562174479798464,0.4057047586268896,-89.165295478724,1.3341064510985394,111.34151611135592
1546877135.154599,-3.9929944012313396,1.0106565348158236,-0.01686041775567447,-0.20810835990267895,-0.0031509659646223424,0.3122667065232014,-89.28608497670231,1.381666779550823,115.48445927048759
1546877135.254599,-4.0078394022874475,0.9824246956563497,-0.017176437920113266,-0.19742379998787815,0.005575133424079261,0.21237960832549965,-89.26473382240094,1.41771379852882,119.37752922318118
1546877135.354599,-4.017550420939244,0.9543492390567742,-0.017122082994409486,-0.19018972604048864,0.01153602251197365,0.2790952301550789,-89.21517892408731,1.3592602367672761,123.5177015182314
1546877135.454599,-4.034154600363314,0.9194281912189604,-0.017318533733912983,-0.2384781100244393,0.02716459392948637,0.36121726759806216,-89.30892994278908,1.4520841046862292,127.6657003212318
1546877135.554599,-4.041792036762437,0.8697434817292442,-0.017872807203124765,-0.44127559564941743,0.022918458110571686,0.35279112012327374,-89.30920073674336,1.670489838501226,134.9620028382165
1546877135.654599,-4.041033754977585,0.8116929766513095,-0.018719275060105966,-0.38226743807270336,0.023921931203824312,0.4072331127541999,-89.38326066736641,1.5811743628588997,144.01600051941227
1546877135.754599,-4.043640364071,0.7583239961547936,-0.01810668285029981,-0.29275738856555467,0.004712613023388653,0.4417621731382877,-89.31314374802808,1.6178702604835655,150.60344730363306
1546877135.854599,-4.0436076870052755,0.7087103211409022,-0.01629076114232665,-0.2588496198921152,0.005520378450438762,0.4187404473891015,-89.16364554672921,1.6335041722893258,155.77679785841596
1546877135.954599,-4.0373107766487335,0.659378046172846,-0.01503859154972746,-0.2644040308674323,0.010963327875923752,0.4304047830566971,-89.1699259756545,1.5459150808126028,160.7542389062156
1546877136.054599,-4.030400382502807,0.60729430477854,-0.014858001264535554,-0.271000579771889,0.011088961757900886,0.4640097424222746,-89.18114361849852,1.5497611832941682,165.59009054631682
1546877136.154599,-4.0195446389725955,0.5544292476068298,-0.014851102139467005,-0.24631824823554754,0.009944754678646568,0.4830980793781711,-89.16350993506346,1.4914862923272107,170.55276353706986
1546877136.254599,-4.0067184423134705,0.5036334810235136,-0.01429964836145409,-0.2215321139833403,0.020793694419019675,0.4609829182734312,-89.12167084840353,1.4920250234943455,175.10000624182052
1546877136.354599,-3.9917123949310906,0.45775900542337444,-0.013703204755717376,-0.18633749459579416,0.00479349281662118,0.43120992872569297,-89.00780978599894,1.507872716785955,179.0826116011309
1546877136.454599,-3.978061286241502,0.4149287387896021,-0.013373927949238465,-0.14961488522900732,-0.014205012454372877,0.42390444224630774,-89.06133411253604,1.5604207099896366,-177.83276051043183
1546877136.554599,-3.96413847960441,0.3728173938594007,-0.013198008728118287,-0.12030031347483186,-0.00643685391357024,0.42865689851903466,-89.05580222049943,1.5121749204144728,-175.12251294344506
1546877136.654599,-3.9592322037301764,0.3347802058341366,-0.012970602880523988,0.017631047815130262,0.008415508261366072,0.3642905242849608,-89.0734066929954,1.4896911059022635,-174.62280976612854
1546877136.754599,-3.957364624446264,0.2981782121313662,-0.012654089960854062,0.0006661901740421005,0.0011148171807358088,0.41027190319081475,-89.10310440525798,1.492129703610602,-174.91245628911722
1546877136.854599,-3.9548094159390486,0.2561009536619409,-0.012484687637563248,0.008916029417743037,-0.002400718361461892,0.4319571813575723,-89.17234488867834,1.5672713477983626,-174.840828623274
1546877136.954599,-3.9518998326573875,0.21309570865725413,-0.012401537630557534,0.007949400479774438,0.0015031177971284952,0.42417901447174106,-89.16591901738207,1.5801134016228753,-174.80327587288002
1546877137.054599,-3.948810524718671,0.169829120259137,-0.012361564773326802,0.004106065618072106,-0.002381684598492851,0.4031300446501177,-89.18544568930605,1.6071626352637942,-174.83203174200327
1546877137.154599,-3.946124662025587,0.132347566052348,-0.012450509039907158,0.009683225534940953,0.003998917174043221,0.3459095192209155,-89.22029231879725,1.581403428792009,-174.78706449937036
1546877137.254599,-3.943072773496195,0.09390331583649353,-0.012282566265501888,-0.001000862159642353,-0.0013449161968953514,0.4212531605769767,-89.19571328459195,1.6182730977287203,-174.85633270369686
1546877137.354599,-3.9393671411926525,0.050701362380020654,-0.011863849655391,0.001673654380833408,0.01667588288050823,0.44038588467750084,-89.1756552459014,1.6295065643348687,-174.7641162998424
1546877137.454599,-3.93626682488078,0.006810571813353428,-0.011830694980658177,0.008504940230892918,0.005288112738407141,0.4502335829614153,-89.2434897955245,1.548433763918551,-174.7203959625998
1546877137.554599,-3.9325813092314035,-0.03823015584326217,-0.011863896600080729,0.0028071045130155623,0.00836298664182775,0.4499600294161539,-89.24673516541013,1.5484564047117964,-174.6835371010633
1546877137.654599,-3.9291682797251126,-0.08361194005624312,-0.011469059171489134,0.009202702640220339,-0.00716158881960845,0.4551601163046207,-89.1966896215681,1.537199497590089,-174.68141203083525
1546877137.754599,-3.9253218694446135,-0.12913494947592472,-0.010792320327569084,0.007913183996382092,0.004223720585779994,0.45093780104776826,-89.18238786798864,1.4969209578220088,-174.60587054023856
1546877137.854599,-3.922294162655497,-0.17332501217170682,-0.010865330502611315,0.008894803497882839,0.0016504526799028668,0.4324688054259898,-89.204311620094,1.525905653974668,-174.67278723905673
1546877137.954599,-3.918770096104013,-0.21715787721906976,-0.01084677472423462,0.005662797403812941,0.008449691177376758,0.43900005850664453,-89.19491487312332,1.5228000396010914,-174.65933375240598
1546877138.054599,-3.915350152507155,-0.2617637787766265,-0.010890842822866334,0.006428205253012718,0.0021153184597748095,0.43912272676896313,-89.24260637791045,1.5313405164622933,-174.66313428037563
1546877138.154599,-3.9116561253252593,-0.30680039810002413,-0.010830298967091234,0.0014601862462458822,-0.008241425928438448,0.456076257235053,-89.33975780734293,1.5510578045691588,-174.6492613650194
1546877138.254599,-3.907908391029666,-0.352830750001909,-0.010910286604812051,0.005823067115160024,0.001697649563624792,0.4610803491676305,-89.42111342304648,1.4768945326482732,-174.6202654907808
1546877138.354599,-3.9042282616055015,-0.3989778278844014,-0.010892178418378695,0.010030243089843044,-0.0009542069169372631,0.46488915551514104,-89.3627338148867,1.4572851267989062,-174.60644340629622
1546877138.454599,-3.900308750358918,-0.445839888168667,-0.01144825159340612,0.007398123903899887,0.006581112541914279,0.47516378632157324,-89.44214037876014,1.311441064953871,-174.54559926671158
1546877138.554599,-3.8966307102574227,-0.4917458933413685,-0.011379199572654496,0.00747053072374562,-0.0007015418335395663,0.45290158650480317,-89.46299211452506,1.3378975641236222,-174.52306543066314
1546877138.654599,-3.892876302288117,-0.5357372935183237,-0.01150583197835112,0.03018190713360747,-0.002044204560503916,0.43888110064604136,-89.52603426038304,1.327236996315679,-174.48079240372607
1546877138.754599,-3.8971257036741385,-0.5810795491040215,-0.011347968833549483,0.06419073615090767,-0.007934808097007426,0.4448118712842405,-89.52927084029716,1.4174418912115485,-176.161288005796
1546877138.854599,-3.8941787622223023,-0.6297298923369224,-0.010778198446047852,0.0014009562244213399,-0.002834251554554937,0.4948662296813717,-89.52649409377962,1.3271466051804166,-176.23429402879708
1546877138.954599,-3.890948336645144,-0.6821119176266196,-0.010541210211521806,0.003692306414639343,-0.009445791128814201,0.5252884524751739,-89.5290640825404,1.349711690337573,-176.1271989933456
1546877139.054599,-3.8880022145307125,-0.7358263532792099,-0.010458962637753975,0.010749578899261413,0.0009329453683566769,0.5339183860501382,-89.48856005171008,1.2797454665035561,-176.0667890536007
1546877139.154599,-3.885061773958755,-0.7894668536742802,-0.010637907389718605,0.010430585015428297,0.002227835305691636,0.5278775515668891,-89.56011516859884,1.1564096177039744,-176.0676950215888
1546877139.254599,-3.8820358848589507,-0.841928617082372,-0.010813146827527941,-0.004680417741427795,0.001420268301091156,0.5117361759702348,-89.50434659383781,1.2399146759829631,-176.09309050768564
1546877139.354599,-3.8790973300728613,-0.8941506373494947,-0.010349337260740244,0.0018961690682346502,-0.0014874860691743612,0.5392997260050509,-89.49074585750564,1.1323798027769965,-176.0295005199859
1546877139.454599,-3.875532703743261,-0.9503738102470463,-0.010154912577129603,0.0006733100980614652,0.0022018318243819186,0.5617935938431323,-89.42825548883225,1.1847453355965727,-175.93684938606913
1546877139.554599,-3.872474937731315,-1.0068310443025155,-0.010174076232609115,0.01322261259114419,0.0006514780033136597,0.5582656027300685,-89.38825783918239,1.1849011678991659,-175.9036310268811
1546877139.654599,-3.8693229060462486,-1.0630422992168698,-0.010457501569993597,0.006030372405020344,-0.006143844457657678,0.5639439024947885,-89.39846152011404,1.16203334723198,-175.89485034566349
1546877139.754599,-3.8655791344195034,-1.1215381863978031,-0.01082603140587551,0.004829551159755824,-0.010100097331465713,0.6136235416877408,-89.49665909823338,1.1438420244604832,-175.90280889384874
1546877139.854599,-3.8618302051038196,-1.1861903693919684,-0.011064544210638442,0.008097895579730842,0.027902843016034778,0.6708544503836187,-89.5305839819914,1.1546532052329705,-175.89281912067736
1546877139.954599,-3.85801791778476,-1.2494497556809603,-0.011161727990817615,0.0038855292269651316,-0.00938173061114399,0.5697874417363094,-89.72583779765377,1.1716258805645563,-175.77655243663654
1546877140.054599,-3.854942526110808,-1.3012374373623772,-0.010814635473990298,0.00428944301201672,-0.016838552361090237,0.499428582601825,-89.62280580532794,1.1477902969822937,-175.8039628053388
1546877140.154599,-3.8512813479480075,-1.3531719087827374,-0.010521419911135699,0.0004720955768196939,-0.009018693445417399,0.5437958503828075,-89.61059998297387,1.1095395834623385,-175.86180133996416
1546877140.254599,-3.8475801364753663,-1.4100523694728937,-0.010996547079043397,0.00885966297635025,0.0061260706285888224,0.5657579470546251,-89.63022485056939,1.1009317262603826,-175.78345683036423
1546877140.354599,-3.8441435016167884,-1.4676283463159927,-0.010586348242420211,0.00981356649916833,0.004629761146927295,0.5664886221308285,-89.49744747482524,1.1401423584155812,-175.72428446558027
1546877140.454599,-3.8411902816857713,-1.5237283219838136,-0.010008595767098848,0.006895393079698771,-0.0006718412486921123,0.5544082958536375,-89.43861852375862,1.178069868727018,-175.76326215042974
1546877140.554599,-3.8376118240428148,-1.5800208163357792,-0.009694701451305911,-0.004008170553425146,0.019772425285696903,0.5613703313184328,-89.35729146103044,1.2233343474291207,-175.80558010450852
1546877140.654599,-3.829223758774962,-1.6360222076758204,-0.010244344160758853,-0.11351970384957798,0.0010015219362139371,0.5342000777365817,-89.39927956415298,1.178942398090821,-174.96686978865887
1546877140.754599,-3.8066804590262175,-1.6831034676189387,-0.010262297805701405,-0.28263684100328257,0.02197288224558206,0.4605121049065279,-89.3854454789154,1.2139888622911825,-171.2489202440319
1546877140.854599,-3.7686583900835413,-1.7195626546013862,-0.009980533586561036,-0.3536681739936402,0.019755452416790206,0.4177353946459392,-89.47428520217349,1.1952759661502372,-164.62195412733826
1546877140.954599,-3.729466187170764,-1.751703507645504,-0.009793511758098719,-0.27130667782917356,0.0069776988111471296,0.40586031009458745,-89.44468407030574,1.2094820556455952,-158.31766221594432
1546877141.054599,-3.694294128871661,-1.7836178202794961,-0.009042381648249949,-0.21943091591291525,0.0020833818207017032,0.42176744171998376,-89.40826118293607,1.276876790108968,-153.98758393129074
1546877141.154599,-3.656795305893693,-1.8145633671353718,-0.008414099622694474,-0.22417626099951687,0.00039887783414674534,0.46188516903700194,-89.42707958337499,1.1679908777090808,-150.08226402669584
1546877141.254599,-3.607950570600672,-1.8394284680409192,-0.007728649444947975,-0.38893719852083836,0.017064009094047483,0.4478658173324068,-89.39266654272791,1.2556877254763774,-144.00625317868807
1546877141.354599,-3.5517158791092323,-1.854614646901084,-0.008047663003189527,-0.3600570821204165,0.014886338544379867,0.4583704777362125,-89.45041760656669,1.1945215442284822,-136.4154051124878
1546877141.454599,-3.494638077444238,-1.8659538443364223,-0.008648571665975185,-0.3583397247069137,0.016314878869787653,0.5048353159263077,-89.44329868527072,1.3070206126085278,-129.80738723268067
1546877141.554599,-3.4339703307979623,-1.8748922177661755,-0.00887523888719807,-0.3289378283867056,0.006061671129646663,0.5192914861066475,-89.48837982900977,1.385556673199065,-123.3746099490301
1546877141.654599,-3.373695355080186,-1.8791659281570685,-0.009116866197674914,-0.3280213746352521,0.016480376230569943,0.48689604935742214,-89.49866724896884,1.3817966365190606,-117.06049471009429
1546877141.754599,-3.314710369063852,-1.8778024810211156,-0.009150014968953865,-0.292601079874924,0.0030346521042586734,0.502470163756083,-89.52183230471326,1.3223601742867004,-111.2575760986379
1546877141.854599,-3.260070161869142,-1.8758062528208286,-0.009769114124124484,-0.21682109799424432,0.00838422629381699,0.43941184366301433,-89.60173397840634,1.2053981130196112,-106.50278870010546
1546877141.954599,-3.2203659749845803,-1.8663075921074557,-0.009450864883026194,-0.20735666702860678,0.006293507624059875,0.2796150438435751,-89.57223114297953,1.2112085162223667,-102.4191901140849
1546877142.054599,-3.1967739316096067,-1.8528335727826566,-0.009184013611874417,-0.19252461659453904,0.0018208187099401172,0.11536970094211554,-89.50300382408149,1.233076815949582,-98.51533556779323
1546877142.154599,-3.1846022805960588,-1.8327645528096057,-0.008479956407510009,-0.25484049401468467,-0.0020039766212906086,0.09110677960044211,-89.42555860183607,1.2561056074922687,-94.0117786238427
1546877142.254599,-3.1654055114593245,-1.8120462367437535,-0.00802720194378903,-0.20908166433768402,-0.0028008914272142083,0.22630347046214613,-89.39292272490928,1.2847778090106514,-89.5843703601924
1546877142.354599,-3.138072248095205,-1.7918594340427338,-0.007880396169110255,-0.21423200821895336,0.010846163149755459,0.3295477093854382,-89.3394459280397,1.3059718159164286,-85.5362097205103
1546877142.454599,-3.0983519992343105,-1.7695620384988018,-0.008341974721821195,-0.1869562782641098,0.007855251274939688,0.46473515327930304,-89.4273280569606,1.2820640171756559,-81.5170585157331
1546877142.554599,-3.050101396166644,-1.7549615390711144,-0.00903958407221383,0.007010156121164388,0.016765660270460673,0.4902453577579578,-89.52007714249001,1.2362808200762938,-79.77323733530854
1546877142.654599,-3.0010726432234422,-1.7479449331668464,-0.010067552875204699,0.00584942248174072,0.0076799479408001595,0.4966059245923199,-89.53493839537134,1.240319356881387,-80.03074259688206
1546877142.754599,-2.9512077148694797,-1.7385560204676709,-0.01033085947415767,-0.009827704661743578,0.001352766400832284,0.5264724835569634,-89.61327268427551,1.1631641977299412,-80.0307834958482
1546877142.854599,-2.8986066533344887,-1.7291658911562533,-0.010294423456883483,0.0029313033983954765,0.008808246420827354,0.5398949947916993,-89.56806839161422,1.244458911799772,-79.91246215138963
1546877142.954599,-2.845656481977964,-1.7207608609126748,-0.009765032530402878,0.009388890913792474,-0.0013299334152459333,0.5370854091615331,-89.51585153200749,1.20922680150508,-79.89303814882923
1546877143.054599,-2.793318113219659,-1.7167120088159398,-0.00940252988317252,0.13559363560515336,-0.00876627102738755,0.4989757646963949,-89.50480853295124,1.0834778881749905,-80.53403214593422
1546877143.154599,-2.7436014937309423,-1.7253680262635251,-0.008862099528863212,0.1474302882470147,0.002312599451940122,0.4318964093334409,-89.41046024034225,1.1864365523402047,-83.89637185084896
1546877143.254599,-2.7002079483658523,-1.7223422157291344,-0.008276338057161978,-0.02108964664527084,-0.006179631892227009,0.42238512537112155,-89.38570213209245,1.1393097138244643,-84.43033030665764
1546877143.354599,-2.6566652014827987,-1.7176582304834667,-0.008631078032002299,0.0026897318670782836,0.001156020021285076,0.4500365481117233,-89.37418202969592,1.1739981098376537,-84.23963469088682
1546877143.454599,-2.6099598934718573,-1.7134308994907395,-0.008852982466875112,0.004115983424449042,0.0029322813828546275,0.4875047350984252,-89.30734664913815,1.1484037719196099,-84.18024189439691
1546877143.554599,-2.5586507548064095,-1.7089178334209982,-0.008088306566753732,0.010289275721711063,-0.0024956615074950223,0.4882015970358803,-89.29708438265344,1.2037365939666476,-84.1239232854711
1546877143.654599,-2.5100323882591793,-1.7112143805371947,-0.00805939591032535,0.1102409071644591,-0.01145149430829899,0.4349530137775082,-89.30398076166546,1.109875629821662,-85.32954960230408
1546877143.754599,-2.466926118830047,-1.7084544659999326,-0.007519076970309717,-0.019962081690866593,-0.007703606845637862,0.42688218818517487,-89.2321572903992,1.1354901437308973,-85.65370881734988
1546877143.854599,-2.4196857607285596,-1.7051121777034037,-0.0074197754705660635,0.0032652166378133026,0.002535026156478736,0.4719524448675483,-89.20799161443514,1.143278189666061,-85.49416304046673
1546877143.954599,-2.3705175299764174,-1.701782948801231,-0.007298496594214102,0.009619167555205109,0.0073683379416319555,0.4766690609256858,-89.19935228222508,1.3050357955531044,-85.46848589906826
1546877144.054599,-2.320965650116801,-1.6987996647599877,-0.0069524705745583225,0.011477723785299446,-0.019093012904895783,0.5083126041143984,-89.17891872680896,1.3261505598302605,-85.42338064555086
1546877144.154599,-2.2641619699929394,-1.695602092670562,-0.006328720163652469,0.01303412015209672,0.0034560150748027827,0.6265050223004547,-89.07235427234974,1.4111748761757263,-85.4477268980284
1546877144.254599,-2.199841778422814,-1.6911318555172932,-0.006399146657445127,0.006614040702339784,0.03647455589586837,0.6416940105788881,-89.15174372180154,1.5099047271146289,-85.38919398664171
1546877144.354599,-2.1443153475789885,-1.6875089833977568,-0.0062222739813284625,0.009462271883525813,0.0027611104347670147,0.49982906755226103,-89.18550832275405,1.4639885929440843,-85.26263387379328
1546877144.454599,-2.0937179359041367,-1.6839466972497434,-0.005668749588101459,0.0023163342499649955,0.015357710039174285,0.5315434785617896,-89.1426649389447,1.520049413625673,-85.42055219088274
1546877144.554599,-2.039512368159987,-1.6798055408713288,-0.0059906270440903695,0.00613502356831467,-0.0024316719805997384,0.5385186024815478,-89.21366855203931,1.507229726114253,-85.40951802718746
1546877144.654599,-1.9859691261673764,-1.6796597300733325,-0.00600016815361809,0.013706837045994267,0.010916349923790244,0.5414509551946228,-89.22340463633941,1.532231110484899,-86.0488757319305
1546877144.754599,-1.9297464768137509,-1.6758839437311528,-0.00630763674493271,0.0007328363572854014,0.0037562351243377104,0.579529920125121,-89.20952291682325,1.4659740597535846,-85.96500542538887
1546877144.854599,-1.8694406762089648,-1.671508009085107,-0.006673804047280776,0.0031404856323151054,0.01975120402896168,0.6043289592445649,-89.28860068582078,1.5526089809904995,-85.8268475493363
1546877144.954599,-1.8072543656740432,-1.668306902484319,-0.007451122567652246,0.0051061064542519945,0.018704981879600693,0.6407523307098733,-89.41446289592491,1.5960095142717425,-85.79099434805863
1546877145.054599,-1.7425571896093048,-1.6646456821854092,-0.008349741606538178,0.01147973450262764,0.027134059380845725,0.6469047545818457,-89.44257447175589,1.5464634485546818,-85.68105496841987
1546877145.154599,-1.6760381708237455,-1.6607797956168502,-0.009077761659457687,0.007463805265919152,0.031210689110364755,0.7041709369229058,-89.50603759026262,1.5278569468895211,-85.7161264513783
1546877145.254599,-1.601868513199863,-1.6558080375254873,-0.011150882047527557,0.009738150017661831,0.030079376168988328,0.7739770668360328,-89.52032784547697,1.5321885879311619,-85.68454831048172
1546877145.354599,-1.5247173394639846,-1.651207058593509,-0.01133662191275887,0.007820721275053108,0.010106838056161228,0.7331485163695299,-89.69901884085152,1.476206520644872,-85.57164766411064
1546877145.454599,-1.4549381090562394,-1.647158041851393,-0.009473248970965388,0.009459332791347018,-0.0012341843399662428,0.6766096374087582,-89.6194389191587,1.4605562060525237,-85.52177457822187
1546877145.554599,-1.3875655119338908,-1.6419054855203816,-0.01067481715119435,0.008465351588173941,0.0278641851235528,0.6945778028310995,-89.50546711202237,1.5045051960728064,-85.57181082483986
1546877145.654599,-1.3181850430103939,-1.6372005398288194,-0.009289063923173083,0.016559986637260944,0.01472984435450203,0.6893419614477632,-89.38429901656612,1.4365010708186783,-85.55031645629597
1546877145.754599,-1.25323525074945,-1.6385103118493742,-0.008881641338404439,0.11075023799004335,0.003677637265069979,0.6268028340426429,-89.2831140536402,1.4756147943782234,-86.07857680413488
1546877145.854599,-1.190810231928813,-1.6420044484583498,-0.00458440183861274,0.02045972965017276,-0.009919052693490173,0.6470992591144362,-89.15846404983256,1.433217267633366,-87.8004686547385
1546877145.954599,-1.1248341884766206,-1.6377360745835159,-0.002737187615007986,0.0015687694314213338,-0.00847496190483211,0.6641727997984417,-89.12279939662531,1.2863486307851717,-87.50094222965562
1546877146.054599,-1.058322370341085,-1.6354404367703061,-0.002072846290888025,0.005798772373689122,-0.008355899434434851,0.6487653424028433,-89.07000628452168,1.3912079471331493,-87.42336528682935
1546877146.154599,-0.9941352390753808,-1.6334004237793005,-0.000849004754338389,0.00630183265586663,-0.009470416843897093,0.6266730193456144,-89.07657068199104,1.4614099377827905,-87.40269525884499
1546877146.254599,-0.9327887277124606,-1.6314161718835525,0.0004192391366817051,0.009874535818655786,-0.003439472353705623,0.607885824525343,-89.0196581883971,1.536728901552298,-87.37881072941622
1546877146.354599,-0.8729110832683487,-1.629753613804869,0.0012846749134943405,0.013296853272537771,-0.0009996853762693214,0.5836987599301452,-89.17834087567881,1.5915655499798727,-87.42652955220784
1546877146.454599,-0.8089408547130257,-1.6315367697262082,-0.00010277705601856486,0.0994332132269492,-0.018998834066396637,0.5780594508589559,-89.19574916473904,1.5358108836170523,-87.73673752678658
1546877146.554599,-0.7542139514525713,-1.6444726534197094,-0.0012712615154734756,0.11671027628374431,-0.002700804371687498,0.49609468116108585,-89.24430926372948,1.5994671081475698,-90.83151617806865
1546877146.654599,-0.7007362119228909,-1.6457007022934849,-0.0022182986399991826,-0.0068010985038244294,0.007940910097330051,0.5174663290108596,-89.29647590350088,1.4754773642986236,-91.03385823201003
1546877146.754599,-0.643903690329111,-1.6465718332763657,-0.0022513128457991713,0.0023416437571775494,0.01659939512669252,0.5116735679898485,-89.3519283316081,1.5391024604978407,-90.90424925009354
1546877146.854599,-0.5907895987359315,-1.648459427748412,-0.002112471295277851,0.007530053635614997,0.012048360858963984,0.5371951919159327,-89.31108276598628,1.6279683167120205,-90.88628529551023
1546877146.954599,-0.5346805205483147,-1.6502775910836842,-0.0019319363290554326,0.009037842022181707,-0.00021476149097711048,0.5313898329383722,-89.32121162677397,1.641627668360358,-90.82794277842648
1546877147.054599,-0.48114080610806953,-1.651925587101503,-0.0015765831807757723,0.006518432179006687,0.010893676522389678,0.529976676095965,-89.27901889530541,1.663791570413083,-90.8329527986961
1546877147.154599,-0.4285268310991027,-1.6530446065889042,-0.001654612861222953,0.0067870550000490235,0.01378862014334518,0.5235853569819365,-89.26628779741665,1.696515340573974,-90.79658142888047
1546877147.254599,-0.37627797821204473,-1.6549614730832785,-0.0014189907220088852,0.011002742086741322,-0.003864265107735145,0.5051581074815013,-89.25274465437178,1.6949699593005376,-90.80411681443519
1546877147.354599,-0.32622420726737944,-1.6566277621223702,-0.00109113901173374,0.009747769861406306,0.00797673318510266,0.4752471636889987,-89.2916353100272,1.6332392693075921,-90.8045006838199
1546877147.454599,-0.27940381979444673,-1.6580901131116357,-0.001348223073224989,0.00843888865556236,0.005887924766284607,0.4479019127296358,-89.35322842368731,1.585822644642301,-90.84697412776531
1546877147.554599,-0.23155081321088833,-1.6562973775838592,-0.0009201126524685539,-0.058585130347961145,0.0027972820019697255,0.485804960084474,-89.37241500940421,1.544909250937664,-90.39812517885666
1546877147.654599,-0.17871088339995267,-1.6508857491865816,-0.0010224415216671667,-0.07341354553324664,0.0245024226190839,0.5420563289336298,-89.42102940726178,1.6078711093188216,-89.16258735974722
1546877147.754599,-0.12735533513848346,-1.6373328694577474,-0.0009357939554803609,-0.1824476898577118,-0.003935909049311076,0.515725980067696,-89.44654288329531,1.6830101284367738,-86.4900750982344
1546877147.854599,-0.08119194540664282,-1.6159755941394824,0.0009763288604629108,-0.19180726341279394,-0.005816641052472928,0.4844427853391462,-89.39819036908014,1.6288346247055607,-82.65043854672898
1546877147.954599,-0.04035897879377659,-1.583343472060784,0.0023907704082416228,-0.36545879483302446,-0.008443067762526148,0.4231507247425583,-89.32260678161803,1.664544919403399,-77.25600494762826
1546877148.054599,-0.020104670343273123,-1.5414568456319482,0.0021245566798551614,-0.3431478634366044,0.0017134020643170336,0.18853143757074295,-89.38173601923614,1.6588589999240804,-69.3438238714794
1546877148.154599,-0.027681646634135637,-1.5072292110411936,0.0026925223239323893,-0.36196260127353047,0.024532039602928005,-0.005692893548790111,-89.27117787459673,1.6558709906888067,-61.59318943726984
1546877148.254599,-0.04787868175848328,-1.4752884257936023,0.0032108091509507226,-0.3902432433399777,0.005761414323740481,-0.04345944972257143,-89.24144037001565,1.647361851967936,-53.61254991260358
1546877148.354599,-0.061394852960686835,-1.4399462427063905,0.004141086156080112,-0.3184601116530735,0.008247832154262268,0.2340112792277419,-89.12703140474945,1.536752104538569,-45.96628764921005
1546877148.454599,-0.05342888605225782,-1.3961142120657009,0.0059028516977721445,-0.20325402496357056,0.0034995744752881197,0.40262649153149305,-89.09145252438381,1.4167671047722994,-40.47916991050104
1546877148.554599,-0.02997906532063034,-1.362605304029018,0.006815619392752851,0.022158482077697286,-0.0009755487987707524,0.3767449488752409,-89.13049714287548,1.3989069766244606,-39.24073910224368
1546877148.654599,-0.001148815289978261,-1.3315461565828568,0.007082103385707918,0.00782235508939136,-0.0038438096833419335,0.41764561027590835,-89.05833543742379,1.4008739508759869,-39.557246657162594
1546877148.754599,0.027887925637730487,-1.2980536630298563,0.006880827569738994,-0.0008800587453816853,0.0017805823751350152,0.4450082463194434,-89.07160324382872,1.4027852028169678,-39.54354566840456
1546877148.854599,0.05724477808722597,-1.2631585410850583,0.00667828290914665,-0.014688895036598102,-0.007474449314024263,0.45787516269557516,-89.1111486614017,1.44979478244622,-39.44488582062917
1546877148.954599,0.07382324581771879,-1.2158017803416952,0.006279650021308715,-0.27837910799727483,0.028824592799211332,0.4469204926979982,-89.08886340683318,1.5191783235394185,-35.934551639545624
1546877149.054599,0.0786851963731201,-1.1594956953964894,0.005809855990334478,-0.3112906174537128,0.02455291308492205,0.47979693486993363,-89.03326840795515,1.4076631897621388,-29.75944506300214
1546877149.154599,0.08027016528765743,-1.0997088115817943,0.006171990524038984,-0.32139608562754857,0.026396307193539727,0.5007424362483661,-88.94186103302518,1.4141226998235357,-23.609591892671034
1546877149.254599,0.07666242691038888,-1.0398744067563053,0.006536476772400973,-0.28291950281117706,0.02471808072974936,0.5098608732264891,-89.0377806228877,1.3405473773993093,-17.551790639658154
1546877149.354599,0.06744941343654919,-0.981836568356153,0.007011069846444866,-0.29402691145730114,0.03117972353598922,0.4833240890299113,-88.96601220261337,1.4201912420494585,-11.821086932730235
1546877149.454599,0.05222432808387247,-0.9279661282470101,0.007942525531391433,-0.2861449438099473,0.0029403824432400628,0.47581444797282585,-89.00984034330688,1.4624011712088167,-6.485653366082558
1546877149.554599,0.0333672776552779,-0.875860438538454,0.008844947061419601,-0.26271332968911454,0.01595914366680968,0.4610237188134114,-89.06855593243438,1.3991153920097281,-1.2701321291132268
1546877149.654599,0.01769514356343089,-0.829124632855849,0.009104143764589602,-0.1375859553919695,0.0032877255772174345,0.43527748997771015,-89.1760221187695,1.3735599389725945,2.246645479319899
1546877149.754599,0.006940588646641224,-0.7834031325504971,0.009192124356427326,-0.07787818941442268,0.0004708189457734834,0.46444541786450744,-89.1976192810256,1.3293646289956165,4.200167325567963
1546877149.854599,0.0030200320715198237,-0.738645971597216,0.00954692116035426,0.024878327183208582,0.0035043684282386853,0.4195952908881004,-89.22284399340535,1.2531944253042917,4.62148330621723
1546877149.954599,0.0011397942412731815,-0.6976108386701888,0.009836565461982529,-0.008485405471190194,0.005894935779113091,0.41022920909166094,-89.1644807696503,1.313891330917117,4.368311002117363
1546877150.054599,-0.0026106216823630346,-0.6552534717790367,0.00988690192293374,-0.008490663303794565,0.010505813527356416,0.4404366623047868,-89.16319456802191,1.2899306959525167,4.424860971418576
1546877150.154599,-0.015624208955803465,-0.6090464820216057,0.010097412124156333,-0.22513074350048343,0.0057235172048702675,0.4623984159306099,-89.13739009639943,1.3470017432687897,6.385235845597329
1546877150.254599,-0.0439277348394444,-0.5650436839123605,0.010340450033133657,-0.19111382399344742,0.008558136216252486,0.46219633004386984,-89.13948956235032,1.1491136144396197,11.53892994331465
1546877150.354599,-0.05529348730999475,-0.5222206026384195,0.010384376797324636,0.023846116390086807,0.009503707678684855,0.4152484705892487,-89.14673261655527,1.2240586484900158,12.571063273679211
1546877150.454599,-0.06248070894242013,-0.48101618805621493,0.0100730188909893,0.008990507509546958,0.0017828483345591886,0.4243909630291403,-89.24825939583786,1.1876898937019291,12.286517691366972
1546877150.554599,-0.06987027709811562,-0.4374819634924848,0.010100181671789785,0.0965717061254953,0.007500088266626596,0.42878076588974123,-89.31270955798948,1.1411249407590476,12.15313111741526
1546877150.654599,-0.06064847289190168,-0.3943761796418962,0.01034610076021666,0.24157796122805986,-0.005990186702389751,0.34095803175509887,-89.29486042614339,1.2694451899726833,8.596529016622027
1546877150.754599,-0.04238500899419771,-0.354439317219756,0.010824288891711128,0.2557567010127292,-0.017432262026324228,0.3418331119396228,-89.24036913746333,1.2989525696943225,3.4446753376942025
1546877150.854599,-0.0372761564888788,-0.31516030188962396,0.011477268083528164,-0.021411009848147134,-0.0028426771754589443,0.4041924781183885,-89.29884089929423,1.3907356992467699,1.4778288499923975
1546877150.954599,-0.039608102534588754,-0.2716375075934059,0.011014438279251271,-0.0011344096268758352,-0.004271771318331273,0.4410266047600573,-89.3311605420872,1.3569960284941285,1.722670954657245
1546877151.054599,-0.04078483874831008,-0.2258946206653049,0.010702967022877577,0.0017972676316644473,0.015595951730353236,0.4784002369276556,-89.35179436310901,1.4029003374775408,1.829223915261361
1546877151.154599,-0.04206187762514648,-0.17440118088283174,0.010076612462848591,-0.005655852787668944,0.013915972368922457,0.5347368183852174,-89.44190521126774,1.3785653485497655,1.8755467300363633
1546877151.254599,-0.0430306531998164,-0.11919366519027036,0.01010387040446054,0.0017497825634507163,0.019161877316763304,0.5498710271280003,-89.44958990910852,1.4238598767061965,1.9274677622209528
1546877151.354599,-0.04368125256556647,-0.064381180659217,0.010596747548063931,0.005386045151996557,0.00671102132142201,0.537715107677779,-89.4293005287298,1.4256956616751175,2.015082394550434
1546877151.454599,-0.044782963926695625,-0.010809482062384246,0.011024384852304127,0.0009993770653081266,0.0031352527531547706,0.5339405548453213,-89.4478075164484,1.424719828619254,2.0137239553142763
1546877151.554599,-0.04644081869650862,0.04201311562233839,0.011235801506765807,0.0063795539825314326,-0.0038254123300200324,0.5183180508445758,-89.44124695928352,1.41685625597812,2.119970345739536
1546877151.654599,-0.046524080918397874,0.09117200293525674,0.011180233240469413,0.00017308457213264844,0.004464100595300294,0.47368892520460815,-89.41955912977289,1.5176722230674973,2.009094751418495
1546877151.754599,-0.04572992589346789,0.1369424279489626,0.011386696087211394,0.07669104470894773,0.0058921892636161904,0.43706048663974045,-89.39843258435609,1.3650425108208475,1.9069772038638195
1546877151.854599,-0.04113500429735551,0.1814836889733648,0.011502468654340462,0.006169348990714974,0.005510016437114544,0.46858549978271224,-89.34018727147615,1.4881861958891451,0.6564458936694363
1546877151.954599,-0.041472976420960414,0.2303359284507479,0.011991931918183067,0.00022403832165096668,0.0010447999113511533,0.4895402382271669,-89.32065801103165,1.534257869295682,0.7565534437453396
1546877152.054599,-0.04136278206760589,0.27894760024087395,0.01130266817644565,0.006144842578542519,0.009877538286012795,0.4783684369404336,-89.41755952990242,1.4434891090288937,0.8602723330105758
1546877152.154599,-0.0414607359686164,0.32711929159774955,0.010970830135187225,0.008356934111887638,0.0009089618427821919,0.4788974986662665,-89.46556678187845,1.3097264027869868,0.9325823384432964
1546877152.254599,-0.04112630244941408,0.3763163431315133,0.010909008784300511,0.006899652471032913,0.010920368971653813,0.49376884027999773,-89.4964426021368,1.3016401220192164,0.9153110116588943
1546877152.354599,-0.04116893422373947,0.42543276533854,0.011746754931269565,0.009240433664679977,-0.005908190925599949,0.4911670420228122,-89.41796506593529,1.3019797222984202,0.9610030313211718
1546877152.454599,-0.041594212020048774,0.47414084770408516,0.012455699048345903,0.002126806645201025,-0.0037039234854593147,0.4669390323859319,-89.36009137828187,1.2136209649833847,0.9966714998102257
1546877152.554599,-0.0433664386683646,0.52157300924687,0.012955269237172053,-0.02117220533513533,0.023276918417293124,0.5039350886759568,-89.2258282241097,1.2083315599321107,1.1712870211985673
1546877152.654599,-0.052439738634439965,0.5744226651836994,0.012503911794069136,-0.1373745930653318,0.013119139366139135,0.5201349778821315,-89.37994243948444,1.292944123140128,2.8936352497448414
1546877152.754599,-0.06876128932865913,0.6263562064308814,0.012767717803522049,-0.15153796258283914,0.013828844457635705,0.5360944683845802,-89.37024968926161,1.4080497926291773,5.902765558227405
1546877152.854599,-0.08108109827213589,0.6799814588615488,0.013314098725919864,0.009089832767180816,-0.02777400504663178,0.5167162023563739,-89.39018210839063,1.3808439416375755,7.617850768488716
1546877152.954599,-0.08506809109489957,0.7294131095160103,0.013399944942708197,0.001615634192497766,0.0075771015939120195,0.4715727772466478,-89.27617156252504,1.3902390905472235,7.250143225081203
1546877153.054599,-0.09130502923548608,0.7770438924573575,0.013408096515914805,0.0049042001325211235,0.009727072823414474,0.4959601022057637,-89.17768361910058,1.329854531512094,7.293925460273048
