timestamp,x,y,z,vx,vy,vz,roll,pitch,yaw
1546877122.954599,0.000549614445257735,0.08891891676503386,0.00016059799141934355,-0.002217213474220025,0.29743999266051374,-0.004547642138912165,-89.26136343646571,1.4549179125502458,0.17332859620199173
1546877123.054599,0.0012492678393163665,0.11587826165227591,0.000322456093594717,0.009001582692185773,0.30017621213369544,-0.0013891147948523759,-89.19655539797706,1.4572704790002753,0.19695516262375523
1546877123.154599,0.0015229134852776112,0.1480119959400414,0.0005893672481958075,0.0029019054758156037,0.3301149101692339,-0.005988724895166477,-89.19409852059596,1.4404929521022294,0.25621966400877355
1546877123.254599,0.0015483799830133679,0.18308437480773376,0.0007647890044932143,0.0030975383901937622,0.005020362639988878,0.3268994443224891,-89.20750458886903,1.431737612881197,0.24440844099501555
1546877123.354599,0.0019067595304363017,0.21310240458180452,0.001099562617255212,-0.00020108802172667985,0.007504108696786951,0.30450108900137784,-89.1401363406218,1.4378518861131095,0.22953675073444219
1546877123.454599,-0.003311134029108538,0.24163095799092998,0.0010944891290320478,-0.06831221172135074,0.003432144721386517,0.2724883522216365,-89.16467405455555,1.4475283674064325,1.4300840480417845
1546877123.554599,-0.00744391682209143,0.26985989184198683,0.0010818962625700006,-0.013807570968906058,-0.006916200596553323,0.28641234572421465,-89.16887467083151,1.4156648104195741,2.3071456467409357
1546877123.654599,-0.00920291675112425,0.2978333408964769,0.0011981720007791144,0.0031388980455641477,0.004711269353906358,0.2895047560204758,-89.17212285998647,1.3425256125423137,2.5474831450736457
1546877123.754599,-0.009428597945114208,0.32590776237790353,0.0009754020871114346,-1.3882037444242148e-05,0.0026769538512709254,0.2543686454373281,-89.26057189557899,1.2631608116019852,2.3947472025365553
1546877123.854599,-0.010301884618321287,0.35028827876217244,-0.00011097494135417426,0.00923727962325089,0.00393549523984149,0.24383760347104774,-89.55766241386722,1.0402240600487815,2.4728520611236826
1546877123.954599,-0.010986501925472333,0.3751940913603403,-0.0018468921183338385,-0.00016813425612141478,0.0020592320523360463,0.24905162808372033,-90.01444820255146,0.7405388007998338,2.384436399703601
1546877124.054599,-0.011794131992659529,0.40022777842386004,-0.003358267740065631,0.003740686625553624,-0.00724795645581565,0.24150738173537212,-90.34844759477363,0.20051747514463303,2.3454038183069232
1546877124.154599,-0.012428380225505443,0.4257745541678829,-0.00469450356172896,0.006222597674596966,0.001999750763027287,0.27887990044489186,-90.6170663224336,-0.34624750970322865,2.333169288488414
1546877124.254599,-0.013600693005716601,0.4558998139398272,-0.005539489947691895,0.004326007344602669,-0.002515621296990351,0.3093479074727339,-90.76929487271617,-0.6692241603606771,2.3471060571740012
1546877124.354599,-0.014567192674431703,0.4888523845277633,-0.006250355027728272,0.005501258835161112,-0.005750457259934183,0.34289080072721095,-90.79938949438936,-0.7368935336346214,2.319398951520671
1546877124.454599,-0.0155645329604923,0.5255426603077493,-0.006793018133179702,0.00410669409818429,-0.00065645155894888,0.391712350354203,-90.75032245869845,-0.6467055988249936,2.3427571214722183
1546877124.554599,-0.016539942046252122,0.5670094145599878,-0.007907323616482047,0.006917980195155475,0.0017232812083487281,0.4158522673187595,-90.7989270392329,-0.47298778269472913,2.341458909671454
1546877124.654599,-0.017444140817609217,0.6051279333337005,-0.008865468791181597,0.006700736420348124,-0.0023563185373990884,0.32676971697167534,-90.84060117964958,-0.3082219155407423,2.3892637084882637
1546877124.754599,-0.018214178745030896,0.6348049852133415,-0.009250224253012737,-0.006868704092327784,-0.005756002400706209,0.3112648556905889,-90.7127851101601,-0.1807535834007542,2.3275753295639836
1546877124.854599,-0.019546075895867012,0.6685879038520706,-0.009941220804649105,0.002690337573406209,-0.00033367118124470393,0.3653594194154037,-90.69871270190659,-0.12414161973515363,2.297266182035946
1546877124.954599,-0.02045813539631277,0.7051377853740378,-0.010610966037316557,0.0050970188056828165,0.010676467484536331,0.37629828669493354,-90.62662128445255,0.05914170288472368,2.303982103054062
1546877125.054599,-0.021362046735114125,0.7417516997129767,-0.011465911487545373,0.007439536259976203,0.011035050187123965,0.3669623171483013,-90.61334062715221,0.15023580319801133,2.3870125337303825
1546877125.154599,-0.021504907061621937,0.7771859137025072,-0.012097384954575525,0.012347355787988906,-0.004771485175899668,0.3491488386778988,-90.61873132921588,0.19933095436228918,2.3672223330703046
1546877125.254599,-0.022552826485450088,0.8108990919347856,-0.012952448687581412,-0.0005227360683718557,-0.0008954070543283994,0.31162404518933196,-90.64657434120151,0.2501075901705926,2.378592484028604
1546877125.354599,-0.022969768355086902,0.8405969092647609,-0.013609363930281823,0.008174120968024516,-0.005869149034388154,0.30674633974564414,-90.64850499994263,0.27008289149965475,2.2910874534681587
1546877125.454599,-0.023637265772339287,0.8760946965846681,-0.01447734900774869,0.0053083385850206995,-0.013996686452126662,0.3751378360646522,-90.70819942956486,0.26067296778955146,2.245840712699318
1546877125.554599,-0.024593276378186937,0.9145388463445003,-0.015019541909515,-0.0005519009240868243,-0.0002110400585958981,0.39925626966613403,-90.74019714526152,0.25189770003360773,2.256673670335423
1546877125.654599,-0.02594091577073991,0.9551653484790932,-0.01543618736528828,0.009387338434044098,-0.0023234991145733557,0.40623209645950986,-90.75475980699034,0.12319528454141387,2.298888004363767
1546877125.754599,-0.02659497175326901,0.9958032333529908,-0.015947686998113414,0.00908411231582311,-0.0006291978041681086,0.40352324429778996,-90.6497004354394,0.2165360714842554,2.313224922045299
1546877125.854599,-0.027912609813342468,1.0369976829103469,-0.016969966388533524,-0.0027205470491947752,-0.003952037556067299,0.43329937145971653,-90.64241406624623,0.14085615745794394,2.364196078492946
1546877125.954599,-0.029178269894576142,1.0803428106374533,-0.01810575721973854,0.009553984924691637,-0.004683943129557966,0.41034904231743585,-90.66462481889302,0.06629377019044483,2.4223675868825816
1546877126.054599,-0.030439384272458538,1.1207623093315942,-0.019203521633586077,-0.006592331919096229,0.003479666353929523,0.4110660620077435,-90.63915239769815,0.09392906070905499,2.417490774612098
1546877126.154599,-0.03720304777798527,1.1613425041997307,-0.020242041944764474,-0.09582168388571545,0.0054460993160539576,0.38330226183719196,-90.6716254985277,0.14560608242871603,3.400246500582627
1546877126.254599,-0.04706838763033078,1.197523364512117,-0.021075348083833535,-0.050299208695004094,0.0006112634283192255,0.37077889602527253,-90.62928236649627,0.14111418384645322,5.2644444754562745
1546877126.354599,-0.053305930006812,1.2348705251045804,-0.021661722285016803,-0.03017360431504234,0.0018572650285016952,0.39378810402199593,-90.60710724534982,0.17794356020323093,6.050139874548583
1546877126.454599,-0.06239041052037776,1.2743000032614953,-0.02190903910240364,-0.0857246150237764,0.0074096877035385545,0.394870063679157,-90.5190794755771,0.2812538510482882,7.086087707805763
1546877126.554599,-0.07756881654181334,1.3090214282569335,-0.023122134118452615,-0.11496855804535847,-0.0037611498823139806,0.33638991771653964,-90.68653155719811,0.40251032878357484,9.444412406627753
1546877126.654599,-0.09674948394404971,1.341559987033646,-0.023547955392882798,-0.1586281239531838,0.0034995379632290873,0.3680552569513302,-90.58116849359193,0.6478344220413766,12.335262978908997
1546877126.754599,-0.12218588463856549,1.3721748222383747,-0.023108584571825633,-0.21745979752772643,0.013522637024353322,0.3346844587716304,-90.37985783998613,0.870386770824567,16.171633200242052
1546877126.854599,-0.15103153168523864,1.3976747894626507,-0.02227516909351293,-0.20802123746484194,0.006551685209724632,0.32585868613945174,-90.16686495983939,0.9836448730139294,20.449856367280482
1546877126.954599,-0.18270334402030577,1.422104066319871,-0.02173889760957651,-0.2267502160104471,0.0010496161991731688,0.3257922319346657,-89.983476761234,0.9901810000158289,24.751000144527012
1546877127.054599,-0.21668944830278172,1.4436452452867188,-0.020898832833560456,-0.22867241511960137,0.011330911560357312,0.3188231774944831,-89.7348427246785,0.9437728252149625,29.185589482471098
1546877127.154599,-0.248869040027547,1.460326338065822,-0.020501344344505304,-0.19252678141097185,0.010114803359062112,0.2648898501085314,-89.61452719870609,0.9390636088262357,33.34342780867252
1546877127.254599,-0.28243686347234465,1.4733653229198809,-0.020307096480147176,-0.2303985595187596,0.007980514165279121,0.344878593910126,-89.48235433215316,1.068819940755125,37.47702114070713
1546877127.354599,-0.32798917601229816,1.480772501851671,-0.019418999619163053,-0.37474381653344896,0.0039585152897196755,0.31462593584420373,-89.48716433136703,1.1248015023782574,43.79078884366698
1546877127.454599,-0.3738945095373183,1.477316648980471,-0.018912228277134978,-0.35154475620281656,0.005253050978968299,0.2111494235000667,-89.60710156337211,1.0262759718131242,51.42555369449716
1546877127.554599,-0.40575347497918207,1.4615604791525836,-0.018786890791523767,-0.33428953576551745,-0.0018479050137046272,0.0621330536089207,-89.63132998597472,1.10569093163864,58.42003737395561
1546877127.654599,-0.42702359966942416,1.434895626725685,-0.019418273102097754,-0.3494663273556206,0.00546721515495472,-0.001270104288503581,-89.6347750205469,1.051186127261123,65.45033024846752
1546877127.754599,-0.44330569248768625,1.403477526285904,-0.019613226967256134,-0.3606651760860067,0.000646546284301097,4.1680341663582924e-05,-89.68051284018037,1.0311077612116826,72.71791138768747
1546877127.854599,-0.4547204041515564,1.3699572346378937,-0.01992249661040287,-0.3370253164354614,-0.002155043096754309,0.025590014850417158,-89.76273556666585,1.0851023948430278,80.20240340591742
1546877127.954599,-0.4696360318918836,1.3414048217790522,-0.019916931703492978,-0.2223127740798665,-0.0006490423010919941,0.14946671690087546,-89.70272627912024,1.1444515438827243,86.32861817752482
1546877128.054599,-0.4870340663113555,1.3314676343214416,-0.0197364059607656,-0.0540624555493274,-0.0010666481512817288,0.19602051143482754,-89.65404261906295,1.234603930087322,88.69674178356037
1546877128.154599,-0.5123845711186255,1.3304629555180005,-0.020186299916553595,0.007405451306213044,0.0033843232660432654,0.2846962343169859,-89.69494518798997,1.2501014229805032,89.04703604201373
1546877128.254599,-0.5427440897522906,1.3311821436711353,-0.020514699689381792,0.009692976863156535,-0.00022002616290667178,0.30704859550025493,-89.71237473603101,1.2803420519921174,89.06946244282065
1546877128.354599,-0.5736818553751655,1.3320326123835062,-0.020337644064937623,0.005987034001039101,0.0047358176447357785,0.32081320338694225,-89.66208840832824,1.3287001345483505,89.06554792430354
1546877128.454599,-0.6086266089960116,1.333163357552068,-0.020194652298775092,0.007978714889249627,0.006131684857132971,0.3820522478210915,-89.61206369714056,1.3201619927005759,89.05155066920926
1546877128.554599,-0.6498788867412382,1.3346953520203475,-0.0200469688388396,0.0031325538120238697,-0.002158627079830203,0.4359946085553921,-89.59215199161488,1.3190088959628081,89.05268711213435
1546877128.654599,-0.69313862250516,1.3362666423273597,-0.02010108450424047,0.007077290418790328,0.011579132195201963,0.42286385024699363,-89.57407914998869,1.3703367482554687,89.0937130921874
1546877128.754599,-0.7340156161169158,1.336661069513435,-0.020580744370186747,-0.044339897070175965,0.007265864328826137,0.38525422253455854,-89.61300057645421,1.4427693103914447,89.24097600948302
1546877128.854599,-0.771411767277299,1.3226136539647237,-0.020502549011588104,-0.2337478688441732,-0.010095300426078329,0.3774408458258448,-89.65806039246462,1.5412317219417992,92.17370793122538
1546877128.954599,-0.8095986808624253,1.30106151831838,-0.020327738623829302,-0.08680390549360953,0.005845216486003243,0.37884116587226413,-89.65757769084121,1.346225813874998,96.70677240332266
1546877129.054599,-0.8430530554855937,1.2980380475719082,-0.020470131070933716,0.027316998534417117,0.00440972055869503,0.3261746016578025,-89.64459167480054,1.4981706580177527,96.7680768446943
1546877129.154599,-0.8749675131639905,1.2949389171221146,-0.019800509720600004,-0.002207641407020324,-0.003638102357118596,0.3362431400307986,-89.5752220899456,1.5392535930213456,96.6054778047133
1546877129.254599,-0.9095286320909899,1.291160108236964,-0.019485993176669374,0.0024849979937114036,-0.0005723436329337079,0.36519350517320875,-89.52893604866676,1.594475007515792,96.61730034645596
1546877129.354599,-0.9452292937091185,1.2876309962589845,-0.0197691995029881,0.006097555047982713,0.0004676419951229619,0.354277090951408,-89.52137223572612,1.5564989254126083,96.6622436365243
1546877129.454599,-0.9813958298465225,1.283889967253903,-0.019993600828284257,-0.0007890984705951685,0.00011095987179855164,0.38559939798783904,-89.51605637904326,1.5098047181958518,96.6472307761223
1546877129.554599,-1.0213069090863314,1.2794604180801157,-0.020216671890736972,0.0003467327429177197,-0.002772471488380093,0.43093320128587864,-89.51018155857919,1.328333739061467,96.70241876248646
1546877129.654599,-1.0663328850461715,1.2745939451932824,-0.020812236828187114,0.0034382673580834197,0.026003497886716624,0.4608111756551416,-89.5733392768579,1.3389435228993853,96.6879802245886
1546877129.754599,-1.1106766579694598,1.270494234340425,-0.021013344361108924,0.00489793217977365,0.008886107426395317,0.4220034218917333,-89.57104250169549,1.3244143017252175,96.76309939736456
1546877129.854599,-1.149596275066768,1.2666895073343563,-0.021018358731650394,0.012990489716013059,0.013057959946319583,0.3604303512869307,-89.52662398370775,1.4092486432581501,96.77157246592401
1546877129.954599,-1.1850668989449622,1.263331051596548,-0.020228366949940048,0.008349608699998253,-0.004831291095471334,0.3769594745329076,-89.47716899325727,1.4896473786998565,96.68200756061177
1546877130.054599,-1.2254946538884723,1.2589930891957657,-0.01946650552996228,0.006908240534731082,-0.0009655305863286983,0.42326464762215377,-89.43567920908545,1.5638037032344236,96.71135539285514
1546877130.154599,-1.2678741172082741,1.2549794149156863,-0.018960063001385315,0.01768888529630592,0.001342510429389294,0.42095437758217225,-89.42081371231771,1.6397478131978447,96.7642383051714
1546877130.254599,-1.3118518593227173,1.2508948320853968,-0.018715537635894352,0.008685753552757672,0.019306111344533552,0.4717007972702047,-89.35353334786959,1.7250528692171017,96.75356135182335
1546877130.354599,-1.3608861602406774,1.2458856809808427,-0.018492199011926322,0.012343216253766668,-0.0018736937549852662,0.5086523365560072,-89.2937534503401,1.645575803408431,96.83764852364465
1546877130.454599,-1.4118294053741764,1.2407555914195014,-0.018266729414277184,0.006928814713881622,0.01178728799369223,0.5175851618612571,-89.25529203696605,1.5429436250804611,96.88957476634305
1546877130.554599,-1.4655670351657664,1.2351647795406029,-0.018028452477743602,0.005362585768776794,0.003982442211102694,0.5580197297055051,-89.19908768661706,1.4890750192886266,96.91269532190057
1546877130.654599,-1.520923050672447,1.2295776255928972,-0.018424268530757747,0.011741228268123844,0.01731585106158933,0.5220614440567344,-89.30148383852814,1.5723235960840183,96.97374073072206
1546877130.754599,-1.56894283538248,1.2249762031386005,-0.01787938310377832,0.01033718098173018,-0.005411301611604959,0.45041591030797545,-89.24572060616138,1.5719496787064866,96.97733305328842
1546877130.854599,-1.6139941541646128,1.226375263179084,-0.01770453334901312,0.12022583509645665,-0.004380902357506197,0.4296642670667828,-89.2267740937323,1.4842664027140788,95.7223189307454
1546877130.954599,-1.6585739904693124,1.2264841798254762,-0.017212308198243324,-0.00815486261723832,-0.0025343461142358125,0.43647425801209533,-89.20852065942182,1.6017410663987866,94.72112538022586
1546877131.054599,-1.7033319525108785,1.222324549499907,-0.016599661428808136,0.008730013240947652,0.0051976950967239964,0.47892339744403656,-89.21347509268674,1.5540999655531396,94.94692659958528
1546877131.154599,-1.7537910492588702,1.2185163744687675,-0.016305550275347122,0.007174668876889554,0.011009455370021633,0.533361963265295,-89.15381099395972,1.5700215575012118,94.99697072226952
1546877131.254599,-1.8086696199232757,1.2149650936431438,-0.01712647804366415,0.014700239454618657,0.023785322132770362,0.5567461395353132,-89.26973929669562,1.6166572350912913,95.0227878075504
1546877131.354599,-1.8649990944619066,1.21131287387962,-0.017649229320230397,0.004895441729756808,0.03054236906033255,0.5594748808813845,-89.35783665886547,1.6785997094071003,95.07613928453955
1546877131.454599,-1.922118190678628,1.207516350348412,-0.018030956366904858,0.012302220567567704,0.02742410348799878,0.5992929174661558,-89.33348340204891,1.7460629869288147,95.12283291475445
1546877131.554599,-1.9850028034472957,1.2030430500324107,-0.018590536624762493,0.012783023776224962,0.04088499708587285,0.6491116177930435,-89.37023179117364,1.813262577178617,95.17887347070784
1546877131.654599,-2.0467813267554744,1.2016663499723201,-0.018471491845730475,0.09204656848922423,0.001766282922269976,0.5770149045409021,-89.45235433046263,1.5675569558123679,94.79788285781552
1546877131.754599,-2.1044764662226734,1.2073759236951762,-0.017932712752446532,0.08086131346979551,0.001640929120225864,0.5715819029302337,-89.46041846778708,1.5673401462228351,92.80044417326376
1546877131.854599,-2.1638040258080977,1.207817635665865,-0.01794710523824827,0.01624266027971784,0.009780268357918998,0.6079760266494215,-89.51558090557573,1.5120633902578917,92.04442332162847
1546877131.954599,-2.223042853615327,1.205729574609843,-0.018771620388880708,0.006656639131650017,0.009538294395299008,0.5870443630933995,-89.57260499152454,1.3917282063190035,92.30976262615985
1546877132.054599,-2.281013594275783,1.2055080113316539,-0.019110050894986783,0.021189028074549598,0.008661944078606914,0.5826259814799867,-89.63446662609016,1.517049866961012,92.31757864864944
1546877132.154599,-2.3378478034656447,1.2046412515940832,-0.01881767071497599,0.012141543915174923,0.012126253852717338,0.5523370340319655,-89.63633230577214,1.4894365908801588,92.34022925685616
1546877132.254599,-2.390916746817139,1.2034810862198202,-0.01813060024520542,0.007493725451725853,-0.02774508685104637,0.5247903877169154,-89.62253670584144,1.554314422813677,92.36175214760131
1546877132.354599,-2.445163187320769,1.2016913579353474,-0.01826072314707299,0.005817546737478893,0.008180633921737334,0.5596158792698412,-89.59647489792596,1.5945010081048479,92.36626880644549
1546877132.454599,-2.5021353445752377,1.1998757731344798,-0.018877168287455018,0.008888401895670852,0.0023457710595601116,0.5781449379107001,-89.65261648055619,1.5177575270471277,92.40480542263687
1546877132.554599,-2.5622035996001027,1.1982458034928405,-0.018375911624245997,0.009614643619165149,-0.006833757789343552,0.6319600926985244,-89.609810005058,1.4965352623156163,92.44004473377416
1546877132.654599,-2.6259239631517697,1.196670729824464,-0.017870262788737424,0.01147526685983886,0.006622488885701747,0.6440261195022249,-89.43961681281849,1.5342112867533266,92.50283920911737
1546877132.754599,-2.688901345352035,1.195009085108098,-0.01716966472339779,0.008837374018232081,-0.010077644839636881,0.5894484713377119,-89.41138592642731,1.6114507867579022,92.53474595895662
1546877132.854599,-2.745034070802589,1.1935790087455187,-0.016160288854654092,0.011018408742472343,-0.020558789378509197,0.5398369503547911,-89.28667853638652,1.4801430096809456,92.56519249184305
1546877132.954599,-2.8023283962261907,1.1919509364311198,-0.0169284128334412,0.00892096409392672,0.014179369512218019,0.5866112197044796,-89.3313378102488,1.5986879198532882,92.46416138408053
1546877133.054599,-2.8604016335587694,1.1902616617211645,-0.016862876661836484,0.015832637276261028,0.0007784497105546538,0.5813499010911399,-89.29782334616522,1.6293137706688543,92.55912889824832
1546877133.154599,-2.9180232203238434,1.189245925995709,-0.01673331971433771,0.014621881877914368,0.0011377071595789334,0.5761381954242689,-89.1956850503226,1.6377328110625085,92.59134888048898
1546877133.254599,-2.975901001494329,1.1878091224429541,-0.016902513562902118,0.014590082080773318,-0.002191904042409258,0.5974536828493588,-89.25755319845683,1.6401458599269807,92.55499794756167
1546877133.354599,-3.0384084464728596,1.1861708694532207,-0.016775199509920957,0.015206754334882102,0.007763053401455841,0.6397915971912588,-89.37094517461037,1.6813816571755507,92.54739836782318
1546877133.454599,-3.105548215141293,1.1842600588634105,-0.017080409988620836,0.014800110236109285,-0.0034937122096846155,0.6889948679730467,-89.43063171863506,1.7318632368896336,92.61467673240175
1546877133.554599,-3.175567883470592,1.1823276393586266,-0.018082761968826428,0.016822937382260653,0.022916181994230043,0.7062013011777112,-89.50638086121073,1.8618078294584988,92.63980291793173
1546877133.654599,-3.246809770492268,1.1805876600618395,-0.018224232917560687,0.01693402251047405,0.01908112142320436,0.7028427450124397,-89.52881529653435,1.9093624678089778,92.66725526558784
1546877133.754599,-3.3160937484902515,1.1789168733393882,-0.01871955044223252,0.01528863889453464,-2.174908041057029e-06,0.6878419518044081,-89.65627573327009,1.7535401256068548,92.61451128041911
1546877133.854599,-3.3833753257131636,1.1757116383319515,-0.01786459435636836,0.004846760028667677,-0.003780895743135662,0.6348853568018656,-89.71897589217575,1.6712962617653326,92.79445762390428
1546877133.954599,-3.43975703192182,1.173336343217217,-0.017479924701032747,0.010998950700938688,-0.00529621721976312,0.5169048228500925,-89.66936268533763,1.48974310975487,92.8451098497511
1546877134.054599,-3.49357860262414,1.1711279163290136,-0.017554646691002276,0.00622628010864466,-0.004748145934948159,0.5537394173121479,-89.60636513798491,1.4976952868925406,92.77766604207898
1546877134.154599,-3.5526279630061186,1.169062875469541,-0.01725365235990559,0.005950672856957363,0.007492727224593937,0.6021861465181019,-89.48312009479416,1.5138795531470581,92.83654532856349
1546877134.254599,-3.611437324090796,1.1669724938694048,-0.016527343898792183,0.009322931229958207,0.00463834651143315,0.6022266717423291,-89.40360618120087,1.5643001146273712,92.9244852042781
1546877134.354599,-3.673014726409568,1.1648208047006372,-0.015844022136709966,0.0038419670379802647,0.009386342103054354,0.6349316480417809,-89.36441803330726,1.5732733406230859,92.94505513586884
1546877134.454599,-3.7365253706616954,1.1623763371490483,-0.014930884987323813,0.01364089870369175,0.00572058798450888,0.6274644811678994,-89.19008495571333,1.4232502116882193,93.0351989118883
1546877134.554599,-3.7996805002110823,1.1604400371211447,-0.014650329281441587,0.009260753476099419,0.0007627437034294108,0.5794503220177112,-89.20685340096476,1.3693744162829198,93.02297892031757
1546877134.654599,-3.852506244819466,1.1500487822077092,-0.013798438412956674,-0.17217056929124083,0.012817692207018214,0.5097739956033119,-89.09495877020342,1.4564601683946923,94.68893312782399
1546877134.754599,-3.896965112452982,1.125140316011941,-0.013175202661133185,-0.229318218093789,0.016151835934880863,0.47320948865678647,-89.12280262668341,1.400005280710816,99.03881613359681
1546877134.854599,-3.9389468176513556,1.0977509142968773,-0.012431211834668443,-0.21668567627702362,0.002728652528158881,0.4579016903996116,-89.09068336987794,1.4504470463585133,103.33135723782043
1546877134.954599,-3.9774954330022343,1.0674880567417033,-0.011716403210925997,-0.21924587657753558,-0.0033776287358757307,0.43588730771769635,-89.07456934276111,1.3823879333928135,107.44488587679382
1546877135.054599,-4.013164596288078,1.0354459249606953,-0.011843659848148797,-0.214648692182557,0.006036851378054759,0.404723020494151,-89.12337670876869,1.3163661581355233,111.56252212920015
1546877135.154599,-4.040833474706201,1.0039489308656528,-0.011980389247935411,-0.20878299194146185,-0.0015450138997107864,0.3136324264097639,-89.24713184613657,1.360382734486771,115.71382990548315
1546877135.254599,-4.055951291921497,0.9757636816042853,-0.012120788024073022,-0.19757098462879924,0.006026690907669035,0.21361966484441294,-89.22300881602744,1.39198509772986,119.61742610084836
1546877135.354599,-4.06540850733981,0.9475378834022378,-0.012080558125488318,-0.19076270025952732,0.011750481220732573,0.2794580358184662,-89.16727941027469,1.327694470134982,123.76313883997605
1546877135.454599,-4.082664753092736,0.9121010596719922,-0.011945329437390644,-0.23875527835822524,0.0261293090729941,0.3628321534446126,-89.2651737224543,1.416390560389181,127.91986433841436
1546877135.554599,-4.089688609901256,0.8624723225668804,-0.012313356175115522,-0.4422455545814015,0.021634756623103747,0.3531851731162744,-89.26559449540473,1.627679638584433,135.22262910608762
1546877135.654599,-4.088117870265881,0.8047831260878853,-0.013011298963627205,-0.38414338021259986,0.022799075538655247,0.40642468843486834,-89.34648848258979,1.5321729423590542,144.27970829239086
1546877135.754599,-4.0902788018708085,0.7515869284570269,-0.012355729837742262,-0.2948423614381148,0.004161318685665549,0.441057577968864,-89.286390299817,1.570969270799525,150.8718288058691
1546877135.854599,-4.090277072361362,0.70180438871891,-0.010660621515141244,-0.2600162155003003,0.005652642023876121,0.41894817762025544,-89.14848164099031,1.5933221464715728,156.04733239754853
1546877135.954599,-4.0846497703344085,0.6521133487518075,-0.009857264077633012,-0.2636018494993806,0.012269467624336785,0.43213664584816336,-89.1651810986871,1.5105250842630336,161.02852798296033
1546877136.054599,-4.07626772462645,0.6003935560876107,-0.009729647229413847,-0.2746395767399454,0.012217244981861407,0.4636441528870325,-89.16468286484339,1.503065518198505,165.86469248253624
1546877136.154599,-4.0646904429163975,0.5473704538092732,-0.009127195516780047,-0.2517962322100108,0.0088728917958989,0.48360794251570505,-89.1503531570893,1.439091227352983,170.8343501936012
1546877136.254599,-4.0509578776944135,0.49647496996134755,-0.008396537043585164,-0.22797517692957708,0.01986902962748852,0.46214436597675257,-89.1150869037582,1.4366194768685203,175.38482471324724
1546877136.354599,-4.035453201921014,0.45042195766752297,-0.007634710890019952,-0.16149518808361946,0.0038277897588516827,0.44597663053605785,-89.01410930764894,1.4590315749756728,179.3660225835993
1546877136.454599,-4.021779092557193,0.4067476802687109,-0.007197579172181423,-0.15249139733305836,-0.01577856404459957,0.42915578510108093,-89.08525868414216,1.5253265266026936,-177.55026113812025
1546877136.554599,-4.0079696468028105,0.36380265343336204,-0.00712132842270364,-0.12089946348863333,-0.008015467096665028,0.43555495746259215,-89.08715847163752,1.4845605857459958,-174.83752195444617
1546877136.654599,-4.002975571255842,0.3247393541834328,-0.006933029031385755,0.021401034625015056,0.007128632212848075,0.37270708476814507,-89.11178378281258,1.4663159994975112,-174.3374286764503
1546877136.754599,-4.000710961879831,0.2878112036348857,-0.006712261229576697,0.001734435130137627,0.0009785506946196768,0.4191662693690646,-89.14128714410012,1.4717443862395876,-174.6265179134564
1546877136.854599,-3.997340435234365,0.2443011645529471,-0.006847775821596069,0.009008822270542047,-0.0020531306924604633,0.4426215873046322,-89.20773475009119,1.5439695253733883,-174.5528956265033
1546877136.954599,-3.9939229624315082,0.199930383295709,-0.006670896248608831,0.007716453860269423,0.0015267784486496273,0.4365936580520296,-89.20428664581513,1.5564390846262985,-174.50799670816858
1546877137.054599,-3.990588446301897,0.15665619573773965,-0.006459366509443385,0.0039001970269726075,-0.002960679916290506,0.4144096772306759,-89.21774862076151,1.5900243819062687,-174.53245442375953
1546877137.154599,-3.9875684246441496,0.11909996042795445,-0.0064629822282231296,0.009443289346246901,0.003828244067337383,0.3566661185153872,-89.25061598084596,1.5637380612770013,-174.48334183837875
1546877137.254599,-3.9842810126093715,0.0799530947829194,-0.00626450280510653,-0.001328241715664063,-0.0010895510581509105,0.4321926346881951,-89.22558435646367,1.6007467647889158,-174.5476951853551
1546877137.354599,-3.9802341864962885,0.03531312946801962,-0.00596194849803878,0.0023482833840320627,0.017697959195493457,0.4528268580076264,-89.20711121842348,1.6104484665707222,-174.4532387914192
1546877137.454599,-3.9767937236487723,-0.010048880825587192,-0.006056479005803337,0.009395503778638016,0.006395589997824821,0.46332670857293295,-89.27162277756904,1.5284167957449635,-174.40795055931187
1546877137.554599,-3.9728654227156457,-0.05620838121171967,-0.00622775671635137,0.00405924006667346,0.009531533369324417,0.463207199820609,-89.27148785404322,1.527999255600586,-174.37000623507302
1546877137.654599,-3.9691647849105185,-0.10256987418249125,-0.005835252700860744,0.01025345887747797,-0.0067200923793203195,0.4677171064645892,-89.21693390554894,1.5170848784011046,-174.36730445342522
1546877137.754599,-3.964894129651694,-0.1493903329002228,-0.0052461624588087796,0.008477033566960087,0.004646372318064931,0.46416060102965906,-89.20107955489884,1.4744965909625163,-174.2921662860885
1546877137.854599,-3.961333384920005,-0.19461879406105548,-0.005012106472257348,0.008735612889576506,0.0010418355218583747,0.4458806559286769,-89.22366723452946,1.501918917860204,-174.35966184806622
1546877137.954599,-3.9573714665629063,-0.2389614637588408,-0.004889296284112047,0.004706119565994691,0.007885746434561441,0.4515632136426684,-89.21309115260672,1.4961377013784418,-174.34791386036966
1546877138.054599,-3.953487773134222,-0.28497930354893874,-0.004999896277883566,0.005342996934920371,0.002365283987787177,0.45251094736793124,-89.2611025700263,1.5029446966080329,-174.35248050469966
1546877138.154599,-3.949519489813339,-0.3312163279192156,-0.005226200497396676,0.0010842864957630626,-0.006885323532399132,0.4697018845881312,-89.35611900786266,1.5225307374959312,-174.33783021289335
1546877138.254599,-3.945437545612093,-0.37899522223719023,-0.0053495333297279525,0.00610109782958411,0.0027865192650031382,0.4756291069594092,-89.4371912109813,1.4505102265606162,-174.30894716897086
1546877138.354599,-3.9414273149681947,-0.4265955106131143,-0.005185350702803306,0.009857426327488884,-0.0010887680622385524,0.47973128170004026,-89.3781231641433,1.4294546473625622,-174.29392027597575
1546877138.454599,-3.9370077857724204,-0.47554443829726856,-0.0056901285522629585,0.007178029911314919,0.006301703563769084,0.49128803324960857,-89.4586687683241,1.2816325821153365,-174.23387451007954
1546877138.554599,-3.9327938364846644,-0.5227923531152331,-0.005651429224123547,0.006449435895681891,-0.001088335880868833,0.46900011115883455,-89.47876326649849,1.3067881637529595,-174.21253716612043
1546877138.654599,-3.9291135755645374,-0.5682726479140118,-0.005858664572226249,0.03110839411373253,-0.002416534661303337,0.4558145255349055,-89.5452596831156,1.2990714901735936,-174.16633417357139
1546877138.754599,-3.93324381109087,-0.6144776906553646,-0.005804250320246825,0.06618789854768631,-0.007834661411208262,0.4608352995765022,-89.54717448860131,1.392789163347796,-175.84740980137244
1546877138.854599,-3.9303502762951323,-0.6641553221780717,-0.005392061097443188,0.003077329115067012,-0.002059969259758973,0.5103058316210282,-89.54531558933503,1.3040911500776171,-175.92010772703486
1546877138.954599,-3.927012347604872,-0.7183811234966824,-0.005390150626506373,0.006008026263343432,-0.008021185279201948,0.5415740165785206,-89.54860958629712,1.3257666589165307,-175.81129276352573
1546877139.054599,-3.923570738822368,-0.7735507313664463,-0.005604426306613184,0.012205717894842861,0.002977426744677078,0.5498468712679444,-89.50513838242263,1.2550803175559926,-175.75250239475213
1546877139.154599,-3.920416579631733,-0.8281130226878389,-0.006014161059824954,0.01167731776568061,0.004257652929487645,0.5424073425750593,-89.57348565638482,1.1310210661571247,-175.75281072087978
1546877139.254599,-3.9170462479622996,-0.8812326746230768,-0.0062609800047842236,-0.0043032322925032895,0.002747658864561157,0.5256776806905299,-89.5169809311126,1.211378940737917,-175.77880145039975
1546877139.354599,-3.9131029911832322,-0.9340358669056745,-0.006191747637009202,-0.00025728360734160867,0.000543657887948505,0.5521870732259924,-89.49813445389677,1.1013728787832302,-175.7206722582046
1546877139.454599,-3.909089079225435,-0.9906604841593132,-0.005931380483860681,-0.0008352565707701861,0.0034255088482480923,0.5732203077648608,-89.43471346663262,1.1556954315047085,-175.62966323092996
1546877139.554599,-3.9057778764588287,-1.0482966561326776,-0.005854826830608859,0.01282075618887838,0.0008493047235034676,0.5690118726766367,-89.39243422014256,1.159385787659048,-175.5951077579435
1546877139.654599,-3.9025722843936537,-1.105592984615294,-0.005736907396635837,0.007030566301874943,-0.0069673195613580916,0.5749414318678981,-89.40724176484824,1.140670757291984,-175.58369787142934
1546877139.754599,-3.8986555131080025,-1.1650374681744926,-0.005661427150077642,0.0061453740034136855,-0.012339795533972676,0.6251531787251712,-89.511312304791,1.1236408603971804,-175.59017023665083
1546877139.854599,-3.8943838382931513,-1.230980224524209,-0.0060678341173946125,0.008791725671286265,0.02633712829908605,0.6834363000090735,-89.54597379327952,1.1317802429085742,-175.58039485513473
1546877139.954599,-3.8902051598933776,-1.2954658631226248,-0.006233541009282234,0.005465997994592044,-0.012249362087069275,0.5831932258224856,-89.74463745119533,1.147747649167402,-175.46174707235755
1546877140.054599,-3.8867057323795238,-1.3481910907405363,-0.0060914066689684515,0.004662777403524762,-0.016218612342052685,0.5124762257508719,-89.6397776740085,1.1256175028951052,-175.48826022286477
1546877140.154599,-3.8828315720580044,-1.3993285856637505,-0.005684018598584367,0.001189962537900877,-0.008623143542833561,0.5538848011119785,-89.6271782217236,1.0928855044298096,-175.54595084126396
1546877140.254599,-3.8788029969542785,-1.455482390769776,-0.006243776934896203,0.009206364255651037,0.00677738371206294,0.5733852264215383,-89.64281578164034,1.0866063635903758,-175.46640369045846
1546877140.354599,-3.875129965307013,-1.512926474785665,-0.006003702851619709,0.010237949717076983,0.0051431692077763425,0.5731532810187593,-89.50678289772937,1.1289238871972171,-175.40339727691685
1546877140.454599,-3.871780226535222,-1.5699036207840726,-0.005428283150675652,0.007077323124328716,-0.00011289438889386556,0.561575017998724,-89.44613832488945,1.167862691315256,-175.44169612313704
1546877140.554599,-3.8679318069982176,-1.6260524829440133,-0.005079591933448584,-0.004166588191774976,0.020360568024350607,0.5676289706040523,-89.36487665937595,1.2118716325715537,-175.48210199308045
1546877140.654599,-3.859406557639681,-1.6824927877556193,-0.005496648900560289,-0.10430386038164886,-0.0002683443734624504,0.5422353449251223,-89.41015134803357,1.1709078017334897,-174.6403058946391
1546877140.754599,-3.8364768395695923,-1.7298242301387385,-0.005739815486153259,-0.2822573179306468,0.02189732495612214,0.46784765084070395,-89.40230141542936,1.2015026405523213,-170.9259881751369
1546877140.854599,-3.7981406242216416,-1.7649904216921537,-0.0059402818036899995,-0.3540641056083066,0.021215386026832518,0.4236596569288601,-89.49697534080077,1.1803330339640519,-164.30230739762666
1546877140.954599,-3.758446791361463,-1.7965010689839942,-0.006224834368030565,-0.27209468620579763,0.009162720147072182,0.4113102596118597,-89.46941909802166,1.193269715878389,-157.99589743826726
1546877141.054599,-3.722718406125659,-1.828080548227652,-0.005623151044331571,-0.22034469829531278,0.003952961750967357,0.42733322301784443,-89.43527819055859,1.2624398777374375,-153.6646202550195
1546877141.154599,-3.685008696712924,-1.8592031109967557,-0.005095590490527002,-0.19103442848833696,0.0011529534181880206,0.481123223894989,-89.45110799260469,1.1630046396658023,-149.76077255102905
1546877141.254599,-3.635891065701416,-1.8835476871726489,-0.004500078060281718,-0.38882042389644356,0.018532256069954428,0.45196279403275574,-89.41437820268106,1.2519237053861674,-143.6910986221189
1546877141.354599,-3.579116921936067,-1.9003970101667653,-0.005044629762296585,-0.3572551776249729,0.016533396649057723,0.46540701989800093,-89.47989789860242,1.1997863284698156,-136.10359126086678
1546877141.454599,-3.5210389546620835,-1.913710627176609,-0.005991125817161078,-0.3514834515874241,0.01899652855247262,0.5152221033758172,-89.48203830157563,1.3313145984189525,-129.4976896857491
1546877141.554599,-3.4600602149422515,-1.9236063447375118,-0.006280392158619315,-0.3199537309688218,0.008283626696094854,0.529526204274069,-89.52371823627887,1.4166438468747098,-123.05722336440148
1546877141.654599,-3.4006704877838208,-1.926458974502439,-0.006695685436056484,-0.32117366621958665,0.019333768738022485,0.4923841221269212,-89.52069218314506,1.4100578186906016,-116.74486349844807
1546877141.754599,-3.342728750692371,-1.923818907862567,-0.006316141083376264,-0.28686830600952906,0.0040920651617778565,0.5043353068197198,-89.53183659815203,1.3508430543856509,-110.941767029959
1546877141.854599,-3.289061911869547,-1.9205201362347586,-0.00656934498379059,-0.21273374448672952,0.008390880880834948,0.43825953318191807,-89.60111582731916,1.233190752663838,-106.1891129039706
1546877141.954599,-3.249933110769069,-1.9102103357028881,-0.005799068062626749,-0.20560387523594242,0.0054838562529124155,0.2773896010985063,-89.56756474523246,1.2281072541772398,-102.10824320477354
1546877142.054599,-3.2268370156726682,-1.8966830677644415,-0.0059336601621499995,-0.19100859574820572,0.0027627465960019973,0.11240724062673747,-89.4922776612174,1.2418394775855222,-98.19884679801613
1546877142.154599,-3.2127902797559145,-1.8770771183415917,-0.005793603432677874,-0.2529351483290991,0.00037529251289600187,0.09211025261874863,-89.42084895618403,1.2579284059507139,-93.69246805609554
1546877142.254599,-3.1950081711191225,-1.8561485096866301,-0.005257567844568105,-0.20719799948528866,-0.00161411506912661,0.22482578831099498,-89.38508474174972,1.2856066961358663,-89.26363004387937
1546877142.354599,-3.168601343787545,-1.8359463334497954,-0.005071696619181034,-0.18902933595835175,0.011557685612287875,0.3409076972576025,-89.33037467709606,1.3032594822955959,-85.21567906691162
1546877142.454599,-3.1296285174881953,-1.8131917893698728,-0.0051181538324552855,-0.18608814087164907,0.0072671742315164305,0.46094888834580816,-89.41630550372348,1.2799378292175185,-81.19519556826332
1546877142.554599,-3.0821941829139634,-1.7991606440109982,-0.0054783262932090295,0.009734634239572293,0.015410292828752115,0.48549348882911275,-89.50952375596422,1.240583062800592,-79.44517374865622
1546877142.654599,-3.033439512628961,-1.7923981409375245,-0.005954640831020368,0.00882139425200612,0.0051789311562645615,0.4919890822738835,-89.5250628411557,1.242559148840021,-79.69715900815342
1546877142.754599,-2.983578331040402,-1.7826820081715613,-0.005956988156876098,-0.007774287897120641,-0.0012784292123473248,0.5225586362199764,-89.60795118973769,1.1604686402927011,-79.69231712553778
1546877142.854599,-2.9316065906883058,-1.7735552305804714,-0.005675019486623668,0.006205829049553417,0.006731369190808403,0.5360144617149285,-89.56755541193147,1.2495648823549932,-79.57457759601321
1546877142.954599,-2.8785890244777,-1.763501610406098,-0.005868939828036942,0.007380540764882473,-0.001042566399384208,0.534766508389422,-89.51567490047849,1.1946680557922513,-79.5567496517651
1546877143.054599,-2.825729811992012,-1.758363485260721,-0.005605937429714349,0.13251484817456838,-0.008534063439182256,0.49892994375910393,-89.50816511893613,1.0676819858505675,-80.19594671493209
1546877143.154599,-2.7762151610654437,-1.7673080089092725,-0.004456795544112526,0.14621152188608708,0.0009969482684454873,0.4309857788287548,-89.41510964900066,1.16789832530219,-83.55087333735851
1546877143.254599,-2.7314319012813897,-1.7640593565608471,-0.0037232766056496734,-0.021499411697552692,-0.007816241425476215,0.4249917091583759,-89.40492288984063,1.119451027882895,-84.09516477851683
1546877143.354599,-2.6852239707180288,-1.7588775346027483,-0.0033976957460638358,0.002072675873874577,-0.0018249088632558861,0.4577503128433894,-89.40397713728822,1.1472786788422333,-83.90613030383386
1546877143.454599,-2.6358381607091497,-1.7540541441846678,-0.003178404278044808,0.003460471478820125,-0.0005576839263535952,0.4996632371140901,-89.34560134625157,1.1198693173466876,-83.8435842196472
1546877143.554599,-2.5852210196586616,-1.7490903913786586,-0.0030213718680927007,0.008954643480127214,-0.0036026536229483517,0.4981363830854552,-89.33266470299249,1.1735820510661006,-83.79008101423946
1546877143.654599,-2.535291275363977,-1.7513725699854292,-0.002981083955185973,0.11085921469256053,-0.012100468225527601,0.44539698832183316,-89.3379651439177,1.088170321134053,-84.9977716843028
1546877143.754599,-2.49159174666654,-1.748586896669854,-0.0018157524846281973,-0.018872684971911295,-0.0095386352172411,0.4371924977151495,-89.26695395258186,1.1165244668612668,-85.32159497435246
1546877143.854599,-2.443518120197732,-1.7447027746925046,-0.002295129172401037,0.004186962434869327,0.0028248391137498763,0.48200250765435226,-89.23556343691719,1.1218154097866286,-85.16503474692192
1546877143.954599,-2.395216129771719,-1.741380070303977,-0.002024289171736357,0.010833008124457335,0.00717764733503247,0.484179813569801,-89.21970409413073,1.282259156817197,-85.14455000729933
1546877144.054599,-2.345513817207198,-1.7380254867271228,-0.0018700083946172168,0.011065554690871036,-0.019375161034603506,0.5152519530246246,-89.19850089972952,1.2979941801539951,-85.10300186336431
1546877144.154599,-2.2880991308795537,-1.7344753665917914,-0.0012537011347025211,0.01251526327022277,0.0035508393534114157,0.6334728057998935,-89.09523683565273,1.3845281888475016,-85.12734410551018
1546877144.254599,-2.2227295032371033,-1.7300158506036156,-0.0011525935295530762,0.008214422349258824,0.03609890348809652,0.6500758850080969,-89.17582756795478,1.4920358729241747,-85.06390252886733
1546877144.354599,-2.1664657389585944,-1.7263304664837213,-0.0011023879569604222,0.011471160960209337,0.003611976703823153,0.5081887861160672,-89.20691348553996,1.4478594157167193,-84.93220589241683
1546877144.454599,-2.1156812029592613,-1.721766394316701,-0.00037489634579956823,0.002115121434194064,0.016327153920730766,0.5402153613694655,-89.16714609940863,1.5009065861066295,-85.10423566053055
1546877144.554599,-2.0608466783162256,-1.7173519879618953,-0.0004275066874555979,0.005274111548380372,-0.002095015931279208,0.5472710591583273,-89.24161782364841,1.4886916442507558,-85.08831038868273
1546877144.654599,-2.0061032624990798,-1.7168024890965732,-0.0002540642741288065,0.01288346881979107,0.011136333096416389,0.5511288893413983,-89.25786404741686,1.5057218883889314,-85.73778597352482
1546877144.754599,-1.9492468588704048,-1.7126239211598981,-0.0005416983685154839,-0.000387654672691016,0.004005625358102598,0.589117635042147,-89.24057788148984,1.4447789708553598,-85.64883025289602
1546877144.854599,-1.8894038310554955,-1.7088326400261415,-0.0007371661728230298,0.005160937499367069,0.019837600432588157,0.6134576293411461,-89.32327372510845,1.531510211234291,-85.51038033159399
1546877144.954599,-1.8286169639562346,-1.7050029910597833,-0.0015302276225492473,0.006499735294893954,0.018169391404046834,0.6469413293799673,-89.43865441297245,1.571184156679052,-85.47748936956768
1546877145.054599,-1.7616171947502977,-1.7005605455274562,-0.0018012496405368636,0.013277370240973922,0.024413772878506795,0.6555405427499972,-89.47782673028304,1.515707123621922,-85.38019799164654
1546877145.154599,-1.6959319247117541,-1.6962165919771044,-0.00205210189665305,0.007166920152963125,0.028071912950491575,0.71086208264826,-89.53781069349263,1.49744234418899,-85.41409651480564
1546877145.254599,-1.6208275770297988,-1.6909631098504947,-0.0036728374439300195,0.010296680665534566,0.026335513501688074,0.7815531218928672,-89.5552551001805,1.5044104620878924,-85.38192312574405
1546877145.354599,-1.5428866232586476,-1.6863678416616132,-0.005251133394464347,0.009343787234976171,0.010624379384588637,0.7400779869763179,-89.72188017996523,1.453996294601186,-85.26667318511102
1546877145.454599,-1.4727830233832075,-1.6810723921829807,-0.004615271762797945,0.008099494685080918,0.00284755725369794,0.6827210270698744,-89.63104462826907,1.4344679768726758,-85.21740639006377
1546877145.554599,-1.4040261539855798,-1.6768354295466752,-0.005654558940056507,0.010697691461401298,0.031047828013806855,0.7019980782578041,-89.51987063137439,1.4835311391706612,-85.25869580503162
1546877145.654599,-1.3347403782896627,-1.6716887276681156,-0.0042370631221972785,0.017042218600224653,0.016737489859987596,0.6958172643269457,-89.39376826286433,1.4108830748681211,-85.23762138591749
1546877145.754599,-1.2690674170263205,-1.6718358876471513,-0.002260545086662271,0.11013545837276299,0.0024674349978521725,0.6343498844677639,-89.30222894631025,1.450617278882148,-85.7670606239461
1546877145.854599,-1.2044097626670454,-1.6761035229606691,0.0006040498576309935,0.022026547810583923,-0.009448285620831606,0.6559440305279097,-89.16760679334756,1.4074470148516067,-87.48154122002867
1546877145.954599,-1.1368141229501276,-1.6716473031962122,0.0017212346165298787,0.002089530641330027,-0.006231533805823914,0.673169095426652,-89.12158611940838,1.258114567714108,-87.18037368433004
1546877146.054599,-1.0692059634311475,-1.6691998100034648,0.0021453744940724577,0.006019552283167224,-0.0059243078113572194,0.6576130389109004,-89.0665222535314,1.3592859637246475,-87.10253890072524
1546877146.154599,-1.0044695630812828,-1.6669319604018846,0.003537307962584906,0.006463404174196139,-0.007865401623258815,0.6351201448343216,-89.07303703331522,1.4277764058704336,-87.07886134996828
1546877146.254599,-0.9423527518633019,-1.6648782191302678,0.004871825235660596,0.010323858830484936,-0.0021134691244258444,0.6155310898816286,-89.01248553445271,1.502718149508283,-87.05405265679342
1546877146.354599,-0.8808875429117935,-1.663781188157319,0.0055022221289382075,0.015624705813471553,0.0005538060293645529,0.5919064210377876,-89.1703544635561,1.5639811048754189,-87.09648028226748
1546877146.454599,-0.8177903802410513,-1.6641170343764966,0.004608844359393493,0.09876161582396531,-0.018257953119972865,0.583909848880488,-89.18464570011814,1.5063591507907035,-87.40870436582651
1546877146.554599,-0.7616773596085857,-1.6762454453649713,0.004646639063164421,0.11493064872603082,-0.0038778164529381454,0.5028375878683414,-89.23816043734134,1.5685487613830194,-90.50622617555601
1546877146.654599,-0.7088504277769713,-1.6775310339808354,0.004297000464963455,-0.008540453312501192,0.006337432920277395,0.522944569978428,-89.29533986384733,1.4445851105979666,-90.70548870543573
1546877146.754599,-0.6531765467812292,-1.678822724082869,0.003826627719066277,0.002305363892721494,0.01662207767154822,0.5150420478011709,-89.34489808550008,1.5146442805624687,-90.57047352986551
1546877146.854599,-0.5973284120923832,-1.6815642290645638,0.0031544795090586303,0.008660543767564626,0.013632075527389226,0.5426570455437116,-89.29850609784228,1.6027717069476695,-90.54424650479967
1546877146.954599,-0.5399436406146573,-1.683553062855724,0.0031673756469439342,0.01010984086040145,0.0009401493616137463,0.5370567680870209,-89.30500890553047,1.615285764842014,-90.48182612965084
1546877147.054599,-0.48512611376751,-1.6853269161274849,0.0035571101257467087,0.00771235919410636,0.01119720146621234,0.5358945338003864,-89.26169565392847,1.6389763011459748,-90.48263045016887
1546877147.154599,-0.432144173301131,-1.686602538544584,0.003238559536465755,0.008806140560671406,0.014775555219046126,0.5288739539974621,-89.24821558127458,1.6705090621758485,-90.44429356609126
1546877147.254599,-0.3793054481122292,-1.688709506245221,0.0029676720719774125,0.013682184937441135,-0.0018476485764124988,0.510112877479867,-89.23136517625224,1.6652533123538498,-90.45118902886298
1546877147.354599,-0.32817638335391,-1.6904358679368863,0.0031710725246972696,0.011937706786230597,0.01015893707912948,0.4802775082740741,-89.26914020667331,1.5999121710290534,-90.45068483675044
1546877147.454599,-0.2812877770423039,-1.691755033823682,0.0030878110585724344,0.01050665961343362,0.0072980831383326495,0.45153041400678956,-89.32919960391942,1.554245549563465,-90.49261546242863
1546877147.554599,-0.23526300238913722,-1.6896343008987684,0.0031714307868417413,-0.05343582921582119,0.003994845859176848,0.4858346547690759,-89.3409922857094,1.5106299918795367,-90.04326740585503
1546877147.654599,-0.18546346653754214,-1.6834423235918576,0.00278566969884603,-0.07445821540313821,0.025500690503621342,0.5371199201995038,-89.38415726272035,1.5672805129715333,-88.81098333447247
1546877147.754599,-0.13482785390214952,-1.6694554657669836,0.0028747260704184837,-0.18406037414365534,-0.0036489857453168018,0.5099158209413863,-89.4105524727513,1.64237837748707,-86.1391583318586
1546877147.854599,-0.08829549360921302,-1.648666713854295,0.004039550955495033,-0.19228857998035284,-0.004522331489381718,0.4789197901790427,-89.35770379795034,1.5832711212691417,-82.29475119934392
1546877147.954599,-0.04799755461040661,-1.6162524487185872,0.0050985212606357655,-0.365788606536199,-0.007027234468754057,0.41706990947316475,-89.2806299332255,1.6160713059432332,-76.89856462380521
1546877148.054599,-0.02689551868885387,-1.5738228361003948,0.005282554970132776,-0.34459490058477527,0.0017023626320459024,0.18452040146855836,-89.349612513749,1.6051893382200575,-68.98386715549807
1546877148.154599,-0.03153975495127631,-1.5386525728912588,0.005868275253032455,-0.36390681585728846,0.02439525419271584,-0.003892383334851411,-89.25688194120157,1.5992882383406057,-61.232336984278795
1546877148.254599,-0.0513821524168139,-1.506319724043679,0.0060309554354855315,-0.3925759810176747,0.0065444649141406935,-0.04089989563850969,-89.23572329461058,1.5872629492257497,-53.252074940546336
1546877148.354599,-0.06472907509815481,-1.4705042163020243,0.00629838893153615,-0.3211289276774095,0.010065851624505883,0.23716837628275322,-89.12739058834369,1.4758110569021583,-45.61029074447085
1546877148.454599,-0.05567803264860502,-1.4266632640136014,0.007232657534305301,-0.20392168389805207,0.006537025577458605,0.40631740150076134,-89.09393056936801,1.3605233095585827,-40.12030160257632
1546877148.554599,-0.030527573567268804,-1.3927040325774596,0.0073611718332153,0.023689543053994355,0.003016061585285075,0.3815365102122017,-89.12585245129715,1.3461767386486745,-38.87726993695244
1546877148.654599,-0.00326982224133969,-1.361786761845369,0.007380657152931423,0.004964398778627982,0.0014433367918575985,0.4187945178511742,-89.04314269875347,1.3516880919976701,-39.195896482198556
1546877148.754599,0.023591969863599828,-1.3285549725337389,0.007715128508406768,-0.003389122402932385,0.004414159878503918,0.44244975822325755,-89.04862634000683,1.3582501750846692,-39.18546790171659
1546877148.854599,0.05195751993194935,-1.2945382395760139,0.007140591671220897,-0.016324514351175382,-0.0042073333172784454,0.452859024179072,-89.07977757023656,1.4106354584667844,-39.083593704136206
1546877148.954599,0.0680155429924151,-1.247893137298738,0.006961097393930812,-0.27927497388962425,0.03069942789507444,0.4400682727266271,-89.05574434632103,1.4783764473484633,-35.56834066591322
1546877149.054599,0.07316060843334554,-1.191171616630813,0.006476355719491492,-0.25957030968810263,0.025535435660817406,0.5052434168173182,-89.00905879607889,1.3605654361903914,-29.392592384930623
1546877149.154599,0.07496469005432557,-1.1311041738143746,0.006873973560206474,-0.32255038460875585,0.02859395490968431,0.49624635623818786,-88.92752377248559,1.3647417463450096,-23.242600869174677
1546877149.254599,0.07178363260156677,-1.070926758854971,0.0074606126615803185,-0.28330260988655326,0.026020219108500317,0.5070317775819257,-89.03739988091384,1.2957692797189062,-17.187416092657053
1546877149.354599,0.06357303500252014,-1.0118699472935992,0.007838150466867762,-0.29217955176463783,0.0324034002965727,0.4834572399305465,-88.97963189582066,1.3848961974641059,-11.458636813406097
1546877149.454599,0.048813588828729076,-0.9573018952475066,0.009226015469505806,-0.28298847601057314,0.002738173656370156,0.4773627902829804,-89.03738345445095,1.43559837118972,-6.119150540680925
1546877149.554599,0.02878384319132863,-0.9065312687651279,0.009923056191933788,-0.26218484948341564,0.01698913368382842,0.4601174179448596,-89.09853380512801,1.3741836462607124,-0.9013920409423464
1546877149.654599,0.013208325673828653,-0.8583869232645778,0.009502563643695772,-0.13619119049176245,0.006129157599750982,0.43759633610100024,-89.21508058999814,1.3507699842757879,2.624226781397662
1546877149.754599,0.00285547766254772,-0.8116730776340717,0.010214381131677793,-0.07408439715407429,0.0014877067119980119,0.4686867623632867,-89.24479010312162,1.318694146911116,4.585514869241797
1546877149.854599,-0.0020212820534016435,-0.7658051721951029,0.01058709019002284,0.025253354435970352,0.004558683481983005,0.42493242119211366,-89.26926282145375,1.235102301555499,5.001646689796169
1546877149.954599,-0.00427737868067711,-0.7238771152477506,0.01101495189616159,-0.008529887498908102,0.006593363081718961,0.4164345245318396,-89.21107096898176,1.29734459791084,4.745334818403536
1546877150.054599,-0.008293635775986047,-0.6814965141927027,0.011364023676470254,-0.008262568320659905,0.01010945235665751,0.4461129452571503,-89.20815376031355,1.2761361632924968,4.8027903219596775
1546877150.154599,-0.021572719727399034,-0.6354674911047314,0.011954676491380673,-0.22437889772119013,0.004721124011634729,0.4673883626494187,-89.1843016320802,1.3394917530824157,6.766681200435191
1546877150.254599,-0.05010602800778907,-0.5912632853643591,0.012504190492808927,-0.14800667254730304,0.005273785998980592,0.4828704907870828,-89.18698132717991,1.1447982547424471,11.923056516667039
1546877150.354599,-0.06181184742509538,-0.5476882090911522,0.0131502807276936,0.03240697575147486,0.006014914148021383,0.42093745859753895,-89.19786951918032,1.2245010364560518,12.956581342222881
1546877150.454599,-0.06991654058272301,-0.5058988629740439,0.0132175234797179,0.008573767134810081,-0.0017920966949823251,0.43132103173843006,-89.30443958732113,1.1866355317931285,12.668535643244713
1546877150.554599,-0.0781804779048426,-0.4610063144254949,0.013292020859329512,0.0959857082357353,0.005035785403729683,0.438005857969922,-89.37552948675898,1.1434879525334676,12.530363068953696
1546877150.654599,-0.06841249001317282,-0.4185349031952563,0.013820128935878953,0.24348533712172316,-0.007826138763695523,0.34785702307710364,-89.36254486838169,1.278747555544645,8.97823564983328
1546877150.754599,-0.050224267778664566,-0.37746727395959556,0.014166996244585029,0.25841303713083874,-0.016940862407097215,0.3506041514947995,-89.31631771466473,1.306576035305764,3.8303207526424203
1546877150.854599,-0.045773035965967546,-0.33538100110042757,0.014662813329152818,-0.0345846918858488,-0.001383049775514865,0.41656418338920437,-89.38341106441574,1.39382499101175,1.8623871735234654
1546877150.954599,-0.047967953134182145,-0.29158995347609096,0.014112485322105506,0.000943967028404007,-0.0028969997650341844,0.45379646945740304,-89.41307036579566,1.3649911355249076,2.111099839772379
1546877151.054599,-0.0495066982275079,-0.24469057668241007,0.013327122266048503,0.004177880468203151,0.01828177150384673,0.4917292804744373,-89.42892484662988,1.4097036465465036,2.2147165345392263
1546877151.154599,-0.05091402847699286,-0.1921385712232062,0.012740294493406544,-0.003913444208057512,0.015621951059854932,0.5490691097187861,-89.51870702231149,1.387298238765805,2.2613426030852937
1546877151.254599,-0.0523344707388335,-0.13612018417971894,0.01291390027740849,0.0027857853758999,0.019991835166179,0.5638079680186444,-89.52317738038792,1.4331203644601616,2.3114823451794817
1546877151.354599,-0.05369931384324152,-0.08047162130445196,0.013247816434244924,0.005320766839654477,0.007727407025108167,0.5510357791382444,-89.49556401290579,1.433858455744487,2.3952260641738814
1546877151.454599,-0.05555800303099365,-0.025939040890054055,0.013585367935091146,0.00023748160747446076,0.003991756084394527,0.5474200429993397,-89.51201424503076,1.4339835874691989,2.391765825148421
1546877151.554599,-0.05817788818752808,0.02735790487411499,0.013732825202568806,0.004324673610020384,-0.0038854852934637977,0.5308190777228562,-89.49654628921255,1.4231377962897331,2.4893498035469883
1546877151.654599,-0.058733957325804914,0.07922936161766975,0.013696954009188167,-0.001106907842120961,0.0046966373800102785,0.48933733768702536,-89.4791231469271,1.5231897111765504,2.374033261368391
1546877151.754599,-0.05808702388404036,0.12602634956160402,0.013945426221041123,0.07639363034950568,0.005934970332700984,0.4522432287231447,-89.45536204477817,1.3692492481286673,2.266933160038282
1546877151.854599,-0.053084816668396866,0.1710492971213583,0.01414499411947537,0.00833194668021609,0.0056970436627403675,0.48249352455379263,-89.39721880755525,1.4934060724349385,1.0138917317362774
1546877151.954599,-0.05346194109059622,0.2213118159772767,0.014588203206571027,0.003125770969698076,0.0010115107508635304,0.5033408569198037,-89.37552303283532,1.5390840129464898,1.109154694220268
1546877152.054599,-0.05338510329847096,0.2713887968599846,0.01387844187353546,0.009324338827299425,0.009472614456582516,0.49251116557129654,-89.47132310653392,1.4491490499391146,1.2096555860102869
1546877152.154599,-0.05374169233249862,0.320985577305354,0.013629809885647987,0.010957750774101467,0.00022523205687254716,0.49394712621753833,-89.5215362221103,1.3113458786537089,1.2794671788405727
1546877152.254599,-0.05405471803693532,0.3703486241270727,0.013390904858151555,0.006966231374163312,0.011262497255539704,0.5077454642912902,-89.54803688734796,1.2973362419620535,1.257014836018112
1546877152.354599,-0.05447446216502009,0.4199219423873083,0.013966309109474025,0.009033508020457387,-0.00479229651676734,0.5039263474502252,-89.46177974544206,1.2964081799978664,1.303174775652065
1546877152.454599,-0.05502919658945151,0.4695367598648302,0.014722492089724277,0.0026984792057431167,-0.003418761622695354,0.479348051708725,-89.40196761756083,1.2086150663135833,1.340791007113791
1546877152.554599,-0.05703968294774677,0.51870372046925,0.015034241282008757,-0.020660635301203864,0.024075209514453175,0.5175175155509101,-89.26626188739941,1.203546134741095,1.5158936332882644
1546877152.654599,-0.06677139381642823,0.5728787984911712,0.014524774287158536,-0.1380049660005146,0.013921160293223454,0.5339581579128534,-89.41782242329093,1.2870750042255419,3.2378349441807615
1546877152.754599,-0.08364530054290556,0.6256124223275121,0.01470296669515938,-0.15244547524583565,0.015136766715121434,0.549818419063759,-89.4095417032746,1.408993764807179,6.249165575471889
1546877152.854599,-0.09653151016996742,0.6799661573414715,0.014870499407970705,0.0084405969804205,-0.02561473273976132,0.5302365275126735,-89.42630300524814,1.386400701332074,7.968767512531449
1546877152.954599,-0.10092627882531732,0.7298850786917143,0.01495898370152022,0.0015657507710137215,0.009136447463313529,0.48435497198313116,-89.3122869418347,1.401393634378729,7.606310015412231
1546877153.054599,-0.10748815725290814,0.7791138027615707,0.014949322724048648,0.005544587901050353,0.009805358008592923,0.5097895272021118,-89.21513961375916,1.347959782928749,7.659259853611764
