timestamp,x,y,z,vx,vy,vz,roll,pitch,yaw
1560500328.9013894,0.06307280308770008,10.094506033212717,-0.2537604995296565,0.030008696742938837,0.9776509760314516,-0.4039873461996031,-8.698064259363116,33.62687377279425,10.094506033212717
1560500328.9670267,0.18051670991755217,11.799947634169767,-0.32204677871291476,0.5001841970738141,0.9449761694015435,0.004857720400584464,-6.150621117739821,28.938219441252542,11.799947634169767
1560500329.033575,0.2017732194110159,12.948852784747745,-0.3812648733974999,0.5253199438878587,1.0033998967918674,0.012273789586490724,-7.557373952969133,30.75894071125924,12.948852784747745
1560500329.1659248,0.14912288939626334,15.458409774762925,-0.3751433819703131,0.38217071960370974,0.8178116152416731,0.024500822842296238,-2.9035329581092215,36.45387953323358,15.458409774762925
1560500329.2326062,0.1269643554756868,16.3095908792154,-0.387448525118187,0.3401905990751837,0.7906492596461917,-0.006564705294521689,-3.8913138586797267,35.30754484014493,16.3095908792154
1560500329.364471,0.13564626320020412,17.594469242787227,-0.43599645745994636,0.37432632881752503,0.6939233717621205,-0.04138547815936669,-4.762658253983095,31.540414580050168,17.594469242787227
1560500329.4305167,0.13875422844336954,18.371939804929493,-0.449656450250646,0.35737861370382673,0.6553377875258946,-0.023829799644756094,-4.661066693131161,30.70016875638975,18.371939804929493
1560500329.5618591,0.1942826806530591,19.84578041910358,-0.47451249198216805,0.39597626422649235,0.5418178002057252,0.04171532923595614,-0.9039862288496798,29.684478771319785,19.84578041910358
1560500329.6257722,0.20969812891424455,20.551438106795075,-0.47192430949842135,0.3847880648376849,0.508383560066128,0.06431462211884378,1.465159272735659,28.894670198535344,20.551438106795075
1560500329.7555141,0.24664137271274314,21.873672775472414,-0.4941841752977735,0.3813143178929186,0.4207587502917339,0.10521443744185217,2.0307444442764666,28.347451320250073,21.873672775472414
1560500329.8197997,0.24718648371215937,22.32254697194254,-0.5023250380559217,0.3702598847649417,0.4707613135044193,0.11978094596935389,-0.002900754329476222,26.17178290645916,22.32254697194254
1560500329.9496398,0.25982507270047694,23.26954128950795,-0.5226089776053804,0.3469606384224877,0.33813685767086576,0.05348358990747709,-0.014412524907964365,26.106035331512775,23.26954128950795
1560500330.0130076,0.2740419970630182,23.651859337524527,-0.5353161804474108,0.34516129385081606,0.26083740509946435,0.029450414985711285,-0.02182770237207695,25.59878017414996,23.651859337524527
1560500330.0774348,0.277728018525554,24.022414919275672,-0.546118061141391,0.3312172249491479,0.2505473981259342,0.004070073809149782,0.576627043038239,25.000980491417348,24.022414919275672
1560500330.2069974,0.3119043245663183,24.71996347952835,-0.5709355635770339,0.3934037368134842,0.19218590747127226,-0.03836945924164198,-0.10670266298872687,24.345436354444715,24.71996347952835
1560500330.271961,0.3234856881525474,25.07719728630336,-0.588994993164142,0.45653344632064197,0.14413169826923378,-0.0971621090606708,-0.35062808108213983,23.54221093616216,25.07719728630336
1560500330.4022615,0.3718378640688819,25.713318176422526,-0.6222239338604055,0.5207948641609571,0.017301012028247364,0.012186131713894016,-0.27585381884414717,22.662447032488725,25.713318176422526
1560500330.4678633,0.4010875946253301,25.82830163026166,-0.6240872832780494,0.4950577511886309,0.047594764183660765,0.11718446181091141,0.5038272827378638,22.26743931558563,25.82830163026166
1560500330.6006885,0.4578350549402511,25.998720694211542,-0.6269505463783486,0.47946978438987753,-0.07820185245708591,0.1992043212953836,1.759700466732465,22.04188793566573,25.998720694211542
1560500330.6670048,0.4947170481490456,26.123531845970312,-0.6386762260860985,0.49620713206484035,-0.22441281410087938,0.1472814590928316,1.820900480515898,22.330252617278298,26.123531845970312
1560500330.7996094,0.5506033079561007,26.1659823122645,-0.6559244591834057,0.5105736596749362,-0.2732178871973916,0.07577909592734547,1.7026528004722754,21.51258937518599,26.1659823122645
1560500330.865392,0.5698783246689649,25.942185108965287,-0.6658562830709474,0.5103052064347233,-0.24008298123029084,0.05191312134286885,1.6314236878173987,20.701368013425533,25.942185108965287
1560500330.9975915,0.6370432726828683,25.555068065376773,-0.682761226753499,0.5140290132673313,-0.3871692290206631,0.07205110818087733,1.5668388850065897,20.05930462702925,25.555068065376773
1560500331.0634627,0.6650524862531988,25.394971258115202,-0.6929246358236597,0.5249122881720863,-0.3524251071968687,0.06933521486292267,0.9953234778670347,19.5631719357567,25.394971258115202
1560500331.1289663,0.6860540843407862,25.078299126907034,-0.7040170428621368,0.5041140988344619,-0.34121523623830236,0.06282414394976789,0.8970938076564231,19.55060553109419,25.078299126907034
1560500331.2600324,0.7552650211176095,24.43286316261326,-0.7266306635268505,0.5071580517664747,-0.3932262556609984,0.005293884122229531,0.8298339492309393,19.413306937259478,24.43286316261326
1560500331.3262532,0.797367203857362,24.09606700449251,-0.7379609170221868,0.5249551414320595,-0.4730286006501083,-0.00044301759765841275,0.4598506218323959,19.19824255480284,24.09606700449251
1560500331.4558954,0.8766258557066102,23.216510819736285,-0.7620241978116491,0.5704433790084535,-0.5906533318975861,-0.03812655200498896,0.08559787789199633,18.852977765859155,23.216510819736285
1560500331.520875,0.9243019125835481,22.748559747137477,-0.7745613087010023,0.587238712239446,-0.6076795707126589,-0.022311255056973678,-0.2273978677773231,18.64339706148283,22.748559747137477
1560500331.6475158,1.0226105094973663,21.691472556027747,-0.7975497088761129,0.6185972656518963,-0.6473317818283012,0.023559380910996852,-0.710376522253857,18.48117051216206,21.691472556027747
1560500331.7111573,1.0740895171042726,21.094964115104872,-0.8123433207873294,0.6429818484197863,-0.699425008609906,0.016229349959588524,-1.0994765960465345,18.56839018022983,21.094964115104872
1560500331.841574,1.1918467835106616,20.089106449133023,-0.8311746737898433,0.6624676857635918,-0.8168828417801663,0.04127680593339969,-1.9187020944912452,18.40316314442804,20.089106449133023
1560500331.9070394,1.2708312222235505,19.519466336916555,-0.8410835842240383,0.7256051215042914,-0.8363823866031769,0.05138891031747955,-2.4748386186178033,18.255593860509236,19.519466336916555
1560500332.0373726,1.40994452061644,18.089949146944925,-0.873078891144571,0.7993257556945256,-0.9008524225759229,0.015886455665377275,-3.0756379169855,18.46385432764275,18.089949146944925
1560500332.102914,1.4983762166110441,17.376039713400537,-0.8943966194206455,0.877428878857598,-0.973272986953524,0.019657242058965324,-3.4804575263186828,18.456324436077523,17.376039713400537
1560500332.2352867,1.6513418302276444,15.944160330224388,-0.9298320257111895,0.9331146399349388,-1.0569073125382311,0.007450730534131533,-3.7814420810076577,18.554895440553363,15.944160330224388
1560500332.3014343,1.73405386752659,15.016637758452106,-0.9552459089657965,0.9945582254779493,-1.0502792142046082,-0.0021808052509232068,-4.281594627523472,18.682133714408007,15.016637758452106
1560500332.366885,1.8069573063491258,14.16818118802614,-0.9792642761729414,1.0285786385107976,-1.0280135177397687,-0.008310703824896737,-4.404684545558694,18.862031865781777,14.16818118802614
1560500332.4985728,1.9978533302304105,12.642040029486203,-1.028460232162191,1.1315363331663244,-1.1281055427176763,-0.05472578302376868,-5.145825578038099,18.938511364747892,12.642040029486203
1560500332.5639672,2.0998855220453634,11.758065462394704,-1.060878924674903,1.2122683200153201,-1.121463480198289,-0.04203110356415535,-5.5094096073292365,19.13502551332973,11.758065462394704
1560500332.6956387,2.293529547029147,10.097442707760152,-1.1237154982446622,1.3319854498133892,-1.1409680759480196,-0.048810862335832594,-5.890666229787214,19.51771232768619,10.097442707760152
1560500332.760942,2.390889767930158,9.263458433318656,-1.1580668707687485,1.3820373674574373,-1.138474573685886,-0.04838018986773268,-5.939502156641749,19.629781692217886,9.263458433318656
1560500332.8926592,2.5897696559944055,7.901593253614709,-1.220142879713017,1.4390067393328525,-1.1482997320985628,-0.05355408815658852,-6.323847438205405,19.779694556874173,7.901593253614709
1560500332.9593673,2.709285945873466,7.140204141079801,-1.2616123180363739,1.4976298182183887,-1.1646816242497529,-0.07871564417293231,-6.470984473911844,20.169582322956376,7.140204141079801
1560500333.0919056,2.9310384115388524,5.91173408071591,-1.337755262278383,1.5640176620526707,-1.1828424239426842,-0.0967127585118514,-6.741127245050615,20.438921812582258,5.91173408071591
1560500333.1579077,3.058512942124174,5.2322200067840585,-1.3886183821606455,1.6481757359055411,-1.1452483561526912,-0.0960411855759683,-6.7836629983871655,20.84694608649313,5.2322200067840585
1560500333.2232008,3.1711597087760417,4.550231927543483,-1.4407056367507438,1.702406718533639,-1.0765287357354398,-0.08012398347510907,-6.680968500139196,21.29012392701924,4.550231927543483
1560500333.3561628,3.3972881020987455,3.514358489611329,-1.5447173940871963,1.7507767236224157,-1.006867886306694,-0.13058368146565308,-6.563712361739071,22.111512607419925,3.514358489611329
1560500333.4228077,3.4998103275246213,2.891650443673396,-1.6110752044240242,1.7768173753946015,-0.8636887538328983,-0.15317462380945535,-6.271384789128413,22.925184998076226,2.891650443673396
1560500333.5531695,3.721664678081667,2.140781687292388,-1.7219237797131965,1.8156869653079044,-0.7489372120397265,-0.13729942196177158,-6.262271017530153,23.699039020393503,2.140781687292388
1560500333.6175246,3.8145843884243513,1.6354227084228472,-1.77990779777296,1.8065138765171656,-0.5959657877694452,-0.1315363805581009,-6.181349833950436,24.523451329210804,1.6354227084228472
1560500333.7472296,4.035149272784078,1.0648086298572947,-1.8974215596435924,1.8441401629339746,-0.45774519368175026,-0.1552702751402537,-5.988616152854411,25.060946068483123,1.0648086298572947
1560500333.8134334,4.140839552881013,0.6925260513710995,-1.9587144838016317,1.8515041233679375,-0.32259126696122914,-0.15268638406163781,-5.739049661888955,25.936539956085156,0.6925260513710995
1560500333.9462328,4.341139793793754,0.27845708193584306,-2.0714284226582587,1.8114344368578168,-0.14596125209494867,-0.08111668642941339,-5.514797804472835,26.39053561431678,0.27845708193584306
1560500334.0134711,4.42990807050194,-0.08022760553750669,-2.1286252028880135,1.7732649521419699,0.03601272197579406,-0.04767947758356805,-5.062493240263653,27.139499357528003,-0.08022760553750669
1560500334.078884,4.538759452303425,-0.29317689148745457,-2.1774361572360124,1.7757947387503317,0.08918512454074906,0.007303687195827191,-4.660301108415264,26.92493863319376,-0.29317689148745457
1560500334.2169313,4.796059102306143,-0.44226613081449406,-2.300179232701572,1.8512960909838672,0.20713187346962084,0.011198331870963307,-4.642549380926265,26.520847960749386,-0.44226613081449406
1560500334.2903256,4.978567587516052,-0.5915178828564432,-2.3889809100507526,1.9974865556054222,0.2540405140197717,0.011976224740228192,-3.914326096557011,26.571059584590767,-0.5915178828564432
1560500334.4273312,5.2820064348890075,-0.9355639326724908,-2.535904185221723,2.138635641616259,0.33115755738782426,0.01580184068837187,-3.624683430524557,26.381834412060577,-0.9355639326724908
1560500334.495073,5.463427944907124,-1.0905873213476636,-2.622383290014534,2.2672585021428096,0.3639767794003747,-0.0008076963520114999,-3.0835693866116474,26.260772189450222,-1.0905873213476636
1560500334.5631473,5.65219423855696,-1.189466759708065,-2.7129580444953088,2.395252092425947,0.38576195907990934,-0.014136392397849917,-2.45653172254769,26.129866238077394,-1.189466759708065
1560500334.695678,6.006786686421286,-1.2980684739544701,-2.891964755317074,2.5853713145371993,0.43475155941419247,-0.049503352251967225,-1.7875422602089537,25.97203894762474,-1.2980684739544701
1560500334.7615917,6.210625299502906,-1.2879870002382054,-2.9975086710032324,2.7175695784651976,0.4173146352625935,-0.08589148076798803,-1.3060807715449576,25.534674706362846,-1.2879870002382054
1560500334.8942266,6.532948109116176,-1.2791560926220664,-3.1560367192973326,2.7146232814060802,0.5247268487122142,-0.04136243938144557,-0.6420246841761978,25.870767401395224,-1.2791560926220664
1560500334.96088,6.729535805015407,-1.3146885596796303,-3.239953841964971,2.7915033398292213,0.5171779481718926,0.011470722256472055,-0.20895154779112354,25.592440789123355,-1.3146885596796303
1560500335.0937924,7.069267818731661,-1.3574519850672733,-3.3900258427807306,2.8182950090445438,0.6399688815257175,-0.011357867859308257,-0.2098802998706668,25.491614286813274,-1.3574519850672733
1560500335.1605418,7.247204585144694,-1.2878243109142073,-3.464821058429865,2.831405306828273,0.6743720735322473,0.017861816542223075,-0.0052752451315476795,25.38676893885225,-1.2878243109142073
1560500335.228281,7.400065128471345,-1.1445965508588243,-3.5302956261156155,2.7615852901456135,0.7199860921889106,0.06926525838917352,-0.1847012868941097,25.33742233874309,-1.1445965508588243
1560500335.3593287,7.780354076484246,-0.8936252794957553,-3.694695091528018,2.869937079874777,0.7778024310442615,0.049194040848660636,0.07298735871912192,24.853755221736222,-0.8936252794957553
1560500335.4251168,7.945699948004835,-0.7654214185463745,-3.772056393778563,2.8543402341419983,0.8132385080070599,-0.021217864812328457,0.030771834382805733,24.85466973811359,-0.7654214185463745
1560500335.5533228,8.360210592502536,-0.4769374299504165,-3.954718398765981,3.0399428347996884,0.8546348180319527,-0.0003235037749438341,1.2536419784243646,24.619898911539718,-0.4769374299504165
1560500335.6183088,8.503250090305269,-0.3744824880404372,-4.012613195981672,2.93671568473523,0.8958565165361703,0.009052338185859599,0.9629981944562545,24.36123324683792,-0.3744824880404372
1560500335.7463534,8.931386118880717,-0.09247847209216278,-4.181727786574517,3.0824197819330683,0.956000267754021,0.1048423178395761,1.5688279534868288,24.274524747494656,-0.09247847209216278
1560500335.8123784,9.101809373953738,0.1492210295614061,-4.23929045018654,3.007423806974287,1.009327106478819,0.12176815931043206,1.7128900534281506,24.29906548913092,0.1492210295614061
1560500335.9427767,9.462262846546178,0.42513474495750014,-4.375006474369139,2.987072796511376,1.1041862256453394,0.10496098763277328,1.688951828094253,24.268183990546973,0.42513474495750014
1560500336.008303,9.699108775869353,0.6024208589885576,-4.467014054207823,3.1266667180523973,1.084977555850246,0.12177270593244605,1.9576553782776316,23.97523589490051,0.6024208589885576
1560500336.1406507,10.139234138951464,0.9096279001023881,-4.642685810508265,3.255941409498389,1.1474745692735833,0.09697840887752429,2.28790737538835,23.71341712199996,0.9096279001023881
1560500336.2073362,10.35886773364886,1.1543471801351761,-4.728978520360172,3.300622640641337,1.1559937840812105,0.08167649842744273,2.545076825529639,23.59431125864853,1.1543471801351761
1560500336.2744968,10.66861444568211,1.4262702295122767,-4.852932092797666,3.5480994664238876,1.1143867399336251,0.10543954609727701,3.0567006621924855,23.437205254944146,1.4262702295122767
1560500336.4076583,11.099596388863658,1.7458870055676536,-5.010524591596554,3.5168746033748826,1.2131960409936067,0.15113814460068364,3.162992607738939,23.47672578033581,1.7458870055676536
1560500336.4743326,11.33166392638449,1.9703051287912614,-5.090107627172812,3.548765443487854,1.2063997927118313,0.16703020124732149,3.3942305492273697,23.502097728607747,1.9703051287912614
1560500336.6069121,11.741346448325228,2.304075955437114,-5.236291690267069,3.494296520862754,1.2881359884755692,0.17274185907705952,3.422536634022434,23.50756911274707,2.304075955437114
1560500336.6742284,12.004942892711336,2.5132589552394613,-5.337338194584426,3.612670420970488,1.278032290637114,0.16174565258517526,3.562517393629764,23.447988573152656,2.5132589552394613
1560500336.8071399,12.55170466524493,2.911298598582703,-5.545820898177373,3.818918930808981,1.2705157194759427,0.1466290576638034,4.103206910390334,23.193810577727874,2.911298598582703
1560500336.8735127,12.785356171604402,3.1150479373238933,-5.635114932449015,3.8225251608491493,1.257991534975303,0.12207778075492826,4.076340134947921,23.114997546498994,3.1150479373238933
1560500336.9401393,13.032437937236814,3.301528427677748,-5.722529634789044,3.8546234448515406,1.2542785617477246,0.15856993260481933,4.190307093865106,23.144511695596538,3.301528427677748
1560500337.0730767,13.590558450919513,3.6964730500014564,-5.926830475280024,4.059999967352464,1.2511729436874566,0.18885389463149016,4.6680313393286,23.131998887642037,3.6964730500014564
1560500337.139218,13.85918249785163,3.9368080368805987,-6.03169080512304,4.124358661803994,1.1945219052820828,0.14991032953683936,4.813263388353281,22.955951292395977,3.9368080368805987
1560500337.2718778,14.35848306207675,4.2391473947165075,-6.216259676662251,4.116970631121846,1.24968576854172,0.120895377548212,4.89998403334096,22.825836840875013,4.2391473947165075
1560500337.3380985,14.609265167318277,4.440698975466773,-6.307088968954474,4.122414656534394,1.207173357229611,0.14334091214378253,4.94754511240573,22.785545528746873,4.440698975466773
1560500337.4707625,15.122099591597191,4.769513478970331,-6.488872926674025,4.129729070203529,1.2496849132668912,0.21413185903956755,4.952205560443452,22.790079165847715,4.769513478970331
1560500337.5375218,15.443339740246024,5.0130461122389605,-6.606269494367652,4.2834547601141395,1.196579877439385,0.24312661351070997,5.1387647844749305,22.789538868902426,5.0130461122389605
1560500337.6038575,15.71613405454477,5.246534240296358,-6.707763761299515,4.308076241303899,1.1527951499687916,0.20930616001651536,5.252912549559625,22.72650463435986,5.246534240296358
1560500337.7366667,16.218051114898312,5.594308580977929,-6.892777324752677,4.2320772616845685,1.1363827097463337,0.18855243881689443,5.227518456439383,22.637740821267798,5.594308580977929
1560500337.8032162,16.468988463719317,5.7671144813453425,-6.990491647854259,4.207696295989487,1.0741270237776797,0.18792818856619364,5.039524631232036,22.633438091546207,5.7671144813453425
1560500337.9350374,16.980830884798863,6.038433997917704,-7.164268605494552,4.167685720890116,1.092653154909466,0.19125840871824384,5.102238613045791,22.61408981213775,6.038433997917704
1560500338.0011168,17.314036552731523,6.21935917983781,-7.28512252390889,4.3346834804607965,1.0240151254922591,0.20531511808421454,5.2044958755241595,22.602850862703036,6.21935917983781
1560500338.1333213,17.847498127563544,6.575014655912395,-7.476324374283828,4.291515784201978,0.9882928039136358,0.23181049527916797,5.265606305619036,22.60463327866803,6.575014655912395
1560500338.1982653,18.08193749376759,6.7968282929243555,-7.571317345519861,4.209566898493075,0.9316682321640193,0.20799526961541726,5.259475350622155,22.569114082648117,6.7968282929243555
1560500338.3330274,18.581153538946698,7.166862631090826,-7.7615759864768155,4.109444255572046,0.8621062539082259,0.16838032887427024,5.285067371367815,22.530882551165995,7.166862631090826
1560500338.4008043,18.775221997204632,7.409455353289432,-7.842460203993018,3.9455998829119716,0.8076214488220516,0.1314634040145799,5.238759118420639,22.456865787650223,7.409455353289432
1560500338.4681635,19.028209067515103,7.581691901718217,-7.938355855689824,3.934809918128193,0.7578325619113664,0.15114544158725396,5.167388896338486,22.428223536898592,7.581691901718217
1560500338.6028311,19.522795805965597,7.8837103025406705,-8.116053325760998,3.8802601116679485,0.7773092821879883,0.1800379806105823,5.10184578227004,22.497318778663452,7.8837103025406705
1560500338.6702883,19.7494888865943,7.991121146942817,-8.204206742489315,3.8116018249895447,0.7311581593506746,0.19500269584709273,4.929481188904658,22.606812159682576,7.991121146942817
1560500338.8019538,20.19540290654687,8.309559020905757,-8.353064506781106,3.704722505386268,0.6935289870379482,0.2337452102198181,5.060791622408411,22.714175958617304,8.309559020905757
1560500338.8686194,20.530782005622473,8.446350420518032,-8.478486933871672,3.9292700025098397,0.6803009764943989,0.20118534672464783,4.991159114519194,22.739312710135508,8.446350420518032
1560500339.0008032,21.004495299260533,8.798413525571776,-8.66325089519746,3.8562808969919593,0.6073480272025298,0.18756082198038548,5.029579695320687,22.621401683319316,8.798413525571776
1560500339.0671084,21.219228539724096,8.963256062988135,-8.749890119521861,3.7765381305972556,0.5378654275789339,0.17327047024369113,5.077203632784325,22.616177916368624,8.963256062988135
1560500339.1336384,21.38304194536465,9.057384097096904,-8.810380215514252,3.58075849091851,0.5134406843001634,0.1922058100181805,4.965022998471029,22.68381391306547,9.057384097096904
1560500339.2649615,21.808141825541544,9.319596500548785,-8.965622818427748,3.499208284193314,0.5108029801388869,0.1926795345766532,4.962583690381713,22.741815109634047,9.319596500548785
1560500339.33082,21.965037725191756,9.421892807416885,-9.03071969769177,3.3429777583531846,0.46040086629587396,0.17830667047060134,4.846910697498938,22.77455180414736,9.421892807416885
1560500339.4633722,22.393202690609613,9.66534306013478,-9.199279596595694,3.3321427429386468,0.40634507429818606,0.17195357501607256,4.865610767047967,22.64783487672181,9.66534306013478
1560500339.5290558,22.54762776034928,9.780690365803036,-9.261846407888537,3.187202072787034,0.3798081326379318,0.1432150003738012,4.909854382160691,22.638527862866376,9.780690365803036
1560500339.6558692,22.91261977081011,9.976295176296555,-9.401147261426518,3.1123463653753194,0.3645558949564378,0.13290740156476022,4.958075029756962,22.642089621672135,9.976295176296555
1560500339.7212577,23.044296270296265,10.112365753623758,-9.44868161512368,2.9358038451827464,0.33782132095663664,0.13765835773266544,5.074080590060847,22.54592889484331,10.112365753623758
1560500339.8523138,23.371755259077766,10.276759122593532,-9.56599685212394,2.8063823020047614,0.3183206344791034,0.13794908847078735,5.0781851434965155,22.506581596536186,10.276759122593532
1560500339.9198349,23.558513317322564,10.335354949633832,-9.632701100005546,2.79472229511026,0.309785075926594,0.1701106822867403,4.991912859058075,22.574530520886537,10.335354949633832
1560500339.9876049,23.817851829641594,10.386250239616015,-9.731664805631715,2.9555274858889287,0.2802434799577861,0.19816170152570223,4.870234896570522,22.51300082622556,10.386250239616015
1560500340.1229603,24.2029160111529,10.552734282015376,-9.871850649988863,2.926212063686197,0.2634792445436503,0.18427091183065303,4.786914353819454,22.529430573468755,10.552734282015376
1560500340.188632,24.41039376846735,10.62847188602817,-9.955385131718215,2.968684567720945,0.21475139710166324,0.17500121890918452,4.965970300495926,22.364341519662002,10.62847188602817
1560500340.3212187,24.688107882558867,10.785090117602692,-10.064406851058223,2.7557289713554356,0.21540651556136783,0.08729017495478986,5.0562715277940935,22.283489027837412,10.785090117602692
1560500340.388123,24.847067275592924,10.822408176243636,-10.12534453674348,2.7095837872812063,0.20347853629686716,0.0978165733474824,5.002921991710165,22.299188107176033,10.822408176243636
1560500340.5179384,25.161038224472264,10.955651136088786,-10.24467152847681,2.6572752259757197,0.1797475528007768,0.10496906312019194,4.930510705149162,22.3891190725157,10.955651136088786
1560500340.5846322,25.320732402125167,10.97407903299508,-10.313047336110873,2.643634102289138,0.16287487627895098,0.0865978742314002,4.927491189370663,22.424429385084803,10.97407903299508
1560500340.6513588,25.493555022684166,10.99474840424841,-10.384059936992672,2.654706961476448,0.14695711101397313,0.08636656740650595,4.914552189902281,22.437010096494966,10.99474840424841
1560500340.7891598,25.831015069576598,11.08874981397328,-10.512898588963537,2.617634969334337,0.13268848998343233,0.11145663961722374,4.973023187018979,22.271553440741172,11.08874981397328
1560500340.8577254,25.95341069311117,11.14824738926428,-10.561703382327973,2.4951448944111685,0.1227565065681841,0.1081896628953265,5.039438505080632,22.228833683643852,11.14824738926428
1560500340.9942565,26.189983134455726,11.22107338271183,-10.651065949636479,2.2704540729813028,0.12969746217868594,0.06781692693331731,5.115382817404158,22.072179025814634,11.22107338271183
1560500341.0647411,26.338759578694486,11.268462408955338,-10.707775728116761,2.2516437239704863,0.11080447900412889,0.06057817294219858,5.144052908602936,22.088147695682206,11.268462408955338
1560500341.1314542,26.493889899233356,11.303560036749378,-10.768438769537743,2.2723140193281677,0.0960752523078115,0.059323670288805475,5.111212719162183,22.102474654262277,11.303560036749378
1560500341.261255,26.779068590936703,11.372101578312325,-10.877500718589584,2.2596485329972884,0.08641301538997548,0.08445957118888159,5.052459110602185,22.05455707789282,11.372101578312325
1560500341.325372,26.944910007571206,11.346356300427974,-10.940861904030788,2.3117327378703094,0.07903774195829566,0.10303384016902528,5.046191633049794,21.968161389250444,11.346356300427974
1560500341.4546506,27.164189323948964,11.480298832195993,-11.023264328161243,2.132475049417351,0.06949744176018113,0.0730594600693466,5.204934894855653,21.822950035854713,11.480298832195993
1560500341.5212004,27.247081841867185,11.481132618806733,-11.053204961349106,1.9901663308469553,0.08305234089647909,0.07701242805674924,5.165307233762957,21.79823815815262,11.481132618806733
1560500341.6517048,27.473985433093755,11.591426194622478,-11.130586500240117,1.9295572481271144,0.07750432078781688,0.07464949748388316,5.125860118879481,21.946838218886548,11.591426194622478
1560500341.7202733,27.636079277473,11.572228405828255,-11.192909047558965,2.0186010310791005,0.060414457846928386,0.04595806038481676,4.968171328283562,21.854495300403233,11.572228405828255
1560500341.8543408,27.91945260073956,11.672877677843731,-11.304318294764274,2.063447629080753,0.05310342076516301,0.034293792634038645,4.8646388944502466,21.845531072186354,11.672877677843731
1560500341.9204445,28.09943257319136,11.636227223960198,-11.378457233398219,2.1917337565454447,0.05213933311612342,0.024888681195183504,4.579294379063912,21.64886089424278,11.636227223960198
1560500341.986025,28.239397834633884,11.642969430908787,-11.43367369553532,2.201735333500826,0.060413220755030285,-0.006342454945597709,4.467458337716798,21.408611406033796,11.642969430908787
1560500342.1182451,28.54717557365857,11.714691114859265,-11.55981737496795,2.2660686889451527,0.057003214748134676,0.03386761939779448,4.58282645880095,21.711635498822826,11.714691114859265
1560500342.1842835,28.75143222792595,11.731626913151247,-11.63343970448041,2.4023284157719105,0.04639737013807809,0.08981447071869653,4.661901916476146,21.723048380983947,11.731626913151247
1560500342.3167698,28.980146750018108,11.7168547725389,-11.717782427445961,2.2252606629252596,0.07145867311672682,0.07196043188355938,4.524351844883699,21.62027545857326,11.7168547725389
1560500342.3837485,29.127217046046393,11.709349538516278,-11.774332424749907,2.233558712800819,0.07105483352928058,0.06908246388411132,4.458980595360633,21.479859973303615,11.709349538516278
1560500342.5186841,29.449357166649907,11.7874662652852,-11.894165118637735,2.3085869833561934,0.05733442010531347,0.04474334582251016,4.4241736112141545,21.404601801256504,11.7874662652852
1560500342.5855668,29.648312580226314,11.824648917248785,-11.969394430874353,2.4276634622775175,0.04407706423846456,0.05882954473523738,4.523519471389418,21.45132877002582,11.824648917248785
1560500342.6546311,29.729838474481948,11.764610738393152,-11.999078937118252,2.2529786735576924,0.06364701484593524,0.07454455054680797,4.431957621943095,21.31584591090411,11.764610738393152
1560500342.792418,30.019356568733564,11.80331593125482,-12.10557484301577,2.2587575293925033,0.06095733524986477,0.05472553085613219,4.450433651576872,21.18566304749751,11.80331593125482
1560500342.8560245,30.152007612224214,11.793768208295663,-12.153658756145731,2.2458581829724906,0.046027198895359486,0.04780639589308444,4.480686137181269,21.042552299853835,11.793768208295663
1560500342.9894044,30.38780298639895,11.867722273490015,-12.23876650007054,2.1479501989216203,0.0520559527872864,0.041768377701819515,4.45554136786114,21.096179980810966,11.867722273490015
1560500343.0538528,30.52565898347153,11.853417558677085,-12.290201064512987,2.1784723447223193,0.05420425093024347,0.05051952766316403,4.424676889944597,21.123913410150024,11.853417558677085
1560500343.1872103,30.78958144548847,11.895249446870205,-12.3902730246674,2.1916500105430634,0.06867266871351205,0.0572254504880938,4.370433390038596,21.12827306851419,11.895249446870205
1560500343.252712,30.932228825499802,11.874213102354425,-12.444189545413144,2.22804686782197,0.07144939663988417,0.061840118757596874,4.328991192138113,21.067144403588937,11.874213102354425
1560500343.3189554,31.069057650174777,11.87868566757914,-12.493698570099065,2.2436916630587165,0.07860633269425002,0.06370381915039869,4.322177054935916,21.10151943340867,11.87868566757914
1560500343.4511015,31.336924086830372,11.932101029096929,-12.591908801372888,2.259190373363557,0.07589461393880736,0.04961185746766317,4.28258878747409,21.123452376051223,11.932101029096929
1560500343.517932,31.511398109802393,11.960442920621967,-12.657704981461675,2.358384260768119,0.07357539459421801,0.0368830500003281,4.274665581002659,21.009648674922598,11.960442920621967
1560500343.6520023,31.804044078151747,12.02869719454808,-12.766485765592833,2.385618702474463,0.08103145820621405,0.023868898291512064,4.278305799050906,20.986174795584194,12.02869719454808
1560500343.718146,31.927534496123506,12.021497456766571,-12.813328538773671,2.340172720210596,0.08026354086659115,0.046733060458879594,4.311780040063201,20.96704317276533,12.021497456766571
1560500343.8502645,32.17823615032941,12.054201792579468,-12.90351688450847,2.2867922367482545,0.09211697728934651,0.08340651476045435,4.271251309721319,20.963151792787407,12.054201792579468
1560500343.9164283,32.337970632530585,12.053075201140018,-12.961506482458747,2.349955581098564,0.08038845545451473,0.06324298287155461,4.217515674128962,20.937647720126993,12.053075201140018
1560500343.9826808,32.52917672521559,12.072500361581413,-13.03410593747998,2.4728316754804376,0.075685369913147,0.05635899169415848,4.238967910073327,20.835543504565234,12.072500361581413
1560500344.115936,32.78087068741425,12.1827943118383,-13.126607678949767,2.3665166815845042,0.06634764056342916,0.022882969654733354,4.334738437140496,20.715798651362718,12.1827943118383
1560500344.1829963,32.91661283755872,12.144069050176604,-13.175235348779095,2.349113630195938,0.06877968412015609,0.027846655117370167,4.295535819303014,20.71249297146254,12.144069050176604
1560500344.316225,33.17860157429779,12.179085279134716,-13.26904275232193,2.294351929131247,0.08282284313873065,0.04803139195243511,4.29365790141703,20.6049414382365,12.179085279134716
1560500344.383006,33.292399164463646,12.156916731587723,-13.305585642620981,2.2321111546984533,0.08501780647929019,0.0762846167211364,4.197986203197928,20.55860354491646,12.156916731587723
1560500344.516677,33.56361609332655,12.1856884541327,-13.396643986960727,2.2242126596160605,0.12002417609763341,0.09440340113000201,4.071998116343887,20.598801873309444,12.1856884541327
1560500344.582803,33.75522076718627,12.218494520498368,-13.466697821213344,2.356620733229742,0.09993354361293037,0.09529760402166965,4.19436995636021,20.587260663678624,12.218494520498368
1560500344.7147615,33.97249195881116,12.278468979461978,-13.544959539849968,2.219865274628448,0.09384420916182994,0.11189444957568884,4.432260598371827,20.740494146162057,12.278468979461978
1560500344.780893,34.09970067952334,12.231519662142693,-13.60134630906298,2.2090265758260768,0.10113848178217955,0.039786327625259355,4.377303954888491,20.625126197951847,12.231519662142693
1560500344.846465,34.16366148706109,12.228143243672868,-13.635851933213548,2.0631787017796204,0.11389890025428923,-0.12617245626795637,4.3433744665091725,20.62219028938167,12.228143243672868
1560500344.9793117,34.438307960188666,12.315015882071636,-13.759004344174217,2.125407776844887,0.031613564009393386,-0.10654035078624846,4.663966084862905,20.552002420340916,12.315015882071636
1560500345.0447614,34.63405590199278,12.287119984950088,-13.831072498093187,2.2860818396066844,0.04628799984594888,-0.04121511412350365,4.709417803999425,20.805410663785125,12.287119984950088
1560500345.1770678,34.98145348054576,12.27704981448712,-13.968479933042206,2.452414976700239,0.07628981607350489,-0.061896842516219075,4.6366713726584,21.050590503502406,12.27704981448712
1560500345.2436676,35.11050824337314,12.23499155108826,-14.011749534977376,2.390097211633435,0.06877155328487772,0.06120625178044936,4.568056696796253,21.17568341887161,12.23499155108826
1560500345.3749156,35.43221444459573,12.285021415463445,-14.122018557101802,2.445889806196731,0.04559355897600579,0.16353482667916786,4.4380126921105525,21.397795458735544,12.285021415463445
1560500345.4421964,35.61201506788894,12.260797905503466,-14.188272687248983,2.520319364591128,0.05051105536310644,0.12119847002007689,4.3949396690782585,21.43371092402635,12.260797905503466
1560500345.5094216,35.800461638694685,12.245192905732747,-14.260375565205083,2.607204948946541,0.03365605150974093,0.08652674746863942,4.409286347517555,21.386594225183405,12.245192905732747
1560500345.6446533,36.027107480297,12.293818724235788,-14.362549720391169,2.4183694936465656,-0.01572897679548707,-0.10508071232490468,4.61547309078026,21.045217181693545,12.293818724235788
1560500345.7132702,36.127104188095494,12.241614648164237,-14.407158660239377,2.309662070324772,-0.0153310550500384,-0.09876415550974238,4.641662458646494,20.99333904858742,12.241614648164237
1560500345.84948,36.41898415874211,12.288744293681306,-14.5230398061016,2.321044320992299,-0.01590740654002612,0.03427550921568423,4.567649759182517,21.035429544738435,12.288744293681306
1560500345.9173474,36.577734717317874,12.223504643590346,-14.574629243219464,2.3540501560565037,0.022183305752684394,0.12241227207650107,4.452569038646618,21.390026936794463,12.223504643590346
1560500345.985426,36.743978793848385,12.198609277105993,-14.632094172067665,2.411644695062688,0.04414769973181528,0.14747687029609635,4.539942264582617,21.64460785125269,12.198609277105993
1560500346.1232026,37.13911587936761,12.268732267209845,-14.780497678873012,2.6647400986336263,0.0054270467304025904,0.03289994231541271,4.675990431583015,21.726434547146066,12.268732267209845
1560500346.1903596,37.275069223669256,12.226290906274714,-14.847547461562188,2.6361837460347592,0.012074177015146209,-0.07788372099210417,4.515471620061363,21.402006807346524,12.226290906274714
1560500346.322116,37.55582102184469,12.28254209011703,-14.974161474308122,2.5835047130278324,0.02459907881635827,-0.056876807215133995,4.2331310870196495,21.18662716830515,12.28254209011703
1560500346.3883698,37.74053659935175,12.266562086901432,-15.043106001948352,2.652088009434568,0.020429384428956116,0.017213096278409723,4.270631466714406,21.35334903692559,12.266562086901432
1560500346.5202813,37.95400359982989,12.237551527201642,-15.107080589579652,2.41961889529532,0.08463920959460497,0.12020827266362721,4.295660995345918,21.204184056316823,12.237551527201642
1560500346.5872693,38.04495778801893,12.294294140740126,-15.133926884139271,2.2849051577703214,0.08874346818395218,0.08057651049568426,4.293952654141824,20.986762311625313,12.294294140740126
1560500346.6533601,38.156298732933436,12.35870983113017,-15.177879655466684,2.2260471029609072,0.08900273366781469,0.07919896506014923,4.2215118675768455,20.86884389001252,12.35870983113017
1560500346.78803,38.38941888676884,12.403183996446124,-15.266543893142568,2.148185271205769,0.12403594046048338,0.04638356080864914,4.072273847934828,20.759315013056423,12.403183996446124
1560500346.8558204,38.52315297681506,12.490460445953188,-15.318238372832703,2.1657629527191324,0.1202928580330126,0.02691719507145207,4.077154531481894,20.83130563431478,12.490460445953188
1560500346.9918165,38.77426806993757,12.557435346839798,-15.41572311640669,2.149835424824877,0.14061113832130695,0.018863854815591163,4.07854621883296,20.877360626784906,12.557435346839798
1560500347.0598955,38.93710452067296,12.581906617915365,-15.482901554940081,2.2464614889898322,0.1516651888692493,-0.025187895979845387,4.037797613447774,21.004945278405778,12.581906617915365
1560500347.12771,39.075021998089966,12.559071000458179,-15.542344230595015,2.267999467450289,0.15334514694323026,-0.038901476503256815,3.9967593862168727,20.988839888121674,12.559071000458179
1560500347.2619097,39.317882836283566,12.59143406835544,-15.64345575121759,2.221084098962525,0.17341260934121533,-0.04430151352152023,3.9078225676070226,20.988093420145663,12.59143406835544
1560500347.327787,39.51743225101066,12.633944831011952,-15.725487392810113,2.39122837492922,0.17014113156567548,-0.03305901489851559,3.9074831994862804,21.195849521932576,12.633944831011952
1560500347.4572785,39.80711724148166,12.79253314122279,-15.841497225219895,2.440794638006751,0.17102135787753298,0.0027916747573105694,3.9714560342557474,21.343021589829604,12.79253314122279
1560500347.5225523,39.94440165199994,12.860977669095856,-15.898331103488458,2.4433774648051587,0.16682647745930307,-0.009480721547606263,3.9700308303861855,21.394752597259398,12.860977669095856
1560500347.6530766,40.200253244079576,12.853729581798321,-16.005407618229956,2.3955319329847957,0.18846508183555316,-0.011886695199278652,3.9142263001310913,21.269517819149563,12.853729581798321
1560500347.7199688,40.33887111537978,12.86936353118419,-16.06503727940714,2.3972326504956665,0.1913580073766207,-0.00956801862671186,3.9297711403187905,21.329467739613143,12.86936353118419
1560500347.8531487,40.62858895119649,12.92708393454456,-16.185161035742595,2.430655217327901,0.19957666304193927,-0.03855633284529003,3.9567432452654447,21.320183993480807,12.92708393454456
1560500347.9193568,40.833309435626134,12.940966404342042,-16.27027222771909,2.5955446829873106,0.20238070016917753,-0.06668282582470186,3.958234356108193,21.38544843902659,12.940966404342042
1560500347.9841342,40.99934014551779,12.951491426792732,-16.339962451889527,2.652768478643399,0.20196748746059157,-0.09130446079866972,3.965306744422479,21.472233971464874,12.951491426792732
1560500348.1056232,41.274014876706914,13.003288300510443,-16.45552196278024,2.6289157265819516,0.2130536156123256,-0.012228484009149776,3.9699577744776833,21.436105943206783,13.003288300510443
1560500348.2140417,41.554068656239686,13.043862712718086,-16.565325854131732,2.6945744264538005,0.2089858108151396,0.04862466144329347,4.000449407236729,21.629894024692106,13.043862712718086
1560500348.2718015,41.724739307942734,13.04352331998922,-16.631972673152767,2.7885124920850886,0.2082755990378832,0.05897343781087594,3.941818083137415,21.658419375572727,13.04352331998922
1560500348.3782644,42.00149904573935,13.077481062153513,-16.743400423988263,2.843475483735619,0.20176131279803428,-0.006760223190151349,3.9495890448174937,21.597035382896838,13.077481062153513
1560500348.4850473,42.28263942883531,13.091466422820247,-16.85876161703604,2.884593780865361,0.15689477052904366,-0.015066409336067066,4.075382768945431,21.550056736435245,13.091466422820247
1560500348.6053648,42.590663457278815,13.069562085330961,-16.982865376062186,2.8990351585860643,0.15736722688143445,-0.006001163341955773,4.162140652269463,21.527175620209544,13.069562085330961
1560500348.6547594,42.73968022193661,13.021185903791066,-17.04220077293254,2.952588888384015,0.14464617710420485,0.013818743559339208,4.140697094854531,21.541383977371662,13.021185903791066
1560500348.78373,43.052811448256506,13.037065719729515,-17.163434921685532,2.884766261186508,0.12862678983056897,0.08450618718325786,4.1028665993978395,21.53717702029903,13.037065719729515
1560500348.8506768,43.21982102874598,13.045039208464884,-17.22714426327474,2.865559331358009,0.12755648102914452,0.10126701889329603,4.1489500540060975,21.572177514432116,13.045039208464884
1560500348.9841127,43.565506522131656,13.121390413791753,-17.365108197512278,2.9081282094811787,0.11532959762390724,-0.03353655067264105,4.261607359754948,21.617206711951,13.121390413791753
1560500349.0501583,43.76866365865691,13.155345753495983,-17.456147155279847,3.0207745773202292,0.11044857159056894,-0.11667219708277354,4.24991951302118,21.54076459392085,13.155345753495983
1560500349.1835623,44.146817578286914,13.271250027259823,-17.62070116225263,3.0742508714008587,0.11663302107157376,-0.04943149068806263,4.201104698322559,21.218201719195882,13.271250027259823
1560500349.2516234,44.34205474606351,13.350955699495996,-17.69603541661994,3.0910654688004793,0.12752944878882946,0.046245236478051566,4.134737106068065,21.272750128231902,13.350955699495996
1560500349.3189363,44.55375204609184,13.433703421003647,-17.767452853434065,3.1431395701776665,0.14146235880761948,0.1380025275618033,4.09118906501681,21.527710734565336,13.433703421003647
1560500349.4519274,44.936804143392564,13.610936351567885,-17.900384881560544,3.1674995960915235,0.17743805530412643,0.13110351190145253,4.1617808449992735,21.632713463843075,13.610936351567885
1560500349.5193362,45.130167724053734,13.678830506101932,-17.976117998199012,3.181895020789826,0.18474736540374487,0.109971810033069,4.186014585672719,21.50114570139048,13.678830506101932
1560500349.652726,45.46212752333023,13.82226428285102,-18.114377814339623,3.0892457077112523,0.2216361178555294,0.027885482392706162,4.188543851073965,21.22877130036367,13.82226428285102
1560500349.7193568,45.61206577220607,13.9102892771013,-18.174807645683877,3.019855530959163,0.2368868143378428,0.006653147329631071,4.2009412837438935,21.213239632749737,13.9102892771013
1560500349.8521137,45.97263417839351,14.117506498389407,-18.31653659191232,3.029285581772189,0.26080951897816423,0.06132313398976175,4.18650605253881,21.256596370367568,14.117506498389407
1560500349.9184906,46.18906817713306,14.231604839242415,-18.398655739483644,3.124952661974633,0.266111816074426,0.10501613949227495,4.119536184695961,21.459223839436987,14.231604839242415
1560500349.9853396,46.423061752039935,14.343785396509904,-18.492624020785357,3.25427154340432,0.2821344959773078,0.07498292466818235,4.071287235933014,21.606758641514443,14.343785396509904
1560500350.118714,46.828518301868755,14.52344367956509,-18.665293119652695,3.3582718535005136,0.28291233015103745,-0.05510904403598893,4.120450673808363,21.642842279996202,14.52344367956509
1560500350.1864405,47.03494548629196,14.600986559303823,-18.756450191944136,3.400126032866818,0.26759034036188867,-0.07383373319856812,4.08542865016326,21.636623314135168,14.600986559303823
1560500350.323636,47.47031360064644,14.767820442384838,-18.939888433213724,3.49213879437272,0.28846364132627356,-0.03443628363159723,4.026470356411662,21.640047860732945,14.767820442384838
1560500350.4014738,47.68500023526979,14.85469467736919,-19.024511506057927,3.454358054069299,0.2683829469348867,-0.026974863903433066,4.138542272759209,21.692195339478275,14.85469467736919
1560500350.4819386,47.9130622059739,14.93137849929004,-19.113617976963756,3.4305745400880037,0.2788249108011023,-0.02913493558805813,4.149749956250619,21.575182449650114,14.93137849929004
1560500350.5535321,48.109613637731,14.98170139388279,-19.1867492416453,3.3782445764763525,0.30676711828478465,0.015515140510388825,4.084001777952582,21.47523756632073,14.98170139388279
1560500350.7019508,48.58098528644339,15.19434595206958,-19.364331100297917,3.441334104504161,0.31838357773856246,0.13364945026252784,4.179946155378812,21.482087945250807,15.19434595206958
1560500350.7787056,48.86082145201635,15.303335092726174,-19.468042573671053,3.5648470654381397,0.3161710459328961,0.14945180022921112,4.111096415358677,21.592986331224377,15.303335092726174
1560500350.8507314,49.12426361560031,15.400007161438058,-19.572270968652035,3.6721295333895623,0.3109496604329838,0.09536836356859246,4.114837275694204,21.576093827069514,15.400007161438058
1560500350.9866326,49.50253656495325,15.59812014858165,-19.73258760518852,3.5542157700180543,0.3079289011678631,0.009531761257033144,4.290454025411293,21.21914797734432,15.59812014858165
1560500351.0523515,49.683111017299304,15.665204438567446,-19.803719588633037,3.4922608521660106,0.3135428767847639,0.029242157879224573,4.379207077072065,21.237380257336216,15.665204438567446
1560500351.184626,50.08589614052229,15.831166909764795,-19.95772093563869,3.4954996241507037,0.32419593238397404,0.030514622398318147,4.415204089563204,21.404511952150834,15.831166909764795
1560500351.2507308,50.29189957944705,15.893216970498882,-20.042675799481202,3.5166500319787053,0.32971448336849196,0.0262442092482833,4.349871487159213,21.474829844367218,15.893216970498882
1560500351.3160603,50.54330844894895,15.960262311181742,-20.150592310344354,3.652751301363318,0.32109656055314156,0.012237101150004204,4.2719991706417675,21.547332543702208,15.960262311181742
1560500351.4464033,50.99879587314556,16.11431037233884,-20.339411469849743,3.7607949527209033,0.3204060029660613,-0.0002437548749432139,4.275757407003756,21.465625362245373,16.11431037233884
1560500351.5121007,51.20051776560395,16.191795278544188,-20.426286495602763,3.728018272397337,0.3074599801735767,-0.003044028268893717,4.317093758973874,21.44398961173523,16.191795278544188
1560500351.642396,51.609766744162876,16.336450498779747,-20.59359563608344,3.702065013476617,0.33136057062463686,0.006430342692611335,4.376410004333054,21.52186556804809,16.336450498779747
1560500351.7090013,51.84818055474824,16.410218809071477,-20.693099581368497,3.7666589447573946,0.3309790074059002,0.014814162339955361,4.356332978830643,21.570945695942026,16.410218809071477
1560500351.8436933,52.29579593132689,16.641741492248816,-20.879934761957088,3.7864656085088537,0.3416971882048255,-0.0012838640795345135,4.364612055952634,21.543956191641097,16.641741492248816
1560500351.9117916,52.52772649500467,16.698024738859136,-20.975747313627153,3.8129486496257776,0.34161777349339895,0.000919457853234773,4.362295663223456,21.567203356126146,16.698024738859136
1560500352.0464199,52.977428152648606,16.862428660712556,-21.16410802240709,3.839908595874888,0.33762642524231795,-0.015173242304141521,4.39139540847676,21.591556278908033,16.862428660712556
1560500352.112851,53.186555924081226,16.91248131536457,-21.2533872830594,3.8216132130967226,0.34381162147885824,-0.01638451457229495,4.355200883232983,21.62968162458667,16.91248131536457
1560500352.178638,53.42403781172078,16.951223408745538,-21.354518684190857,3.886390875487717,0.3458662215243158,-0.03812697540629428,4.372767638388298,21.68912666182465,16.951223408745538
1560500352.310446,53.930562566452934,17.146835034855958,-21.57063523293767,4.054593370365423,0.32603255473446985,-0.023287454970643662,4.495785336499632,21.635768664268717,17.146835034855958
1560500352.376456,54.11190295197203,17.175357907854917,-21.646011604551415,3.9364653928865607,0.3246242566786119,-0.015314517270450079,4.41956884996605,21.668801207296664,17.175357907854917
1560500352.5094872,54.606337094607255,17.34959886713137,-21.854116843253365,4.053123054250219,0.3293046190996588,0.017155905371860847,4.452605899158279,21.7442883984594,17.34959886713137
1560500352.575837,54.84668695180819,17.440594285537944,-21.956482732252812,4.071141256029275,0.2955511140053586,0.023131361204074885,4.522254683373322,21.806218261466444,17.440594285537944
1560500352.7038224,55.30394763115108,17.599119438427852,-22.15060158928813,4.101329467061788,0.3081466347400482,-0.04616015422718478,4.5346707414818175,21.804474154217168,17.599119438427852
1560500352.7694004,55.5676972100107,17.628102946168323,-22.265466077880276,4.189743688366123,0.2760741813254681,-0.0594121240731007,4.613933556886369,21.813879584505248,17.628102946168323
1560500352.8967302,56.012936886734074,17.707651507947826,-22.45605522033539,4.17022434779684,0.25093742108016154,-0.020963985708186694,4.72015446963994,21.980564887310624,17.707651507947826
1560500352.9628289,56.2438333238269,17.74346554923692,-22.552112919173027,4.157040063955759,0.250344824676806,-0.013153701206155333,4.665734309357543,22.09506816251185,17.74346554923692
1560500353.093204,56.75435342438013,17.89692523079283,-22.769976528761273,4.266340903249425,0.21775194983323595,-0.027329601065678277,4.75754951505944,21.957365196064792,17.89692523079283
1560500353.158842,56.991583029382596,17.9654332207264,-22.86880976199995,4.2487121046167315,0.2193471111961699,0.005907746749353571,4.801942156474894,21.942875482835266,17.9654332207264
1560500353.226606,57.202320655904245,18.002567372995525,-22.95003570418259,4.142052945545693,0.2223366898277332,0.08120838820505694,4.834232346295978,22.016407395115262,18.002567372995525
1560500353.35918,57.67986305334474,18.154861760510368,-23.14275040946303,4.153394257380355,0.21321152043709257,0.08842560295101576,4.831611079546831,22.085837114481368,18.154861760510368
1560500353.4257677,57.93919012357362,18.213919719496545,-23.254720902364262,4.2172139670806414,0.19622794832674648,0.02730297912119717,4.8436327818674965,22.009588990634143,18.213919719496545
1560500353.5590873,58.458013451046334,18.35451589383264,-23.481847177927328,4.320355393568336,0.18982214813523607,-0.0437973965689995,4.9449016162146195,21.874491650342524,18.35451589383264
1560500353.6264682,58.603061733767035,18.425034768584887,-23.54221380037075,4.056773432701577,0.17598321404653566,-0.015407557385631376,5.064200442231743,21.735550752382476,18.425034768584887
1560500353.7580464,59.02900003994741,18.56763032251907,-23.706289383159536,3.9644882858852193,0.19027821246499604,0.09595991151412253,5.035267119786388,21.699253563943852,18.56763032251907
1560500353.823734,59.198020489258916,18.60595564519373,-23.764505726468254,3.8194895209771254,0.2046375496535584,0.11678656885317307,5.105485854069776,21.691096235423263,18.60595564519373
1560500353.8909595,59.45619311946654,18.647478386313303,-23.868869744920822,3.9100981564607715,0.18076901211705948,0.11162325055418143,5.060401632168237,21.743568264323915,18.647478386313303
1560500354.0238461,59.94955854246783,18.779994880085418,-24.07127891133584,4.036259478523005,0.20567946990896357,0.0462434351340979,4.841366987211636,21.798540511097464,18.779994880085418
1560500354.090532,60.24472622095702,18.851712285913404,-24.19913905904335,4.207952174610495,0.1880750959876752,0.016856058900831528,4.883825745222363,21.675874939496786,18.851712285913404
1560500354.2247348,60.67226748947302,18.99461812557158,-24.3864526634203,4.094605120160934,0.1982938381306399,-0.06946839974042374,4.8781095182061245,21.636060844308805,18.99461812557158
1560500354.2934325,60.858738394550066,19.026012399281832,-24.46134635562911,3.9659284850687797,0.20312058489809426,-0.052194314175439516,4.924497470553698,21.622110836490005,19.026012399281832
1560500354.4290383,61.34106266143046,19.204835796789876,-24.662182447665433,4.0218709919946765,0.17859543819298906,0.01626561924378045,4.969856471830431,21.546414012280557,19.204835796789876
1560500354.4958882,61.560780563977566,19.236352254656897,-24.74527928532221,3.994006375806377,0.1918339631228808,0.06862496545870056,4.876460829745362,21.645213742286543,19.236352254656897
1560500354.5652664,61.8170206810915,19.274625646616403,-24.850573035200327,4.0455525506342305,0.192892284255165,0.08153356603473427,4.7657284901256265,21.71322569156978,19.274625646616403
1560500354.6973107,62.28742152022648,19.404336912166436,-25.049005229867028,4.097737725219596,0.20638431239161992,0.026923652855673552,4.738233258697167,21.735511601244134,19.404336912166436
1560500354.7635248,62.52885296389328,19.474937366495926,-25.154051345234365,4.132327334067103,0.20838619271087638,-0.004228249622154401,4.72249174273053,21.648084935370143,19.474937366495926
1560500354.8957317,63.047673696798064,19.598078155769574,-25.37325916383124,4.276255659323007,0.18934242540145835,-0.004502468769705725,4.731872711058037,21.646161389576772,19.598078155769574
1560500354.961238,63.263735582245374,19.617522988730123,-25.462878997963934,4.230380900007404,0.18238298387121213,-0.008450992742691898,4.7835676856240354,21.72458058636667,19.617522988730123
1560500355.094179,63.72227508158251,19.743185397662597,-25.65810086798212,4.199122203426793,0.17243923021884863,-0.016192137425531383,4.892347476368937,21.598228535143612,19.743185397662597
1560500355.159461,63.926439277019114,19.77085917818065,-25.741507644835544,4.124911121419889,0.16887221739709338,0.004874014902569002,4.97626095796249,21.552165582241596,19.77085917818065
1560500355.2263649,64.16420923863112,19.808240795415763,-25.837073146337275,4.127076625070012,0.1588063872313104,0.041006222079543075,4.931339741500252,21.53078153784298,19.808240795415763
1560500355.3603117,64.52790007415403,19.890544422311283,-25.980698065704036,3.86246157599222,0.1789180077579884,0.03314095904263903,4.971719656510072,21.48724529706934,19.890544422311283
1560500355.4272873,64.78291340131241,19.92188830950708,-26.085338897690164,3.949263294748352,0.17164283860595728,0.06100929164711255,4.933049409207783,21.52892670155782,19.92188830950708
1560500355.5605938,65.40058017006861,20.047017882011655,-26.335750260655505,4.362191006069198,0.18520651243832703,0.09522158055787266,4.800983081837149,21.455303600941114,20.047017882011655
1560500355.6275513,65.64987493736714,20.109012258969315,-26.43842040326808,4.358099300054638,0.16414684643465344,0.061052153944875176,4.886288711439553,21.39464135804964,20.109012258969315
1560500355.7615907,66.0865487970868,20.206249515421344,-26.62074675123843,4.233163770550632,0.14426917597005448,0.012396405087083728,4.998904835959954,21.387476296697965,20.206249515421344
1560500355.8289094,66.27893728462485,20.22205391313181,-26.700652722270025,4.112851143616009,0.1349483867201824,-0.01782897266728556,5.007940638307919,21.333067975577034,20.22205391313181
1560500355.8961346,66.50022506960484,20.231614718999836,-26.79432601413079,4.076557361107539,0.13525512679074425,-0.0129383689237208,4.965058758958056,21.341589428415904,20.231614718999836
1560500356.0315452,66.98327991490521,20.29416071040956,-26.996649531453674,4.098754945596222,0.14503828002811747,-0.008932337341959418,4.895345745842781,21.423581374735924,20.29416071040956
1560500356.0988338,67.22441813210929,20.307483182214902,-27.098611469314324,4.106608711220565,0.1459808945228732,0.01028490254542902,4.84356368573996,21.50769759251087,20.307483182214902
1560500356.2360759,67.70151006765666,20.454872740011723,-27.302623197303166,4.0777854803176545,0.13883246622713505,-0.006208516115664198,4.94097655691102,21.475639792286472,20.454872740011723
1560500356.305334,67.96663733169554,20.47259758595628,-27.414514039876863,4.126427961546813,0.1299958110410369,-0.020770523258607287,4.9264728476250985,21.536425160583846,20.47259758595628
1560500356.3712082,68.18418037658108,20.48724635767853,-27.509362529619388,4.077554446395468,0.1351420138362794,-0.040420151716616504,4.966699610415143,21.490250390543093,20.48724635767853
1560500356.504873,68.63899354851226,20.597676841837995,-27.701218809756796,4.028330255434026,0.1318460233836619,-0.0083171524298995,5.000150664620167,21.574478394309438,20.597676841837995
1560500356.5708222,68.87388086486851,20.58239888543536,-27.7997454124504,4.02886027296853,0.13939768056039697,0.010019982224430235,4.997730200258094,21.63104655442588,20.58239888543536
1560500356.69883,69.45298924308503,20.692468868212362,-28.04304074719904,4.34715709136633,0.11811850740007512,-0.01198788833071962,4.977963622036403,21.662378531016486,20.692468868212362
1560500356.7653217,69.65893902020896,20.706052896444398,-28.12792864570907,4.21982856479538,0.12883464763759822,0.020275758163168067,4.9588976913922105,21.68348071036663,20.706052896444398
1560500356.896643,70.24956042517695,20.79860950371441,-28.371424022007638,4.420820709131329,0.1153001611110241,0.08400408838630202,5.0307697941915235,21.626924854301976,20.79860950371441
1560500356.962799,70.4543649434916,20.817243144664573,-28.452966424726487,4.270555714227116,0.11506732694972102,0.1023185195538685,5.0555365407467905,21.658811827764,20.817243144664573
1560500357.0956933,70.94645913417405,20.93697899621509,-28.657781206599182,4.227776553714891,0.12965504984850074,0.08226687947029476,5.1066771913405296,21.60967548549035,20.93697899621509
1560500357.1617327,71.06316138458645,20.97011052895462,-28.704964036470404,3.890010755000896,0.09718642280146611,0.07982481950986453,5.1735938721244725,21.324605532812146,20.97011052895462
1560500359.5029364,71.01328588431458,21.282240176573236,0.03171022056016422,-0.23246295950061982,0.09985982904107221,-0.1368019655717122,5.164509023329928,1.5352973014700473,21.282240176573236
1560500359.8983343,71.03098652555549,21.108374850595396,0.04437614849658285,-0.18061330228211564,0.04238360210112035,-0.12016452733777512,-0.5605850220856056,0.4422234291788761,21.108374850595396
1560500359.9641697,71.03556813208164,21.00560400428705,0.04707200571844434,-0.1684248840691777,0.028383112943643252,-0.09118151016788778,16.689512603476825,-1.4308099889509251,21.00560400428705
1560500360.0963287,71.01233971991826,21.096480474030468,0.038284292942164955,-0.21240217960951727,0.03573281467401788,-0.11499203368573274,16.89849046676273,-0.8630359902508334,21.096480474030468
1560500360.1628766,70.99964204995933,21.19843983560924,0.0382260771928471,-0.1941708799554673,0.05274457543054584,-0.07958791409345675,20.014041375007782,-2.4873583876723244,21.19843983560924
1560500360.2981544,70.97243766605519,21.172701428648946,0.04811459462820906,-0.22930073223833672,0.04074507586955853,-0.002728424551764029,26.745191998021323,-3.425312316083323,21.172701428648946
1560500360.3651924,70.9705638210981,21.11913570147699,0.05076831475608782,-0.23677271434454522,0.03226022691040852,0.024553119576856065,26.50212834211004,-3.357298492150128,21.11913570147699
1560500360.4973848,70.91489714712061,21.148078043718343,0.0504235024262974,-0.3358686242917352,0.035829416111039146,-0.0022432458020918847,26.32460650977992,-3.7075317003578157,21.148078043718343
1560500360.5634422,70.90512313116344,21.153369759588323,0.051520024801118676,-0.32098779143436623,0.033024895501186854,-0.021585206139718465,25.986144644445183,-3.1870146620323228,21.153369759588323
1560500360.6963568,70.83139101248612,21.071455351395187,0.055551521958473384,-0.43734183405930427,0.027866790386924956,0.00916231506888942,27.520083724312954,-4.060579426971123,21.071455351395187
1560500360.7629647,70.81706044062942,21.0948774998024,0.06735641196575026,-0.4401061495952028,0.025580976467313804,0.05160641185629734,28.379257400666567,-4.2318375653391564,21.0948774998024
1560500360.8966303,70.8099163942358,21.09410166687839,0.07132979728057229,-0.37620789469125043,0.030468208313881372,0.04912557485882767,27.50873570888822,-3.8834207459070704,21.09410166687839
1560500360.9631689,70.73940653157574,21.051786762251144,0.06650575727557825,-0.5128766751295049,0.01707906959299521,0.06685163577516307,28.186478893150728,-4.316740834879844,21.051786762251144
1560500361.0966973,70.68368074943285,21.09681895607951,0.0598162931157498,-0.5739046701112128,0.02624694142276102,0.032363495204427356,27.225411347859197,-4.353000554571737,21.09681895607951
1560500361.1640875,70.64165059575613,21.02518980846883,0.053786471284669214,-0.6258505510183998,0.036442051075025704,0.026161084196471125,27.097594654050685,-4.355419837116807,21.02518980846883
