timestamp,x,y,z,vx,vy,vz,roll,pitch,yaw
1560500326.926618,0.014865197548632064,1.6446069017176246,-0.005258908054093362,0.029620520629966444,0.2967982730021398,-0.029407641835923797,-7.235328510241435,-7.0247262824289205,1.6446069017176246
1560500326.9267294,0.01992515150104092,1.913196728978244,-0.00820515066394052,0.028292169937119988,0.3238306858619823,-0.03619417236507511,-8.190514377885057,-6.762527783598077,1.913196728978244
1560500326.9934633,0.027865338390054166,2.2125114468398275,-0.015190034031902,0.04227795218171117,0.33640067040982086,-0.06035807447099415,-10.312404329751814,-4.996127838385333,2.2125114468398275
1560500327.0595083,0.0401294892614034,2.5488753780848556,-0.02664840044625525,0.07451356664852812,0.3599467377893977,-0.007712215359440097,-13.014662516454711,-2.323042205205268,2.5488753780848556
1560500327.1249745,0.05127456984326349,2.947870122396354,-0.034366087247462436,0.09073854833994383,0.3862323080078507,-0.008498827809146278,-14.187704006854698,-2.13594952258195,2.947870122396354
1560500327.1911345,0.06135303609371873,3.3843873983640234,-0.042922232009113014,0.09797001192493227,0.42056695066038263,-0.019611187681699366,-14.956084242274775,-2.8570717245974127,3.3843873983640234
1560500327.256141,0.06757359742425428,3.8398650972289636,-0.04524901203257771,0.09276019368462876,0.4609549490514326,-0.0038942953795037816,-14.174676095653583,-4.480666413690661,3.8398650972289636
1560500327.3221376,0.08036617457771353,4.354171086334344,-0.05831877076434738,0.11036466194913463,0.4794339265927928,-0.024488043646867824,-16.043443592757505,-3.997012134427173,4.354171086334344
1560500327.3871014,0.09610027941857535,4.894071660298745,-0.07115142178219207,0.1498830674344826,0.5196914173560063,0.0004138597656421772,-17.322239349805553,-3.393394155213314,4.894071660298745
1560500327.4536862,0.1106522233513891,5.468090557507923,-0.08123090134386143,0.17840721889104816,0.5546981614014722,0.019470880028403553,-18.150590243221952,-3.2185932009566574,5.468090557507923
1560500327.5192904,0.1229630660752383,6.062662626668683,-0.09088486858308445,0.19018776933181378,0.588516849153232,0.02915211218545416,-18.400755345494634,-3.2034663450727154,6.062662626668683
1560500327.5848641,0.13310772736537238,6.654352697249831,-0.10307874343214463,0.19257971055489204,0.6105909962938684,0.0235385116520401,-18.96524100019046,-2.6641267334644643,6.654352697249831
1560500327.650242,0.14542855990456466,7.2399860677273455,-0.1153237626924172,0.2081499849039968,0.6120792304906111,0.02678086025190926,-19.502397693203985,-2.0177354735950814,7.2399860677273455
1560500327.7166972,0.1547295822234328,7.846194001071071,-0.1261066832811287,0.21448988100106162,0.6245028057192135,0.030267960612995054,-19.12854990232467,-2.168720142391522,7.846194001071071
1560500327.7794204,0.15857533332736262,8.426808269422725,-0.1406472489995849,0.1924960207672661,0.6534588906251767,0.018765593949340326,-18.770434661217458,-2.132788299688,8.426808269422725
1560500327.8467202,0.1629068804567908,9.09446151131667,-0.15620048073260168,0.2008663652541238,0.7094702524847702,0.014425189142727085,-18.67108932265181,-1.997017981985752,9.09446151131667
1560500327.9122148,0.16684347000415833,9.72467267764985,-0.16995912993450113,0.20653176605586515,0.7471879256042296,0.019722096867365146,-18.280810911379223,-2.0547381207039224,9.72467267764985
1560500327.9794948,0.1702501789603641,10.423729486718297,-0.1812974053928889,0.21403624278950145,0.7544458934904332,0.031799224266333,-17.97503200029791,-1.5195528836159269,10.423729486718297
1560500328.044517,0.18392378518042912,11.060908696706246,-0.19492231821331465,0.25359574345171065,0.7508707517518876,0.03486308419376452,-18.45857754851874,-0.5782242798612269,11.060908696706246
1560500328.109147,0.18705466750363403,11.731571123934721,-0.208737175172462,0.24054866640454164,0.7691019848732761,0.029308599674274738,-17.913018054214223,-0.2737441013243818,11.731571123934721
1560500328.1752899,0.18782316971444374,12.425433828732737,-0.228667148426752,0.24943970775876995,0.7620364601087986,-0.0270793449909891,-17.23541966307126,-0.001749001578434069,12.425433828732737
1560500328.2407794,0.1891230267650955,13.142627943146726,-0.2525138373896006,0.2703883510487464,0.7370121635935337,-0.06527787337256796,-17.08276608881609,0.6881192205080147,13.142627943146726
1560500328.3071182,0.1966962077401422,13.878387466470413,-0.2720432081585948,0.30420220975764006,0.7601074646831765,-0.06965710439149658,-16.860371189950623,0.9446498801613602,13.878387466470413
1560500328.3742094,0.20635035925437809,14.586024780300422,-0.2867290009848267,0.3315851000470982,0.7991707375106167,-0.043204889628177284,-16.342053950673062,1.0680532941503051,14.586024780300422
1560500328.4398844,0.21542919014940853,15.276931155677747,-0.302442487949121,0.3454522991506285,0.821451249368258,-0.03145350206145592,-15.906878866546645,1.3871821097472485,15.276931155677747
1560500328.5077906,0.22323513815704918,16.011819113288695,-0.31309212175230317,0.36528446048913715,0.7912942955641188,-0.005063574201937454,-15.203109214218719,1.9680941106757008,16.011819113288695
1560500328.5751116,0.22773030569257185,16.788629379740794,-0.32375688857777374,0.4025526272711301,0.7460083007246807,-0.025022402174539604,-14.247331462602716,2.3785037323307545,16.788629379740794
1560500328.6407232,0.23552431309934588,17.482695796620465,-0.3355361284689682,0.4161463013824597,0.7157880115025259,-0.03814073769096277,-13.568046712128057,2.652521352124116,17.482695796620465
1560500328.705646,0.2436350311594746,18.121964840639066,-0.3477167826722486,0.42467561687299105,0.7280171051863314,-0.056963042600926134,-13.020773096784703,3.225043791521815,18.121964840639066
1560500328.7710812,0.25575075100582223,18.740711516210567,-0.3586290665629812,0.4264449338860661,0.7044338691862317,-0.05650576338304106,-12.384278612273548,3.894581399102448,18.740711516210567
1560500328.8354576,0.26606011374890665,19.372469234664454,-0.36026673448222907,0.419777816379209,0.6239417586406475,-0.007276199004797229,-11.71369114649006,4.46662649635341,19.372469234664454
1560500328.9013894,0.27106239253130676,20.03071691351614,-0.3558192930311623,0.3886161414336381,0.5744102344050276,0.054304136555861277,-11.169655988173036,4.525391988769908,20.03071691351614
1560500328.9670267,0.28030810688153096,20.708282630601193,-0.35932385155132507,0.3841067663121676,0.592909327471983,0.07930863162340783,-11.256201450815512,4.430549199977821,20.708282630601193
1560500329.033575,0.274671423107629,21.281305565889674,-0.3623212221915559,0.3551395056248789,0.6304062509980886,0.08881310934671707,-10.836711316359297,4.483707365723965,21.281305565889674
1560500329.0993907,0.29813335904725097,21.80092546019071,-0.36815172106924665,0.41148384984198705,0.5930813805046309,0.08354745176850445,-11.119927843997054,4.707876024848737,21.80092546019071
1560500329.1659248,0.3072869045615573,22.349289285347524,-0.37142659433414565,0.4046485206601821,0.5077636002537359,0.05172597233955763,-10.50958707011043,5.164920977254658,22.349289285347524
1560500329.232665,0.32641565994291694,22.898697566498857,-0.3803888083318485,0.4207069039769482,0.4211758726601526,0.009573635305960324,-10.038388464366268,5.533012037448884,22.898697566498857
1560500329.2986813,0.3315558927554928,23.344604680338463,-0.3844575636120925,0.4047445284690858,0.39078135073888226,0.0176145320994337,-9.493768302302893,5.476377369620707,23.344604680338463
1560500329.364471,0.3424376978520377,23.778317754425863,-0.38989012580580656,0.4062916021028627,0.363050505081081,0.0024827128017319983,-9.1549589901626,5.472835754745018,23.778317754425863
1560500329.4304006,0.3578849947993408,24.168559939283394,-0.3948771426756014,0.4144947315124309,0.357266105810693,0.021902976083846823,-9.01419964552027,5.458837825385543,24.168559939283394
1560500329.4960191,0.3758063902250711,24.559861053632986,-0.39706851202446747,0.42540821651046046,0.31269745070514215,0.035605349540573955,-8.799200287655985,5.373856369114916,24.559861053632986
1560500329.561911,0.38646422700181704,24.996803369881086,-0.40113207493804587,0.41533662205124333,0.2775119782769006,0.02877443817893146,-8.610549497421664,5.199249851173998,24.996803369881086
1560500329.6257722,0.38318888530808237,25.41366621894059,-0.40076329280770034,0.39304337955987173,0.2817509779425331,0.044002365221048084,-8.367194630747173,4.85346390794395,25.41366621894059
1560500329.6901057,0.3844344152392335,25.81381060678219,-0.4049139557008773,0.37529889567073726,0.28396048126575735,0.04961032936784391,-8.34852235198875,4.7758688576365715,25.81381060678219
1560500329.7554386,0.38204222898718176,26.11986726695714,-0.4062552801970879,0.32903642233038016,0.296645487851967,0.07410940527488959,-7.872223183468409,4.533908978369048,26.11986726695714
1560500329.8197997,0.39740871065058414,26.39244106168073,-0.4091757703005027,0.33004982810078204,0.29337260916745717,0.06950911428925259,-7.7399741625417695,4.574638442395896,26.39244106168073
1560500329.8860137,0.4030469342649863,26.60272575139408,-0.41288064572606265,0.3115212372875768,0.2577074282103015,0.040319048412651486,-7.301313634305032,4.651851388454127,26.60272575139408
1560500329.9496398,0.39876622115493343,26.799459515231526,-0.4180199484273649,0.2764847489293677,0.18828037416955518,-0.019165314788009258,-6.907878218291455,4.657633851763463,26.799459515231526
1560500330.0130076,0.4155975467318114,27.013178887270804,-0.4216605258006316,0.296273374496254,0.1151723283995991,-0.03612788879203925,-7.004996865285363,4.528354968799164,27.013178887270804
1560500330.0774348,0.4265338624990398,27.192716618648838,-0.42485462704316806,0.3067269473479493,0.08674231323832832,-0.040784601247578815,-6.98824055953929,4.402732032260219,27.192716618648838
1560500330.1416717,0.4365782672403081,27.341305614712095,-0.4266615104712185,0.3246755420275246,0.09966004388402487,-0.0346434857924527,-6.916407206085205,4.242987305658016,27.341305614712095
1560500330.2069974,0.45080943277045926,27.44774214924217,-0.4314098147357356,0.3602901445032805,0.10354271109658754,-0.05529190985117445,-6.866940968903646,4.2093141072768665,27.44774214924217
1560500330.2718942,0.46528231215478827,27.536001838939995,-0.4332795146499452,0.4057382338000954,0.05813241613869267,-0.07699062743085563,-6.69440645452608,4.155984469670937,27.536001838939995
1560500330.3368645,0.4879084361925959,27.655083501052204,-0.4318337437990341,0.46228673658502445,-0.05494195543307196,-0.035831288726776496,-6.507232605634606,3.976340582614217,27.655083501052204
1560500330.4023728,0.5221044148924916,27.692890318607237,-0.42998535888272577,0.4982884540353731,-0.12702077768168984,0.04306271618801708,-6.371692515139033,3.8691307379018554,27.692890318607237
1560500330.4678633,0.5567515376967677,27.68438874714821,-0.4244663708171319,0.5250864273359541,-0.07260354756573405,0.15519902301138722,-6.268640400440996,3.709578871104345,27.68438874714821
1560500330.5342314,0.5899452778656018,27.550698008918356,-0.42132209361491263,0.5516053370961064,-0.05708680281551464,0.20371552509669896,-6.183091442659714,3.6760489509112904,27.550698008918356
1560500330.6006885,0.6307518274757522,27.32166005365632,-0.41928010269993304,0.5864108095401869,-0.1458437971022101,0.19317098782120723,-6.236540231956957,3.8839743650004004,27.32166005365632
1560500330.6670048,0.6758390351307311,27.199323325561252,-0.422109545888131,0.6381224470213289,-0.23176614505335325,0.11723872921737553,-6.2850031004870734,3.805255643724248,27.199323325561252
1560500330.7335792,0.7160684132926998,27.164522707841137,-0.43435852137475606,0.680635655323838,-0.27236589139540957,-0.0027580318886236705,-6.263929065680206,3.497291618660845,27.164522707841137
1560500330.7996633,0.7552887355542979,27.05102858202921,-0.4378694402638953,0.7097079204976232,-0.25446649903792035,-0.05745195496173509,-6.17273220355628,3.113172183553445,27.05102858202921
1560500330.8653374,0.7947016316998454,26.81398537174667,-0.43677517606221294,0.7319111264852927,-0.2360722027820102,-0.05340819329955535,-6.080981374709185,2.80104069584793,26.81398537174667
1560500330.9318485,0.8357103410887985,26.508896102996097,-0.4305605944901861,0.7452161759852995,-0.2945691114965019,-0.0054264766884228885,-5.853355551239415,2.5823803082240735,26.508896102996097
1560500330.9975915,0.9106328239447911,26.232606654915603,-0.4312609024629363,0.8182861484510792,-0.3837032955535643,0.01814411317741491,-6.077423025407623,2.5336652884847077,26.232606654915603
1560500331.0634627,0.9583895801536985,25.92619016003194,-0.42886583347084195,0.8298789582807394,-0.42719009772873523,0.028898476974999643,-5.92383476762499,2.329021885906848,25.92619016003194
1560500331.1289663,1.0076819612914476,25.556845637089193,-0.42758300891777334,0.8406176971066734,-0.43910351852466034,0.027027799493911226,-5.886215478738709,2.154366866805091,25.556845637089193
1560500331.1946568,1.0634968402838938,25.11899170148153,-0.4285845648486274,0.867126388763811,-0.46405500358852064,0.002831932494263178,-5.93382474468317,2.10730329896925,25.11899170148153
1560500331.260127,1.1247104689424754,24.630351289018975,-0.432245144158227,0.9103282656954836,-0.476297473213216,-0.05010680162599256,-5.9474504406509,2.049732485822252,24.630351289018975
1560500331.3262532,1.1962346392674528,24.06949214340382,-0.4315608720163018,0.9617201117157957,-0.5463582716947508,-0.04033404538052435,-6.090508820867321,1.972284498330024,24.06949214340382
1560500331.3912027,1.2662886903114488,23.491534654967438,-0.426036777507593,0.9975759683091048,-0.6248242025207522,-0.04046060735137343,-6.147710483685629,1.8042444754103488,23.491534654967438
1560500331.4558313,1.3411639639763089,22.945369410197184,-0.420671550570878,1.0394374373745003,-0.6959465514011142,-0.03848038786488631,-6.156321825541506,1.582188291560007,22.945369410197184
1560500331.5209262,1.4187159686825987,22.395101886108453,-0.4150449784582343,1.0774213140287963,-0.7423625442581622,-0.02322390069134566,-6.097198582525088,1.3848833269949747,22.395101886108453
1560500331.583191,1.4999041419912253,21.802084726798547,-0.4063909735855981,1.1185116301919782,-0.7571631077611358,0.005482656633768776,-6.0199939846366055,1.2230879350712525,21.802084726798547
1560500331.6475158,1.581820832088824,21.1062925931234,-0.396440406597006,1.1438423346814894,-0.7870976928304174,0.04343407385833918,-5.900657781859996,1.0888343260276978,21.1062925931234
1560500331.7111573,1.669807389351226,20.38992894178711,-0.39101607653487064,1.192576132755235,-0.827559750389547,0.045196176211680664,-5.922696892732306,1.0025846348471263,20.38992894178711
1560500331.7759893,1.7600142169389845,19.666243980110828,-0.3913615553643972,1.2227286817944512,-0.9157718371463149,-0.00018599473774420783,-5.992765454679771,0.9104887177450102,19.666243980110828
1560500331.8416424,1.8407171489246292,18.919518011938,-0.3933456055254915,1.227997780563466,-0.9747714712890719,-0.029118678967715868,-6.001802926169152,0.7498332735650918,18.919518011938
1560500331.9070394,1.9417721634166143,18.16278567057191,-0.3946338101443746,1.2694082139769538,-1.015731318687407,-0.05683389593089093,-6.1620133629096285,0.6390511084240238,18.16278567057191
1560500331.9726214,2.048987471242408,17.351314941862103,-0.3944362024619936,1.3212519159288427,-1.0561444893038068,-0.08162159773159063,-6.257952756653776,0.5386905373474428,17.351314941862103
1560500332.0372884,2.1690521798275433,16.545492754843117,-0.39279337976500367,1.4026350065992073,-1.1093532827119408,-0.10090143861507021,-6.382412077177615,0.4597365664064251,16.545492754843117
1560500332.1029718,2.2772294960240678,15.67504807559789,-0.3884149673791324,1.4634716510798254,-1.1512695781117996,-0.09738938975986856,-6.306074930382978,0.32331051644957487,15.67504807559789
1560500332.168952,2.3970939757035934,14.813969129019847,-0.3807213686772504,1.509447180628423,-1.2452084237159537,-0.06898219838539253,-6.2834687765267105,0.21707049735710843,14.813969129019847
1560500332.2352867,2.5215586089799595,13.941188197484086,-0.37366699617324795,1.5836344085133616,-1.2742087213910929,-0.05709865045242285,-6.281741837657188,0.11919572897520234,13.941188197484086
1560500332.3014343,2.6461733385229755,13.032946849229907,-0.36851395694720707,1.6170499070846254,-1.3342180781437616,-0.059754922795280316,-6.309533780916198,0.01326059300388847,13.032946849229907
1560500332.366885,2.779721277888996,12.141901920247703,-0.36079536651485733,1.6816197642139041,-1.387281298494495,-0.05246966219797061,-6.362523687329884,-0.0817410202479002,12.141901920247703
1560500332.4329689,2.9200707656231524,11.216652053596581,-0.3523336520653,1.7541629139794521,-1.4267273702789505,-0.04384302861856902,-6.46478358439082,-0.1568835399599104,11.216652053596581
1560500332.4985728,3.0661607584987793,10.286455497299361,-0.3465832947572724,1.8587453772168323,-1.4312678088646682,-0.10256920848839136,-6.5229020466699525,-0.24699362915483636,10.286455497299361
1560500332.5639672,3.2121183447524864,9.382100695117941,-0.34351632177373204,1.903905369717256,-1.5315086852534412,-0.0994918139659138,-6.583515371450242,-0.37949758156192254,9.382100695117941
1560500332.62944,3.3710650569307576,8.473286228185732,-0.33850674380375423,1.9887667481418017,-1.571414433824304,-0.0815889293572394,-6.682382616417993,-0.4646733700874324,8.473286228185732
1560500332.6956387,3.5310451384118644,7.554948598198797,-0.33151526728168873,2.0646538326756905,-1.6237513270377655,-0.08248653718180533,-6.746787696457488,-0.535815792984109,7.554948598198797
1560500332.760942,3.6930671333508687,6.695685333882742,-0.3288132899793052,2.1664009052228894,-1.6559470369997984,-0.10057317217019329,-6.813027703743997,-0.6091554465225918,6.695685333882742
1560500332.826606,3.859843210656971,5.85692123925816,-0.31984473521127826,2.2207727821632446,-1.7417869640201202,-0.08713426497893992,-6.858010220175242,-0.6863629195120209,5.85692123925816
1560500332.8926592,4.02770763226526,5.043523119685375,-0.31636407902796226,2.3028347254243267,-1.7594010142485945,-0.10585524581725253,-6.927805470905638,-0.7320255768868303,5.043523119685375
1560500332.9593673,4.2064211630760555,4.2094430072994005,-0.3061144067255343,2.349863818717822,-1.8451301911586868,-0.10111121932800515,-7.0166654160720885,-0.7825944116773192,4.2094430072994005
1560500333.026286,4.398560519533946,3.407582413875755,-0.29421342934624023,2.4410717205849104,-1.8838728843096058,-0.09848642717771416,-7.064198756112278,-0.718360688706598,3.407582413875755
1560500333.0919056,4.587063154904043,2.6654341076293164,-0.2866606349291995,2.520964227771545,-1.935764293802403,-0.10758120980690511,-7.121468496557753,-0.7010417431302814,2.6654341076293164
1560500333.1579077,4.778871262871365,1.9552805606160304,-0.2759011813711661,2.5945790017881283,-1.9759715860678464,-0.1065230411330485,-7.150827550757206,-0.6818617681486758,1.9552805606160304
1560500333.2232008,4.97138337002773,1.284968716173797,-0.2695933667462504,2.6606560297729756,-2.017693747492298,-0.10627768142765698,-7.172681515054225,-0.6460726201803911,1.284968716173797
1560500333.2899344,5.173421749339612,0.6086912447041678,-0.26694811574627325,2.7589231091042996,-2.0220680975824497,-0.1084092711013104,-7.2209844035332,-0.572140559733101,0.6086912447041678
1560500333.3561628,5.383512084229581,-0.028195787174334536,-0.26564492721741856,2.820681781181425,-2.0910202451869537,-0.11989182605632978,-7.264445185749862,-0.45236761334783276,-0.028195787174334536
1560500333.4228997,5.601241181369685,-0.6333669081770631,-0.2718023107033329,2.918103546984909,-2.1099979124518957,-0.15480583005213208,-7.301157175034682,-0.30797295691963567,-0.6333669081770631
1560500333.4864805,5.815589222835729,-1.1664394578910071,-0.2752947197535401,3.01259695528994,-2.1149001239574283,-0.17421426751268237,-7.33616669492684,-0.1348543397810965,-1.1664394578910071
1560500333.5531695,6.041026667480454,-1.672671356824713,-0.2787716235789597,3.0974907453497518,-2.1353436336790637,-0.17281478457476201,-7.343556593023061,-0.00561320055753386,-1.672671356824713
1560500333.6175246,6.2645019128292185,-2.1212718750398754,-0.2850556445868059,3.184045877182223,-2.1507628384716835,-0.18357848344381547,-7.372350298240732,0.17077602565867728,-2.1212718750398754
1560500333.683631,6.490909366012452,-2.5459932735070305,-0.29260819603504623,3.2713023462834414,-2.1471555511780127,-0.1932231218945999,-7.442101737658487,0.27469414468474507,-2.5459932735070305
1560500333.7473247,6.714549850740594,-2.935640544427692,-0.29661323161142433,3.342926740771125,-2.1500939966878465,-0.20783071518124052,-7.514689455179772,0.4171816688376259,-2.935640544427692
1560500333.8134334,6.949428145340442,-3.321756906688576,-0.3006156460454375,3.417577378393643,-2.162102371594441,-0.23066042558323346,-7.52166387325736,0.5455814904080428,-3.321756906688576
1560500333.8813586,7.1945703231586435,-3.6787315979494126,-0.29556367338815037,3.490389636003571,-2.1844927552890923,-0.22216915506139606,-7.4921990537954875,0.6620330443685523,-3.6787315979494126
1560500333.9462936,7.427533863363202,-3.9795307502317305,-0.2882166382382098,3.529383317566184,-2.2301549918868098,-0.18083292980371177,-7.421240729746176,0.72997505553943,-3.9795307502317305
1560500334.0135398,7.675307053751441,-4.27620211054086,-0.28301230456347787,3.5916330616681407,-2.2323357479109593,-0.1454051221791706,-7.367721999277434,0.8871604560014972,-4.27620211054086
1560500334.07894,7.930350130180123,-4.559946872557196,-0.28655435757297426,3.674229034406889,-2.2138427210587284,-0.11958387258046425,-7.336052200202234,1.148768673226177,-4.559946872557196
1560500334.1482224,8.200222355309874,-4.826684707821263,-0.2900851188205726,3.7499151513796316,-2.2026082427877247,-0.0989154230627945,-7.331038513380028,1.3906449153045828,-4.826684707821263
1560500334.2170022,8.477318421286801,-5.1188665060807885,-0.2942842260517399,3.8373418250239517,-2.1671567881274845,-0.09066384626681279,-7.371825445905499,1.692682505165268,-5.1188665060807885
1560500334.2903807,8.77622317845829,-5.446973573934145,-0.30556540246831004,3.9224640600695353,-2.1230508409807287,-0.09204939062094188,-7.413294733300692,1.9942903198887998,-5.446973573934145
1560500334.359202,9.059628138115457,-5.789764091073784,-0.3148172358132258,4.015174033210505,-2.0707915226356786,-0.05567299980006614,-7.403187202779984,2.2749415452420227,-5.789764091073784
1560500334.427272,9.3451040177766,-6.15046645516824,-0.3332237470518491,4.102474494307751,-2.0514542070967834,-0.06494072887716053,-7.3636508463830825,2.570200798057748,-6.15046645516824
1560500334.495073,9.634367820056632,-6.498953274132075,-0.35676958830744165,4.181443846741711,-2.047293653111815,-0.1009738730768386,-7.304763654692002,2.8323293325883285,-6.498953274132075
1560500334.5631473,9.927625850047185,-6.840322624552338,-0.3805597484872328,4.271308687937905,-2.0211856021334533,-0.12642814545615258,-7.213245356664864,3.050908384919748,-6.840322624552338
1560500334.6296813,10.220825887895138,-7.173260938851488,-0.40541293884885976,4.362879085527286,-1.979850371412437,-0.13921687855623505,-7.168337183059547,3.2747156443762786,-7.173260938851488
1560500334.6955912,10.517969431111885,-7.518064952852783,-0.4337230224822672,4.4532325433262825,-1.9095361670945723,-0.15331342563908487,-7.186701506525629,3.5703559046940034,-7.518064952852783
1560500334.7615917,10.81711978843148,-7.8333433595466175,-0.4611689072709057,4.5396895564239905,-1.8582072314734708,-0.1639993410156872,-7.199543097804832,3.7861491174847925,-7.8333433595466175
1560500334.8274896,11.11911626373706,-8.127297493677675,-0.49223284445814786,4.632964982312941,-1.7766381141777743,-0.16053493236992217,-7.237018055540666,3.9936769311577938,-8.127297493677675
1560500334.8942266,11.427475716944915,-8.425172186510864,-0.5207332563736977,4.697294244910023,-1.742426551874959,-0.15577090070776495,-7.217090114927014,4.181656768593151,-8.425172186510864
1560500334.960959,11.739118074207505,-8.712812502259178,-0.5516152224320859,4.774210608134729,-1.656600590223058,-0.08798922978558776,-7.1891487324945835,4.417979668845176,-8.712812502259178
1560500335.028158,12.057445985282907,-8.991883610628154,-0.5820484134050862,4.84831692300664,-1.6020979691339932,-0.055244781588494385,-7.126506625548647,4.676365865527433,-8.991883610628154
1560500335.0937328,12.368523406290933,-9.245003610901383,-0.6133395097312331,4.913088435821568,-1.5597111601531142,-0.08043545529374835,-7.1036219318300935,4.882031753790947,-9.245003610901383
1560500335.1604884,12.687541161424292,-9.502095904555475,-0.6543353030912755,4.984139995086083,-1.4476115833128964,-0.08999595352175904,-7.135939133274979,5.111883426942068,-9.502095904555475
1560500335.2283518,13.013480966200998,-9.737788349538503,-0.7029422882174932,5.032578736695224,-1.3763585537339282,-0.08387815191821502,-7.100999314674335,5.343458694578923,-9.737788349538503
1560500335.2944324,13.334231552278297,-9.959711876100565,-0.7551619064235313,5.066727798554267,-1.298859942631169,-0.05638349439464568,-7.158071168021133,5.650246903325312,-9.959711876100565
1560500335.3592558,13.649175084901565,-10.150663575321058,-0.8013376670174132,5.096746406671353,-1.2193961389879837,-0.07625085621108996,-7.2275369276466375,5.927320489244596,-10.150663575321058
1560500335.4251168,13.96882298599126,-10.335939478547303,-0.8556160905787911,5.131030701262885,-1.1284683853757345,-0.12819730708308608,-7.264382381244294,6.14409200230827,-10.335939478547303
1560500335.4885979,14.278185519604921,-10.52388249941018,-0.9095567317298768,5.1683964950323436,-1.0627737648585383,-0.17863147134953083,-7.281255616631483,6.309056677137767,-10.52388249941018
1560500335.5533228,14.59406503075659,-10.710884948387918,-0.9633350360015945,5.1965326060523935,-0.9595918077461855,-0.19671526910897452,-7.321612067851113,6.4303426131026145,-10.710884948387918
1560500335.6183088,14.912213572556468,-10.894850680711317,-1.0177671575521017,5.211563644112424,-0.87969898247298,-0.19494823610054346,-7.308074801906861,6.568846159775511,-10.894850680711317
1560500335.6813183,15.223346894960141,-11.069859904349013,-1.0596181826209907,5.226201057184709,-0.7873375997908942,-0.137176091716941,-7.329497088927986,6.738517893201315,-11.069859904349013
1560500335.7463534,15.546702544519846,-11.220797922243396,-1.0988842082836294,5.243934986712783,-0.7046973780668909,-0.06755474054942145,-7.379089066996911,6.891858967260819,-11.220797922243396
1560500335.8124356,15.877758648152554,-11.365011179670349,-1.135621241337686,5.2546258006595385,-0.615533104136827,0.02169221644262198,-7.469545464504558,7.093427953753362,-11.365011179670349
1560500335.8766239,16.196562945369475,-11.51916783860249,-1.1715636937632476,5.251937368848042,-0.5347068184189822,0.06212954578379293,-7.595698586781979,7.302910506977359,-11.51916783860249
1560500335.9427767,16.52530269541229,-11.683714466045224,-1.218483353694626,5.259598605546701,-0.4554393913517998,0.05520157794470959,-7.685791193375912,7.500090845957661,-11.683714466045224
1560500336.0082285,16.85214368410729,-11.826148303456334,-1.2721882484874443,5.271991218338189,-0.3977120459640123,0.0051696621854318,-7.706271889778466,7.615833306228146,-11.826148303456334
1560500336.0746076,17.18176088291443,-11.942336537341426,-1.3312680914354487,5.288784656369072,-0.32584458693076035,-0.008490858423867098,-7.6937799090599786,7.67222988524403,-11.942336537341426
1560500336.1405816,17.50572227397233,-12.048994801542827,-1.3900769352745361,5.292271154397005,-0.26283322222902633,-0.0365541212389785,-7.694431623443195,7.73006243681797,-12.048994801542827
1560500336.2073362,17.83670602588496,-12.16789648206541,-1.4490658903794031,5.2978167644783545,-0.19020993457316349,-0.044360066121213015,-7.720196062412219,7.780957323917515,-12.16789648206541
1560500336.274565,18.184785433916893,-12.252487429449193,-1.4986400394548418,5.3267333107859285,-0.1397292927142073,-0.03441171058066905,-7.677468889935716,7.809571617751364,-12.252487429449193
1560500336.341303,18.531548608571228,-12.341678981375198,-1.550075831226697,5.352099436068722,-0.09340837652863969,-0.008382128310076564,-7.699544659767511,7.83872334856405,-12.341678981375198
1560500336.4075894,18.882950299794402,-12.427635813887893,-1.5960017205335972,5.383711466188991,-0.026239593290434238,0.05324389254549533,-7.709942609765212,7.910981767689438,-12.427635813887893
1560500336.4742665,19.24009362352001,-12.50576643678814,-1.6392669738786738,5.4186788940953114,0.014545859490349478,0.0919764280751787,-7.702026621039427,7.967208648194685,-12.50576643678814
1560500336.5409114,19.59619582906506,-12.584536694130673,-1.684559430521904,5.445649270343124,0.04245810748942161,0.09456749708404699,-7.6875687035615785,8.031502898312688,-12.584536694130673
1560500336.6069121,19.947315473262435,-12.644003253318045,-1.7347505849723315,5.474316822274232,0.06473737609960584,0.08766373540109074,-7.620630239998601,8.068418798161435,-12.644003253318045
1560500336.6742284,20.317609546206707,-12.707143173124376,-1.789867990420173,5.530706304295248,0.08621655675026411,0.0731357686409767,-7.553479359949203,8.086071849055353,-12.707143173124376
1560500336.740569,20.683335084456573,-12.769843362141192,-1.848019638483976,5.579051362916305,0.11673071531996346,0.05412652837818499,-7.478345374449535,8.076133307106963,-12.769843362141192
1560500336.807294,21.055152079809375,-12.832159708414506,-1.9053839302992637,5.624501229239658,0.13375217918154717,0.028768397823284886,-7.410794899481486,8.077496431006923,-12.832159708414506
1560500336.8734415,21.42997511361264,-12.87972826874944,-1.9637545188796233,5.672047565543454,0.15054829847714676,0.014546246762499937,-7.335058177123248,8.05231255034075,-12.87972826874944
1560500336.9401393,21.811971033573048,-12.923896246714229,-2.016487143149399,5.717676664680588,0.17558595958595702,0.022134217985959936,-7.298709204203316,8.03042903357045,-12.923896246714229
1560500337.0068338,22.198933585808543,-12.9549547997928,-2.06879802015045,5.765683889191432,0.19362214514208517,0.05629717814036894,-7.231379158752045,8.035224748658159,-12.9549547997928
1560500337.0731685,22.579920301904497,-12.983884419046717,-2.118657255204802,5.804538895033688,0.20251007862449494,0.0752023600133408,-7.146193471719187,8.037829417053706,-12.983884419046717
1560500337.1392884,22.959987983452745,-13.014143772012318,-2.171605438710798,5.841942750813031,0.19860444406215533,0.07555770627049252,-7.085775352857137,8.020447304474095,-13.014143772012318
1560500337.2062387,23.34144437759015,-13.062751831321624,-2.2247138817505743,5.866039041481263,0.21938085527751433,0.06159809465181654,-7.091820634222825,7.987703262649625,-13.062751831321624
1560500337.2718081,23.704811549792534,-13.104489084633702,-2.2746421975434217,5.860437119635996,0.23999003425850768,0.04837937928493541,-7.1302449699295884,7.870497144580188,-13.104489084633702
1560500337.3380284,24.090177124396075,-13.129285415746107,-2.322254407034758,5.889440480183715,0.2648692163900527,0.027833292593659853,-7.085449809745058,7.802220018245819,-13.129285415746107
1560500337.4047806,24.475127679702958,-13.162507572747169,-2.365518597597264,5.899657182379823,0.2739034219052093,0.07338662802319273,-7.050357383750414,7.7320082207169305,-13.162507572747169
1560500337.4707625,24.869169205608703,-13.184910513462823,-2.4158207466001205,5.9371282402809245,0.2857561023216624,0.11303245897158132,-7.031762007608661,7.73958333458481,-13.184910513462823
1560500337.5375218,25.2684093552471,-13.214028721281872,-2.4649615745586253,5.968736867365408,0.3088817246126238,0.1466348242043195,-7.023542023960754,7.753328319418901,-13.214028721281872
1560500337.6038575,25.664750544539082,-13.238880871087234,-2.5136608767421302,5.993202043491855,0.320328993092103,0.17334318796207204,-6.985666449389251,7.7709333012819926,-13.238880871087234
1560500337.6705961,26.06788355459526,-13.276345789734387,-2.5630702982634315,6.0268371027596785,0.3362387533413167,0.1580014683810118,-6.947060993030653,7.824456710441699,-13.276345789734387
1560500337.7366667,26.45916244107746,-13.286333017384738,-2.617182710078626,6.042479307834052,0.33809785607101367,0.11168017532155772,-6.87781108478629,7.780938213257034,-13.286333017384738
1560500337.8032668,26.8610226933587,-13.31082142964837,-2.677170661159948,6.061645799269175,0.33651643623941957,0.10482873338337417,-6.816987070486403,7.779683311495494,-13.31082142964837
1560500337.8686943,27.25097331047528,-13.317113747549845,-2.73192041705935,6.060215031562414,0.33661539077854863,0.10645103035790315,-6.795860928664192,7.757162016807295,-13.317113747549845
1560500337.9349785,27.65051719348464,-13.318254467818546,-2.7874190264832346,6.066240696279365,0.3405093212588104,0.09255204358868752,-6.773078753959956,7.757858330966098,-13.318254467818546
1560500338.0011168,28.052207333985482,-13.333301555427164,-2.8433508279540494,6.07928208327624,0.34953107616835144,0.0744884326713432,-6.7549181094508395,7.7774491428434,-13.333301555427164
1560500338.0670836,28.45600449408917,-13.343366521940323,-2.9030604694119853,6.0972128832379076,0.3507336936031752,0.06257722666684373,-6.6803803060527995,7.7776288349970875,-13.343366521940323
1560500338.13327,28.85765223848729,-13.33505251662881,-2.9617531144493205,6.098285109604906,0.3414382912258418,0.06947602119861418,-6.6462934153466415,7.772308625681716,-13.33505251662881
1560500338.1983397,29.2570688959174,-13.32948844327842,-3.0170415483500648,6.097241047817753,0.3467178662822261,0.0833221938507488,-6.604326946570178,7.796193363091001,-13.32948844327842
1560500338.2648947,29.66346650964889,-13.331429961994582,-3.074470073119942,6.088419547132542,0.3606891982679385,0.0715229216143064,-6.6255390252024124,7.816801699745358,-13.331429961994582
1560500338.3330274,30.073813207657935,-13.313131160392686,-3.1373825033631597,6.07421163730388,0.35834079256498463,0.04884640037318444,-6.606362412472668,7.823059582190288,-13.313131160392686
1560500338.400872,30.471383111696603,-13.295991154475582,-3.2009215152501844,6.044642060242074,0.3502371501738823,0.015582003387662025,-6.585674935024159,7.796491149410279,-13.295991154475582
1560500338.4682493,30.861907665267413,-13.266326445038915,-3.2609394630691257,6.015941500415434,0.33793859957480066,-0.006693345616304747,-6.555322508596212,7.740411021120976,-13.266326445038915
1560500338.535478,31.26815745906597,-13.253552832803404,-3.319679621421282,6.017130705917675,0.33552166876057915,-0.007295415416520901,-6.507657610121378,7.720471879264288,-13.253552832803404
1560500338.6028817,31.681584823898625,-13.24560673706774,-3.374149043848686,6.021472838104628,0.3490534428873124,0.024570719619310122,-6.573545889925154,7.727834520752024,-13.24560673706774
1560500338.6702883,32.07211312231898,-13.233219013930103,-3.4259994192325327,5.976915571547616,0.36417813737654203,0.0438583570536919,-6.547132621134064,7.7105003336911615,-13.233219013930103
1560500338.7367911,32.47597703771214,-13.213292183959208,-3.483695389438184,5.972896099073633,0.36477849710049626,0.04980093960867815,-6.45262625849354,7.751694926408844,-13.213292183959208
1560500338.8019538,32.878416998466705,-13.208485910943626,-3.537078109054359,5.983053986983763,0.35851540874251775,0.0871447268461285,-6.371278575468982,7.843215644618053,-13.208485910943626
1560500338.8686194,33.29244290208622,-13.199694344327634,-3.5917460404404045,6.002204762471439,0.36077851503931957,0.09016490786335263,-6.278826341735743,7.927911138753248,-13.199694344327634
1560500338.9341264,33.702485483225196,-13.200666204880754,-3.6458711066984715,6.029797256959401,0.3805413936393382,0.06805476769932817,-6.296973098423592,7.967868903957709,-13.200666204880754
1560500339.0008512,34.12833981212858,-13.184531787267451,-3.7056981786638716,6.066562205342917,0.39930029258936384,0.03192182322526138,-6.20159537723369,7.9645767873290545,-13.184531787267451
1560500339.0671084,34.52386710177743,-13.139181390007213,-3.7646603500902964,6.0456179024178,0.3656741316362422,0.02862108079344461,-6.126294546684664,7.883431303913431,-13.139181390007213
1560500339.1336384,34.96068650623286,-13.091794907952718,-3.8212582927302323,6.104580921037994,0.3539983703300145,0.05992800639132101,-6.024542336276489,7.92742055082552,-13.091794907952718
1560500339.1996467,35.36872124094434,-13.066189289444564,-3.877576024726923,6.106667330059272,0.3552112813852319,0.06652790830246824,-5.956112833568677,7.897865550605402,-13.066189289444564
1560500339.2648199,35.725826378306074,-13.06379471953591,-3.9288857920360845,6.007788709189093,0.35977249967871616,0.07681694976478493,-6.001189978617986,7.825174586537185,-13.06379471953591
1560500339.3307526,36.11057050786878,-13.061042225096568,-3.9803509425480232,5.971258746365216,0.37474329676633034,0.0722410151135775,-5.992370655723119,7.832119223437981,-13.061042225096568
1560500339.3958669,36.487036823954966,-13.066241205805966,-4.030143573031688,5.933327449705296,0.37076698605058916,0.0691891224998642,-5.94769214314666,7.831435362174134,-13.066241205805966
1560500339.4629939,36.8825681892748,-13.033314056622851,-4.084843063909531,5.918340439700852,0.35310864139811937,0.06399487408863269,-5.84350703265015,7.833351746303229,-13.033314056622851
1560500339.5290558,37.2835507037297,-13.012718879316738,-4.1400430034132825,5.925388578273565,0.3496671598191854,0.08384156032579237,-5.760537983943254,7.872792832620396,-13.012718879316738
1560500339.592799,37.660973746097866,-12.991567296064833,-4.19170629119651,5.912817314329146,0.3559819068736151,0.0763652424454716,-5.7378782271620254,7.886357685282039,-12.991567296064833
1560500339.6558692,38.04922540825202,-12.995407128531488,-4.2510236417227105,5.939711852742003,0.36528701575662714,0.049071307993630464,-5.724562282343172,7.919915904928374,-12.995407128531488
1560500339.7213228,38.45218664624341,-12.990543128676489,-4.308361692955646,5.960810682459283,0.36370958853273994,0.044319030615244115,-5.660058532395907,7.930018049131215,-12.990543128676489
1560500339.7856016,38.84160964170352,-12.969979069251956,-4.364312766649044,5.963632894833958,0.35341777790592527,0.05756543710237283,-5.594408377663601,7.908309641077374,-12.969979069251956
1560500339.8522093,39.243085501320465,-12.939582871300786,-4.41550788460705,5.962325320270335,0.3453209811576961,0.05799803873562126,-5.539625977935672,7.888452385902155,-12.939582871300786
1560500339.9198349,39.66163726956754,-12.935792618050971,-4.463564635855945,5.9791673025055045,0.3432089187959296,0.07974921144362968,-5.4442426379873385,7.867456439491595,-12.935792618050971
1560500339.9876049,40.076336801310696,-12.936445286683393,-4.5141321971372035,5.984616262237862,0.3490103080457293,0.10962449840372734,-5.430037422974146,7.8504953210904675,-12.936445286683393
1560500340.0550318,40.49190662670411,-12.934238953389858,-4.571352843017683,5.992761091685533,0.35111789827156215,0.1332271071154062,-5.37180877601831,7.880899617392146,-12.934238953389858
1560500340.1229603,40.89641509031384,-12.913539166567109,-4.624899498468795,5.974718871343309,0.34437311275863547,0.1391086858982875,-5.379416916929917,7.894560257680879,-12.913539166567109
1560500340.188632,41.31406507795055,-12.901194591451638,-4.6814423969966255,6.017569299251512,0.34475592773644614,0.13657937052348512,-5.345390831868289,7.971514873288093,-12.901194591451638
1560500340.2527926,41.71069582913236,-12.880899485014593,-4.7403845258678645,6.037090278952901,0.33961435951506047,0.11076893042111924,-5.257659115546948,7.991954816343148,-12.880899485014593
1560500340.3212187,42.07551948816309,-12.865805202174492,-4.798477663888988,5.951104388162859,0.32307312591899184,0.07590850505532043,-5.271228780015048,7.923076546259473,-12.865805202174492
1560500340.3213139,42.076299274204196,-12.822565296738835,-4.798954218338291,5.952112059030146,0.30799975320536394,0.06619931284380987,-5.256159523843918,7.811932913898961,-12.822565296738835
1560500340.388123,42.4655934433908,-12.826663893478736,-4.85218147952451,5.953686441686013,0.32150887032397146,0.021903949382263255,-5.275732461165251,7.825188068832771,-12.826663893478736
1560500340.4535162,42.84578527350404,-12.838214115718996,-4.905108061653482,5.94662520740713,0.32943477936959764,0.029963877100263492,-5.265096358694712,7.850524746584671,-12.838214115718996
1560500340.517875,43.21912887021459,-12.834035850500886,-4.955896588326086,5.926555552743259,0.32190583824501234,0.048991405804009736,-5.2743943945770155,7.878038448024131,-12.834035850500886
1560500340.5846322,43.6054001657011,-12.82435663208136,-5.0050801990033715,5.916382376323104,0.3216013371545462,0.0786309155836914,-5.3112728604513855,7.922808122078241,-12.82435663208136
1560500340.6513588,43.991192747886586,-12.814005266343127,-5.054201641997225,5.9137673970579225,0.3175949070904391,0.07481697168550938,-5.267712153980598,7.927556091847066,-12.814005266343127
1560500340.719931,44.386835254116576,-12.79595158844184,-5.1061699204592506,5.907143425374259,0.31042055989499007,0.08083917370345906,-5.244391327193307,7.879261208998746,-12.79595158844184
1560500340.7890928,44.7846148731884,-12.792690856731996,-5.1594047682966755,5.889287224110718,0.3028471410470786,0.0817031832395615,-5.211259644021209,7.814653078982198,-12.792690856731996
1560500340.8577976,44.95958130723222,-12.72698302440661,-5.162921279928296,5.443164583129767,0.24379539057732932,0.08718259297252706,-5.4103769019003405,7.466747196066715,-12.72698302440661
1560500340.9266465,45.31841635412671,-12.733809441600256,-5.200825176808099,5.417008776345351,0.2299927207440514,0.11951466303802927,-5.409567325494309,7.445092428723091,-12.733809441600256
1560500340.9943187,45.68361050859667,-12.74602254865799,-5.24066969798004,5.421659149656952,0.23450828499821447,0.11370019060930703,-5.400083826475104,7.446145120697737,-12.74602254865799
1560500341.0645554,46.033140974616856,-12.750677804192286,-5.283315655325232,5.360608756269735,0.22435248037783767,0.07951839931917304,-5.389476393538138,7.345857206888549,-12.750677804192286
1560500341.0647411,45.97758175177793,-12.746506895002963,-5.281597369942996,5.2445909992369675,0.20969703015028818,0.069088246842129,-5.435166300084351,7.380965728891207,-12.746506895002963
1560500341.1314542,46.275993752668676,-12.79057487431116,-5.321934204117138,5.137109340276058,0.2016066281954111,0.05890869561917278,-5.5056492591412365,7.4292017341850425,-12.79057487431116
1560500341.197576,46.58297002257305,-12.828090374045892,-5.3628638155318775,5.071517245568131,0.20107275669430472,0.05960538615389199,-5.541892459413207,7.444440159444557,-12.828090374045892
1560500341.261255,46.88463774753618,-12.829994064723723,-5.40441304250026,5.031465998583489,0.1991481909763628,0.041109779157234905,-5.551201153350096,7.384578686735596,-12.829994064723723
1560500341.325372,47.19377825804257,-12.833374114834193,-5.4454227836572935,5.000080127369107,0.1964045377198419,0.04801855955619283,-5.552929170010817,7.3581249303637435,-12.833374114834193
1560500341.3914602,47.51351932584158,-12.837098394607686,-5.48242185792672,4.972683092511783,0.1932598411829327,0.08770802809721412,-5.5479083448241004,7.386958660884377,-12.837098394607686
1560500341.4546506,47.81865170021337,-12.848052919471812,-5.518999170516472,4.952706537547679,0.18685544414245342,0.10007139134114529,-5.550602947106708,7.4136246084782895,-12.848052919471812
1560500341.5212004,48.13884295312758,-12.855616627057927,-5.556365629077657,4.938064019185872,0.17766780258311876,0.09038011123717815,-5.538187695934039,7.456395265069297,-12.855616627057927
1560500341.5848613,48.4394531765618,-12.870521856687427,-5.596834894705531,4.913701001567392,0.16069762123192047,0.06775879092064985,-5.508958887943278,7.386101596113283,-12.870521856687427
1560500341.65165,48.75915763605405,-12.890526260644277,-5.63637121088112,4.8958373561130974,0.16717098280726336,0.08284006072033323,-5.519277706027954,7.455054399467563,-12.890526260644277
1560500341.7202733,49.08784774548051,-12.923949474680926,-5.67713603023736,4.8899570832446155,0.1772935549933997,0.07180339095754329,-5.540195038102476,7.541161213725876,-12.923949474680926
1560500341.7882104,49.41191318494331,-12.954792317985268,-5.721308383857638,4.883889986884115,0.16952374713600066,0.0357642470358962,-5.536361713072217,7.588228847489017,-12.954792317985268
1560500341.8542774,49.72692842944281,-12.97012464515386,-5.765166592860704,4.883502122152596,0.1691919642379632,0.014992675184351323,-5.545931320573585,7.592262677415916,-12.97012464515386
1560500341.9204445,50.04142371467995,-12.978634058254045,-5.810482703946897,4.872667337406405,0.17402936809596747,0.005884569600611789,-5.544745175038839,7.569870866886769,-12.978634058254045
1560500341.9862254,50.35503150364614,-13.003429722078176,-5.852917454084912,4.868468934893441,0.17301814635880997,0.013803073752092665,-5.5390435909147895,7.556625985349782,-13.003429722078176
1560500342.0533092,50.67478640335271,-13.005455720223354,-5.890651146263208,4.868274408516702,0.16467377085658222,0.029178340228282584,-5.555719902314972,7.538571604622464,-13.005455720223354
1560500342.1182451,50.98209217811497,-12.998533405611814,-5.932337191068395,4.860928726435295,0.16799411930089456,0.009510079235577784,-5.544892778871433,7.480551705841745,-12.998533405611814
1560500342.184228,51.29307541556259,-13.00443374797315,-5.969483947606143,4.841813482198213,0.15495779349980204,0.04555871597732819,-5.510391533121467,7.429288762048948,-13.00443374797315
1560500342.250551,51.603656733609405,-13.002380213086248,-5.99964891683169,4.815553736396637,0.1411448854627514,0.11115554927979832,-5.475123013510088,7.431255770368852,-13.002380213086248
1560500342.316702,51.912671061099054,-13.01569204621196,-6.036515579208328,4.800993162419912,0.1381835765468264,0.12290254790628252,-5.433766589076871,7.455674333287348,-13.01569204621196
1560500342.3837485,52.22378475394503,-13.028357106344762,-6.0807611104720305,4.790141905049354,0.13099952449210406,0.0803758026960516,-5.426570637282105,7.465148589290883,-13.028357106344762
1560500342.4509413,52.53743168336099,-13.059911595365662,-6.118563931861719,4.775880911163033,0.14214211115589565,0.0823919827984343,-5.490490379349626,7.478111825358033,-13.059911595365662
1560500342.5186841,52.85408651423588,-13.09321928433326,-6.155308997819952,4.771696855909634,0.143937585744181,0.0776341560668008,-5.530196980312712,7.499275838596162,-13.09321928433326
1560500342.5855048,53.16665784074781,-13.101558084378935,-6.193971423078445,4.769518459929917,0.1381403650508579,0.0735596034047713,-5.505299233107642,7.5044988080996875,-13.101558084378935
1560500342.654578,53.48814225434782,-13.066027111914961,-6.234979443326344,4.768692439065042,0.11951453914768317,0.057497387644405484,-5.433485754399395,7.45373339760331,-13.066027111914961
1560500342.7255955,53.8186216166624,-13.067245623937144,-6.275914625356706,4.761543216372352,0.12152781650234226,0.07894186499136058,-5.413223622891406,7.43985227318738,-13.067245623937144
1560500342.7925014,54.129365936205915,-13.061448095459978,-6.317511530021774,4.769771106871912,0.11610075297151783,0.0833832942068834,-5.452195083146595,7.427917671426593,-13.061448095459978
1560500342.8560984,54.42526441005464,-13.060220444949762,-6.354343946809757,4.776711494119973,0.12089591517035224,0.07097469585524185,-5.463181766812557,7.422639127215195,-13.060220444949762
1560500342.9216151,54.73074526441226,-13.074702852851845,-6.391475792966482,4.777559543801034,0.12502079119847123,0.0517730066980745,-5.4248805361132595,7.412377989009673,-13.074702852851845
1560500342.9893456,55.04488831091108,-13.09328717867115,-6.430852351790164,4.780232218744734,0.11486787902336357,0.048266021371699885,-5.435723919303604,7.387396192800032,-13.09328717867115
1560500343.0539198,55.34735403281464,-13.12466980169615,-6.466155316795379,4.791395222799551,0.11483862314314591,0.04373946285204455,-5.461987946507277,7.3792893076636235,-13.12466980169615
1560500343.1199696,55.656069127778,-13.144235307891499,-6.5043093856468035,4.792339062141925,0.12393621485972815,0.05122529928947139,-5.457577766178959,7.35319634193738,-13.144235307891499
1560500343.1872103,55.96653558468903,-13.164554475547583,-6.54853987504354,4.797147249964097,0.12283117284031372,0.03900785991282263,-5.43895388651758,7.319609219722006,-13.164554475547583
1560500343.2527764,56.27539284650838,-13.187996862404438,-6.589923152129866,4.817289790847441,0.12140861135830236,0.04437832826244015,-5.434827151496275,7.342485086605767,-13.187996862404438
1560500343.3189554,56.58734800545719,-13.195368501106117,-6.63183903624432,4.834567248376295,0.12363314971119639,0.05295632866232103,-5.441299109371425,7.362050739545353,-13.195368501106117
1560500343.3849938,56.90084698819607,-13.196615153164922,-6.671819378146625,4.858171879776701,0.12736382899285012,0.058323089457701816,-5.437852104923277,7.385564900565319,-13.196615153164922
1560500343.4511015,57.21592978739007,-13.205297676422568,-6.71213130731961,4.8806612876233455,0.11822005061774753,0.050848710685132636,-5.404669405743661,7.411085117060551,-13.205297676422568
1560500343.517932,57.52883819910218,-13.223446190133066,-6.757697382175798,4.893381418261063,0.10861574246787936,0.030489275627785806,-5.391453151377055,7.362745134233117,-13.223446190133066
1560500343.585315,57.85166171209228,-13.23299676855997,-6.800030989489871,4.918564979095909,0.1123442714999657,0.010469682236905586,-5.403583512452317,7.355259961795396,-13.23299676855997
1560500343.6519394,58.1694829072434,-13.235673845916153,-6.840086027336075,4.932296776338745,0.11305376611852336,0.02124850648662302,-5.375243625856842,7.318152623260393,-13.235673845916153
1560500343.718146,58.48541681837396,-13.254311813549291,-6.879160144273327,4.941768438879666,0.11501238213439832,0.01819179506283497,-5.384052137237496,7.283095069939592,-13.254311813549291
1560500343.7841887,58.805952005300426,-13.266373571209215,-6.9176386832255226,4.962631298854588,0.11857688173448322,0.025891915901784968,-5.371477842802707,7.278864530177413,-13.266373571209215
1560500343.8502645,59.12764420856364,-13.280630838358697,-6.955943846957206,4.976659197783852,0.11259585204031464,0.0689291456416955,-5.378593044373583,7.286919729679241,-13.280630838358697
1560500343.9164283,59.451030212138136,-13.297899870314389,-6.993985210084943,4.994245253458603,0.11535052100065114,0.09195174696341568,-5.388678405397542,7.317278197560732,-13.297899870314389
1560500343.9826808,59.776112362865774,-13.315876077231746,-7.033092531358956,5.019339664172429,0.1186573369640549,0.08041824088753347,-5.376488769125879,7.336509168605709,-13.315876077231746
1560500344.0492928,60.10071516102763,-13.318346888262317,-7.076362941115079,5.036483639263308,0.11084599294165312,0.05777666886827659,-5.398995604988562,7.310800331965012,-13.318346888262317
1560500344.1160033,60.43268688911718,-13.334148724200821,-7.11410662644542,5.061214004670147,0.11884490872322472,0.06317314553229647,-5.4306444752188865,7.305447476157531,-13.334148724200821
1560500344.1827683,60.75540015379134,-13.3531787387381,-7.1546245939449795,5.061478432156298,0.12168471826337249,0.05497448054474752,-5.443105849247875,7.223983839385299,-13.3531787387381
1560500344.2495508,61.087949786754294,-13.370859151762465,-7.189692514146143,5.082743457420581,0.12085979310949194,0.04721186980790282,-5.437566926368068,7.190553905843832,-13.370859151762465
1560500344.3162913,61.42142800191558,-13.389022561780989,-7.224810853354874,5.098126561853052,0.12338806502547985,0.06916900427057482,-5.4538625885935845,7.162579579798314,-13.389022561780989
1560500344.382917,61.75423265281085,-13.42035425399481,-7.26345578048017,5.1138695275977835,0.1337516805307925,0.07676228904443261,-5.481364682807898,7.124130461563975,-13.42035425399481
1560500344.4497583,62.08918305448529,-13.457473241763633,-7.297657454560031,5.128427003777128,0.13381555331815256,0.10066472485038269,-5.493729990811031,7.0838050147074,-13.457473241763633
1560500344.5165763,62.423364573009245,-13.487256110508678,-7.333401586262818,5.139098719828842,0.1382306241263641,0.1156970993926778,-5.5589888833698415,7.049156123487204,-13.487256110508678
1560500344.582803,62.7553521482546,-13.512751005090482,-7.36892218891496,5.148134332793348,0.15974463675178815,0.14464363185686357,-5.633835844343754,7.0746650420473465,-13.512751005090482
1560500344.6482487,63.082912261456336,-13.535958751319498,-7.4090255498372555,5.158368523531906,0.1589417825068545,0.112589773920998,-5.514044553895962,7.155398329098924,-13.535958751319498
1560500344.6485245,63.06439515434215,-13.500547630626986,-7.418751413621745,5.114988861716844,0.16487644219917705,0.08372387936727199,-5.544233298419527,7.158062995143631,-13.500547630626986
1560500344.7147615,63.3893334699511,-13.537391729692992,-7.463354875245581,5.112066121960458,0.13209335696749314,0.10397564039923846,-5.424954377090372,7.2937056289118525,-13.537391729692992
1560500344.780827,63.71661833912278,-13.582356060426317,-7.5053921859413615,5.118380650946592,0.12796125078575082,0.0936117879641285,-5.345446432337232,7.42451462628138,-13.582356060426317
1560500344.846465,64.04148039730727,-13.638829626823597,-7.552956646565136,5.121879790589489,0.1473085902456652,0.09121490890865513,-5.313659887271411,7.512198206266872,-13.638829626823597
1560500344.9126956,64.36989105489499,-13.708874139793558,-7.602802315776152,5.1432557111708785,0.1667442846168785,0.00811453839490106,-5.391696964828213,7.601544759300153,-13.708874139793558
1560500344.9793117,64.70058583993978,-13.755360816721321,-7.661957576931732,5.16155666942312,0.1665077976232462,-0.11051748918662818,-5.3390272700386685,7.5711161972013405,-13.755360816721321
1560500345.0447614,65.02662757920213,-13.76517141575351,-7.71411039791911,5.162484055048661,0.1050782878344533,-0.10452695350819041,-5.217482381421757,7.483883457814447,-13.76517141575351
1560500345.1109684,65.35716503705004,-13.767717227629351,-7.759317698390571,5.162655026149789,0.09951560429406063,-0.020101488220516717,-5.163582206231592,7.419840309056653,-13.767717227629351
1560500345.1770678,65.72801839099917,-13.819717366051393,-7.792644401836859,5.250548832567963,0.09441128291979498,0.005026677920319078,-5.099534808010839,7.269201789690079,-13.819717366051393
1560500345.2436147,66.06829924885172,-13.856818431576695,-7.824863950940198,5.252977594560644,0.09903687888348753,0.0024390217348526644,-5.105052706024791,7.1897386704244335,-13.856818431576695
1560500345.3087025,66.40005835910895,-13.88292890549442,-7.856095723210081,5.250563992344504,0.09959804060585084,0.08691785800428964,-5.11461925439635,7.110171650781576,-13.88292890549442
1560500345.3747776,66.73687132316635,-13.909722681104824,-7.88203431705276,5.244526579887612,0.0727039955318739,0.1555314036225084,-5.069893818348628,7.140775234263608,-13.909722681104824
1560500345.4421222,67.08104987157763,-13.96263799699411,-7.911998346352388,5.241202668552751,0.05020201866557376,0.23556753875531172,-5.114709563271494,7.300672870531013,-13.96263799699411
1560500345.5094216,67.42605571204511,-14.045801522940007,-7.941363008272216,5.250153928177382,0.07532834043575272,0.25422125034184506,-5.174642096545233,7.5014586322884576,-14.045801522940007
1560500345.5767865,67.76944057246219,-14.120664062401755,-7.988318530435726,5.268483495063622,0.07194731093608439,0.19599195909568745,-5.177764529487852,7.629328104744633,-14.120664062401755
1560500345.6446533,68.11419848057803,-14.169846334530234,-8.049873494356294,5.293474208954291,0.04914698774704408,0.09944511381863663,-5.165203582638834,7.666071421999807,-14.169846334530234
1560500345.7132702,68.46446805657091,-14.214000738023774,-8.113254174681572,5.326436404078651,0.025904237404251185,-0.01570821675808609,-5.105050029875542,7.593519628376013,-14.214000738023774
1560500345.781868,68.81727371411397,-14.242666915037711,-8.17681526945026,5.360247904274614,0.01414455856302567,-0.0952938201249518,-5.131329819657992,7.42411175153124,-14.242666915037711
1560500345.84948,69.16905033597563,-14.272677834695967,-8.230965313870488,5.383792371415158,0.01880790563793755,-0.07721925206298763,-5.194159254669261,7.258583130993121,-14.272677834695967
1560500345.9174204,69.52626067475201,-14.318767477789248,-8.27331997689425,5.4017177984601865,0.028401620630977273,-0.012092302103792085,-5.225379760417026,7.20257854665339,-14.318767477789248
1560500345.985426,69.88366621751847,-14.357128267215563,-8.31094309829714,5.408610684400163,0.02847847214390818,0.10457078224153304,-5.332035734285817,7.301380218456487,-14.357128267215563
1560500346.0550227,70.25010701680077,-14.409231831120877,-8.34375996877313,5.421342663518263,0.05981115765867495,0.18646182091762475,-5.37759952857811,7.488906395953096,-14.409231831120877
1560500346.1231215,70.6082641887417,-14.472580690252165,-8.382083486946973,5.446190507555103,0.05273567206818122,0.16277411100807937,-5.288459488693736,7.664965761842458,-14.472580690252165
1560500346.1903596,70.9607415339145,-14.530388397347654,-8.42954172433769,5.475855266161285,0.033029280883874565,0.11174553276614196,-5.251834503607746,7.7186552511806115,-14.530388397347654
1560500346.2559402,71.30372714892884,-14.568834099868079,-8.485227883329197,5.506910559783253,0.04630915891393575,-0.020436722575777,-5.274748814892548,7.626056541205463,-14.568834099868079
1560500346.3219898,71.65340322145067,-14.575704397023976,-8.539250127669375,5.527266279899513,0.059182376494717276,-0.07028032100644854,-5.37170686370096,7.451262828774799,-14.575704397023976
1560500346.3883698,72.00709363584559,-14.585413871832563,-8.591014846530861,5.542648299086603,0.07002542175239185,-0.06000082467033263,-5.448264939847387,7.278146298301715,-14.585413871832563
1560500346.4547687,72.36384491912439,-14.572958340245712,-8.633991287866007,5.5563375591627615,0.05428849770113585,-0.0022513880616262805,-5.438932864978052,7.173231286814626,-14.572958340245712
1560500346.5202813,72.71871796985752,-14.56683378472501,-8.662310121003195,5.563345916422721,0.04486905589597275,0.10808170102286785,-5.421618953122074,7.197607768462534,-14.56683378472501
1560500346.5872693,73.08164834372528,-14.606448143773948,-8.693467295409441,5.57082793404849,0.06426303387087025,0.17034715181223614,-5.450871912717268,7.258891141921221,-14.606448143773948
1560500346.653304,73.43794914493539,-14.681168838256877,-8.725267991200706,5.578467917921622,0.08778996632403666,0.17826819055421916,-5.446061538852283,7.277731182336165,-14.681168838256877
1560500346.7211962,73.80492871914147,-14.711585131879593,-8.765626949860065,5.589346911654469,0.08858073697331234,0.1600890092173627,-5.421529958520905,7.287846275767156,-14.711585131879593
1560500346.7881024,74.16505381195586,-14.733468387360901,-8.813538636162244,5.59528010045969,0.09549529388803543,0.14580529323546987,-5.459930891673419,7.279434441553782,-14.733468387360901
1560500346.8557675,74.52786340265561,-14.763800486301376,-8.872059169457026,5.612164870751957,0.11152698119391041,0.09375199730725481,-5.530400035483164,7.2896288752214,-14.763800486301376
1560500346.9233902,74.89312552118258,-14.763910558583898,-8.930254887879272,5.632456216067235,0.11497140761839172,0.055517053633188373,-5.569706199884766,7.322392355969547,-14.763910558583898
1560500346.9917455,75.26106832042912,-14.78253877298944,-8.991630188407155,5.646622155634885,0.12076475883578372,0.021243720453807624,-5.571304065448004,7.3162231613720445,-14.78253877298944
1560500347.0598302,75.62828400793934,-14.816240325787529,-9.049544503485047,5.6596157172755746,0.13003685689622974,-0.0022342748331579676,-5.581915829050237,7.318823187628114,-14.816240325787529
1560500347.1277652,75.99964104538829,-14.856155355182237,-9.099664815569833,5.683653659169123,0.13468879920080026,-0.004335000261595279,-5.602856151055578,7.371907293517895,-14.856155355182237
