timestamp,x,y,z,vx,vy,vz,roll,pitch,yaw
1546877107.904599,-7.058360076233593e-06,-0.002356679379133883,-3.080832534922798e-05,0.00042896419612063226,0.0001429960038258868,5.87786973621447e-06,-89.30152512997684,1.4366370421130674,-0.002356679379133883
1546877108.004599,5.260409488425029e-06,-0.0030700336911971896,0.0004932009401526292,0.0006785264158946739,0.00030374936101639903,-0.0010950898996742115,-89.30210660639102,1.4379470704396191,-0.0030700336911971896
1546877108.104599,5.4421721821957274e-05,0.0004185007847783256,0.002366812729959604,0.0013607173903077872,0.0025262433801392275,-0.0008620461099925285,-89.30755590451378,1.4396129277367007,0.0004185007847783256
1546877108.204599,0.0001913485923142123,0.0114571026153156,0.0028703079038216134,0.00021971796924699302,0.0020714224324582978,0.00138673748963526,-89.30995972704284,1.4448992676972516,0.0114571026153156
1546877108.304599,0.00031373966619010904,0.017873648729502773,0.0031086434006014243,-0.0003268139482722604,0.0009349587220165804,0.0007518679297535298,-89.32057989836916,1.441818638463256,0.017873648729502773
1546877108.404599,0.0001934665813567895,0.013778478148057422,0.003206188937616166,9.79236072206106e-05,0.000713389430198451,-8.705069351400564e-05,-89.3240326644798,1.4411783033142502,0.013778478148057422
1546877108.504599,0.00010481150114010497,0.015235889351223712,0.003241789554315381,-8.031503608988922e-05,0.000610637297756289,0.0013140299579953538,-89.32894518618336,1.4420244164717668,0.015235889351223712
1546877108.604599,0.00022328345001366051,0.025471088591872703,0.0032211037415049056,0.00022282574857125713,0.0009572993854833228,0.0010541759914633097,-89.33710381163166,1.4404798509236063,0.025471088591872703
1546877108.704599,0.0002483483393504443,0.03233045614433582,0.003194417998036068,0.00014117810456454826,0.0013971291494450776,0.0011385267723692525,-89.33725766476324,1.4408921885230819,0.03233045614433582
1546877108.804599,0.0003309844463785518,0.040488063119468516,0.003158956575983575,-0.00012208205072825339,0.0016305299377391749,0.0006017740132226528,-89.3401277523115,1.4424704796525236,0.040488063119468516
1546877108.904599,0.00029498777638042666,0.03786730659725236,0.003072289054520325,-0.00022497264885432117,0.0017685443294188068,0.001395086001668424,-89.34021549403994,1.4417797647027066,0.03786730659725236
1546877109.004599,0.00031641460113028975,0.0418267054704836,0.002981694829908641,4.979342658105097e-05,0.0020574960627057094,0.0007942204222922723,-89.3413683695503,1.4466182234505873,0.0418267054704836
1546877109.104599,0.0002966264879261879,0.04150381364402638,0.0029493594048428727,-0.000436728174213993,0.0016989875074983126,0.0012893769543655812,-89.34662590236519,1.4546400118541298,0.04150381364402638
1546877109.204599,0.0002761982160640492,0.04356618926682358,0.0029933824346572886,-7.825464025933607e-05,0.0020091811401794363,0.0013772539764271262,-89.35170347125008,1.4600827030893304,0.04356618926682358
1546877109.304599,0.0004216958761067906,0.044441699154950755,0.002769806396124568,0.0007930778836942827,0.002322760637279659,0.0007840531172035324,-89.35376364954541,1.4616730125190032,0.044441699154950755
1546877109.404599,0.0004243985983039815,0.043088828932441696,0.0027477389253340433,0.0009977461891245252,0.0027817864222957514,-0.000509903927630435,-89.35631821587907,1.461613999666254,0.043088828932441696
1546877109.504599,0.0003931193506734148,0.04127855256953298,0.003010124330917026,0.0014619879221584328,0.0020587052416788892,0.0004964519581108654,-89.36515418499522,1.463292528879183,0.04127855256953298
1546877109.604599,0.0003810873630511593,0.040835374295585765,0.0029845316267596593,0.0006318962323781772,0.00227739322541936,0.0010427209546372688,-89.36818443200399,1.465402065100714,0.040835374295585765
1546877109.704599,0.0003354567864378423,0.042881796373728735,0.0029671418513950274,-0.0002362509878188319,0.0017307887592191607,0.00011709897744210078,-89.37105509152772,1.470039943666539,0.042881796373728735
1546877109.804599,0.00035189785813329765,0.03457537748803192,0.0029668143591454373,0.00010229318535587398,0.0016637360552027988,0.0011025302750585703,-89.37542007294249,1.4754711649982162,0.03457537748803192
1546877109.904599,0.0002799371508458341,0.03957188896944415,0.002998728268710707,-0.0008112373698367611,0.0008757784165071223,-0.000144365362760234,-89.3793295134741,1.4702892900358018,0.03957188896944415
1546877110.004599,0.00035139104033815176,0.028082152433365037,0.0030271797255356507,-4.50447184434021e-05,-1.4690690777991669e-05,-0.0005402929022558136,-89.38333938453124,1.4746344134922211,0.028082152433365037
1546877110.104599,0.00018151811192125824,-0.001403369162408441,0.0032683975910770954,0.0004171385772184158,-0.0002527352438298805,-0.0047449029790913285,-89.39173477001792,1.4761522507778229,-0.001403369162408441
1546877110.204599,-0.00010961299514315196,-0.024257903991496972,0.003449537763862294,-0.001676183490466299,0.00048283093012387897,0.002119934383339371,-89.40021263083142,1.4795803198794764,-0.024257903991496972
1546877110.304599,-0.0003806604800037696,-0.03202054990061326,0.003464635027386153,-0.001727124162834272,0.0011711370163049449,0.0017744493400467544,-89.40649570499828,1.4852326094134414,-0.03202054990061326
1546877110.404599,-0.000411697894762643,-0.03808162821344237,0.0035718929907997267,-0.0024742513598099065,0.0007999877691888715,0.001969553997716499,-89.41863944572401,1.4921070273737829,-0.03808162821344237
1546877110.504599,-0.00034599738821858647,-0.033657768408440106,0.0034699590114918096,-0.0033126016539475633,0.0008143022885626461,0.0005129461795335156,-89.420964474004,1.4905744998684434,-0.033657768408440106
1546877110.604599,-0.00033858989761954665,-0.04448146803076504,0.0034797306635206923,-0.0006784996975717304,0.0012960947924752215,0.0028938991423448452,-89.42313586431561,1.4955866171131127,-0.04448146803076504
1546877110.704599,-0.0003928564578794816,-0.04537391327939105,0.003526630176137725,-0.0024595592821938226,0.0002490250258738422,0.003787011332116654,-89.42885096628889,1.5010133686182354,-0.04537391327939105
1546877110.804599,-0.00025903272482151517,-0.044332361809165846,0.0034326545493596687,-0.0011983255022589927,-8.111788556719373e-05,0.0014657608722716657,-89.43127511619312,1.502220087854097,-0.044332361809165846
1546877110.904599,-0.00033863711063295536,-0.04754310738562404,0.0034756686841486764,-0.002329330510118817,-0.0004113243956351749,0.0012367094322178745,-89.43539603519793,1.5093289118114108,-0.04754310738562404
1546877111.004599,-0.00037172348504957106,-0.04773345990095117,0.0035293417707347244,-0.0019102107771238781,-0.00019940676032564685,0.0012851911415576779,-89.43843032374166,1.5174660842960193,-0.04773345990095117
1546877111.104599,-0.0003237384871100776,-0.048599474153533634,0.003514467035962851,-0.0031133162643311083,-0.00028680853877428034,0.0027397575434499424,-89.44392949158504,1.5260578840248191,-0.048599474153533634
1546877111.204599,-0.0003853838390140583,-0.049260083228976646,0.003538122821715025,-0.0032502039977380316,-0.000964755068236204,0.0019469087448926868,-89.44744366139307,1.5243751694756478,-0.049260083228976646
1546877111.304599,-0.00034067509170766184,-0.04430012976405991,0.003533209731701753,-0.0020942115618996665,-0.000844681016900843,0.0019341109178185024,-89.45124751109111,1.5330776559662995,-0.04430012976405991
1546877111.404599,-0.00035690866716989265,-0.03926464249339236,0.0034241767991308094,-0.0011056739391187968,0.00014946459743650915,0.0017485999928045879,-89.45208470632969,1.538627613787402,-0.03926464249339236
1546877111.504599,-0.0003652654000793401,-0.04121357863979404,0.0034883727899714884,-0.0010625459932852382,-0.0010981721571936894,-0.0008390154243056179,-89.4558605633323,1.5480349561805398,-0.04121357863979404
1546877111.604599,-0.0003459651849875054,-0.039712752941232395,0.003467668064568663,-0.0017814848371564766,-0.00029640368126056986,0.0016330234880334133,-89.45700920419472,1.55120132211693,-0.039712752941232395
1546877111.704599,-0.00023961249802828647,-0.0015758058346422613,0.003322410620819592,-0.003853526653135329,-0.0005306669516539722,0.006566003304304498,-89.45573034746882,1.5616203713302714,-0.0015758058346422613
1546877111.804599,0.00015295367479385783,0.06239325571102831,0.0029963918367458373,-0.0018495473628727457,0.0003368349456036293,-0.0008531258749682314,-89.45087085788504,1.5697246414189725,0.06239325571102831
1546877111.904599,0.00028156890114134454,0.03987328491853661,0.002849891171042082,-0.0018381462825625284,-0.00020103413749233306,-0.006401925985526034,-89.44433507322583,1.5756400398913855,0.03987328491853661
1546877112.004599,0.00017507671411968946,0.01928536522845668,0.0030061524386860764,-0.0022792176982514138,0.0005969992581043646,0.00015532472155772324,-89.44891909976235,1.5856838598850271,0.01928536522845668
1546877112.104599,7.469773280407502e-05,0.0341390239228487,0.00303446554262399,-0.0017246119017477425,-0.0004415414919082876,-0.001148761753386237,-89.45312381593172,1.5867451602425606,0.0341390239228487
1546877112.204599,0.00021434728020850854,0.03391658799150483,0.002953882753662279,-0.0015209112406713184,0.0004769478701273797,-0.002258902753608066,-89.45051631396392,1.5923868260899752,0.03391658799150483
1546877112.304599,0.0002911745219132855,0.0368029771539018,0.002878849730304752,-0.0017986136165814065,0.0007420883101294587,-0.002264858162373299,-89.4494670595324,1.5921619809467937,0.0368029771539018
1546877112.404599,0.00020357728493385156,0.03471743077913462,0.0029216901378916562,-0.0011580010567464032,0.0003954822119269382,-0.0019375708742643786,-89.45161198199332,1.5973057867655787,0.03471743077913462
1546877112.504599,0.0002416392992382442,0.03547386180982018,0.0029397491759907295,-0.0011147824742345567,-1.6162699344637294e-05,-0.002037725073293693,-89.45305524292569,1.598172224753825,0.03547386180982018
1546877112.604599,0.00017381694917073214,0.03296640059720278,0.002926220083364423,-0.0040460992397961205,-0.0005461626257817961,-0.0034040535121252335,-89.4558268074003,1.6042983171321825,0.03296640059720278
1546877112.704599,0.00015141768133333805,0.03435429704633737,0.0030041554060510427,-0.0035201341383236913,0.0007072189888897283,-0.002094263672200242,-89.45618405413833,1.6081144966291014,0.03435429704633737
1546877112.804599,0.00021438757924978382,0.03616886304669161,0.002876699965809344,-0.003480691440721089,0.0009243806190955505,-0.002357579114220549,-89.4534292799985,1.6115833623304519,0.03616886304669161
1546877112.904599,0.0002447651721151474,0.036910296740916115,0.0026642677316127154,-0.004405924492152294,0.0013442515734595822,-0.0020378103643669196,-89.45220211619043,1.616071754345454,0.036910296740916115
1546877113.004599,0.00022949832984018925,0.036400399231989324,0.0024871258581783853,-0.005280051000136025,0.0015568520463144911,-0.001923254461373752,-89.4478691324076,1.6202164707789701,0.036400399231989324
1546877113.104599,0.0003442608232335759,0.04146191090836653,0.002243694668178898,-0.004553111558908474,0.00046277426124023924,-0.0024779134253949224,-89.44633933115017,1.631952858045116,0.04146191090836653
1546877113.204599,0.00012380073289794532,0.0354725097824835,0.0028607015620771854,-0.0042322195933453865,0.00041748322820743,-0.00043031229867169764,-89.45942065669703,1.644557001002024,0.0354725097824835
1546877113.304599,5.389870868315292e-05,0.03389134735586337,0.0028720142877819046,-0.004522822928409992,-0.0003396398248209605,-7.997349364699473e-05,-89.46255311531529,1.6521718308213944,0.03389134735586337
1546877113.404599,4.8410158024990614e-05,0.03471837337131038,0.0029291398906514236,-0.0032066842610844193,-4.937344221841025e-05,6.601894138475473e-05,-89.46616280944058,1.6583115117801757,0.03471837337131038
1546877113.504599,6.780577313690945e-05,0.03447196280796302,0.0028814293844265436,-0.0045298533427284736,0.0004461656324748151,0.0003343080300830156,-89.46640520430765,1.6634075229715246,0.03447196280796302
1546877113.604599,0.00016274218319500139,0.038040829512917124,0.0027406677310725723,-0.004214883155017014,0.0012065720943145416,0.00035706863132796624,-89.46849057169203,1.6858567911424764,0.038040829512917124
1546877113.704599,0.00016192761196370638,0.03661907177001547,0.002724104164413822,-0.004015549776330118,0.0009135951981228882,-0.0007847487927368024,-89.47216368932864,1.7095604654874936,0.03661907177001547
1546877113.804599,7.527577878043076e-05,0.03396066841478385,0.002856454089540878,-0.004004649009672467,0.0004166903483807499,0.0002898362086169896,-89.4780437251503,1.712587057211954,0.03396066841478385
1546877113.904599,4.984151246973295e-05,0.033499416390206684,0.0028407233638534537,-0.0032708362048565628,0.0009675154235678341,0.0013906954291744039,-89.4776977161905,1.7221030034116926,0.033499416390206684
1546877114.004599,0.00024190082283840115,0.038572727767353605,0.00280743940148263,-0.00165700816830574,0.00022909314049277113,0.0020843928326317214,-89.47837643472637,1.7392220111874663,0.038572727767353605
1546877114.104599,0.00016835570422909975,0.03537456418520955,0.0027084091930258953,-0.0034254759712976637,0.0015160803388863178,0.0017471180749137323,-89.47707022670595,1.750958371365361,0.03537456418520955
1546877114.204599,8.696457470793856e-05,0.035052185982531354,0.0027710355152737584,-0.0027592344974781934,4.653828097747587e-05,0.0020491706201563892,-89.4794079066641,1.7790432191990233,0.035052185982531354
1546877114.304599,0.00016619242560906677,0.03667667777299569,0.0027883786432055277,-0.002054717802317269,-0.0006136762310726062,0.001472880646528149,-89.48011399246501,1.8049976177068963,0.03667667777299569
1546877114.404599,0.00015916489701095775,0.035212111692283596,0.0027546392455607455,-0.0028421932217098725,3.1009278346131707e-06,0.0012590953648226341,-89.48146915236292,1.8306760612810558,0.035212111692283596
1546877114.504599,0.00013196612754434148,0.03524411211542567,0.002832363152350055,-0.0029573298455704607,-0.000338524010072388,0.0022429251039596957,-89.480774861009,1.8697989437286746,0.03524411211542567
1546877114.604599,0.00012789303312114267,0.03427232717983719,0.0027982270668374452,-0.002735772105434701,-0.0011074166754560487,0.0011050702193861953,-89.48072774665367,1.8929566659701371,0.03427232717983719
1546877114.704599,0.00022555312298184568,0.03663892509483038,0.0028596377964586685,-0.0015440701381758092,-0.0006851970567013945,0.0020973083739768902,-89.47996103928885,1.9185524779090108,0.03663892509483038
1546877114.804599,0.00013093307406273903,0.03363262852894251,0.002689999348905906,-0.002763783212356542,0.00042174625453560106,0.0013282710351937364,-89.47778959405387,1.939831837697148,0.03363262852894251
1546877114.904599,-1.0082438925475612e-05,0.03092409881873656,0.002670538689367701,-0.003464444727449086,-0.00025489521402854835,0.0018332441212347709,-89.47447074566234,1.9727871051781438,0.03092409881873656
1546877115.004599,9.018844608694693e-05,0.03384973791272655,0.0026689477144402184,-0.001768750633004265,0.00031224185910834864,0.0019834775312380323,-89.47393486611203,2.004637879992677,0.03384973791272655
1546877115.104599,0.0002896611864253845,0.03946376434060608,0.00194855451611652,-0.0019960013937409082,0.0013204592194057136,0.00020497345970783612,-89.46478357095984,2.0361760994101066,0.03946376434060608
1546877115.204599,3.377780170763037e-05,0.03424614643111898,0.002665012627719845,-0.002510429096150371,0.0001582981550429083,0.00173922614995656,-89.4731273051037,2.0818614165186897,0.03424614643111898
1546877115.304599,-1.2204506573595382e-05,0.03213547297136853,0.0026563055756669697,-0.0028140742283287857,0.0014084145515543898,0.0012461002840042626,-89.47479242243654,2.1147818637206615,0.03213547297136853
1546877115.404599,-1.386493761426923e-05,0.03154592870989016,0.0026800487049563866,-0.0030298222166244776,0.0003147079626283269,0.0010418947500327104,-89.46716034903261,2.147360435643848,0.03154592870989016
1546877115.504599,3.6350154719332434e-05,0.033914803245825256,0.0027056613947585,-0.0013596208249206717,0.00018036688888876977,0.0008084294819851468,-89.46549625981577,2.171133545253977,0.033914803245825256
1546877115.604599,3.403936215011584e-05,0.03311409066034772,0.002784537243295609,-0.0018163980968429526,-0.0012364135994041509,0.00016199464950557253,-89.45870309415217,2.2033806239622775,0.03311409066034772
1546877115.704599,0.00011862416677345284,0.03632527620379989,0.0028261785662202794,0.000304622893775361,-0.0005206225282373339,-0.000810879888244448,-89.45778832204437,2.239618354376313,0.03632527620379989
1546877115.804599,3.7688518834515406e-05,0.034395950866543644,0.002839910877190773,-0.0007716241666404741,0.00020262885178479282,-0.0006092016202382942,-89.46029535322221,2.268560437853695,0.034395950866543644
1546877115.904599,7.816581159637708e-05,0.03481429721023395,0.002854448219956353,-0.0007726187736881565,-0.0007966536008472364,-0.0009966830821430926,-89.46135025421988,2.2995661013253064,0.03481429721023395
1546877116.004599,-7.960561424901157e-05,0.030486665736768618,0.0028896181380682344,-0.0041064455034067904,-0.0008075586102349035,-0.00048783693425012616,-89.45372811142799,2.3318054386491935,0.030486665736768618
1546877116.104599,-8.48564421066163e-05,0.03071329176494915,0.002864434055238079,-0.003126116015806692,-0.0002959212841258906,-0.0011912764818368452,-89.45005133894229,2.367787234075233,0.03071329176494915
1546877116.204599,0.00010232226172112565,0.0364412309688868,0.002859489660563305,0.0011229973664216072,0.0005741471048147597,-0.0005131687352424118,-89.458458800167,2.3997583143626184,0.0364412309688868
1546877116.304599,3.662773207827605e-05,0.03335720949227365,0.002825492381778631,-0.000989913653261533,9.361138966972885e-05,-1.045101425708916e-05,-89.45843083294722,2.421436586049744,0.03335720949227365
1546877116.404599,-1.1533653052019999e-05,0.03139841415318874,0.0028112597158577585,-0.0021764588258868286,3.858554478705872e-05,-0.000279238772439066,-89.45081872681054,2.4537912932517068,0.03139841415318874
1546877116.504599,7.777473463723519e-05,0.034454753733203544,0.0027890401683780775,-0.000579532563987309,0.0005657554101434734,1.7695002249678568e-05,-89.44437423455855,2.487177591405207,0.034454753733203544
1546877116.604599,6.010437117796532e-05,0.0341659098116257,0.0028251929319798104,-0.0011461694897272436,-0.0007747068793964852,-0.0003363686431272251,-89.4311796789273,2.528098010669665,0.0341659098116257
1546877116.704599,4.980193288667394e-05,0.03359755752024076,0.002816674856025816,-0.0011181390124776944,0.00036990769046856757,-0.00014118572602110413,-89.42478405592965,2.5585005166996866,0.03359755752024076
1546877116.804599,-5.318006475873279e-05,0.030263929297437476,0.002819554993008483,-0.003575692864561363,-7.372233899289956e-05,-0.0010176452672376389,-89.40820433526368,2.5964184673023882,0.030263929297437476
1546877116.904599,-8.059431216982781e-06,0.032468924358359026,0.0028935363446405495,-0.0018408060714571448,-0.001244235774203262,-0.0016532576159777738,-89.39236285180621,2.639335172258211,0.032468924358359026
1546877117.004599,-2.3956355005627928e-05,0.03218739047223465,0.002937571299874746,-0.0024066631547646038,-0.000590075386024735,-0.0016752407928079457,-89.38257106839669,2.668983651169977,0.03218739047223465
1546877117.104599,9.467387621118987e-06,0.03314939508512581,0.002980947514790334,-0.0010573244829186535,-0.0010339162623669732,-0.0023310708161953385,-89.3745742733866,2.6977693912809113,0.03314939508512581
1546877117.204599,-9.890941755985368e-05,0.030522742717550858,0.0030149756745512907,-0.003597953656888117,-0.0005732941885800111,-0.00220613931174068,-89.36290015227573,2.7305616151196794,0.030522742717550858
1546877117.304599,6.984269620868045e-05,0.03492994732169142,0.0029530853362064796,-0.00019502691462265612,0.0004844557360688951,-0.0017166025220400356,-89.36105219557332,2.7551840675451023,0.03492994732169142
1546877117.404599,-3.182450211333957e-05,0.03232739499429959,0.002978254737493035,-0.003037885759983745,-0.00015489084373764898,-0.001631740352505558,-89.35235308064861,2.782547833115365,0.03232739499429959
1546877117.504599,-2.9365397097454963e-05,0.03283854565820814,0.0029866764672425226,-0.002044875802073494,8.007031095897352e-05,-0.0026401721032045184,-89.34012402221848,2.8224884638114065,0.03283854565820814
1546877117.604599,3.575253888133903e-06,0.033303228682791154,0.0030279938856968562,-0.0010261473242083906,-0.0014277231876375055,-0.002793558921852096,-89.32953710211336,2.860298932900843,0.033303228682791154
1546877117.704599,-4.2039922030561454e-05,0.031703034218991136,0.003040671135168729,-0.0019487436644972838,-0.0007127762588587574,-0.0018885019474431542,-89.32617356830599,2.8865145189849977,0.031703034218991136
1546877117.804599,-3.3919542486376524e-05,0.03183380668622905,0.0030364171320865995,-0.0019726352663352667,-0.00083052157020743,-0.0023109678529380263,-89.32344020492297,2.912986738530733,0.03183380668622905
1546877117.904599,2.258897055031733e-05,0.03336910859743842,0.0030278019278747762,-0.0013842649342962366,-0.000708859361660858,-0.0015106054827529157,-89.3242274040957,2.9354888816173688,0.03336910859743842
1546877118.004599,-4.090346086841262e-06,0.0328440049398746,0.003044847720720952,-0.002471986106735149,-0.0015396992050332756,-0.0018237433715715668,-89.3196985177854,2.9607466891892873,0.0328440049398746
1546877118.104599,1.9073096058489862e-05,0.03366884513030545,0.003089584984937486,-0.0008287618358686867,-0.0017348052287175606,-0.0012249115389965299,-89.31989334348883,2.9880972490280295,0.03366884513030545
1546877118.204599,2.3142929016191248e-06,0.032257952799691056,0.002887578504887403,-0.0010117907008376612,0.0009060571421636247,0.00010081500761274766,-89.32389290085297,2.9864839771291942,0.032257952799691056
1546877118.304599,4.384969178879282e-05,0.033135736766905975,0.0028865996643886596,0.00014982816020022428,-0.000127073030007598,-0.00011263015923213149,-89.33035451010718,2.9738074623383013,0.033135736766905975
1546877118.404599,7.619696054508291e-05,0.03352596120835803,0.00289927819896152,-0.00041971054759315724,-0.0001573964614326628,0.0003931955968410788,-89.33720425912463,2.9615072058520333,0.03352596120835803
1546877118.504599,2.4876486107302567e-05,0.032801226151947506,0.002876918694131901,-0.0019314137481262498,-2.2367623705567036e-05,0.0005323667782285215,-89.34275420085926,2.949278276948098,0.032801226151947506
1546877118.604599,7.824186301002806e-05,0.03340558037338753,0.0029341281599141924,-0.0004760513710528167,-0.0003789092908412206,-0.00010377375318389818,-89.35088728496613,2.936803694211178,0.03340558037338753
1546877118.704599,9.982438894582497e-05,0.034185962897910226,0.00291710110759137,-0.0007165470483908289,0.0001084425925289335,0.00024307152578311017,-89.35503743443492,2.929148698478,0.034185962897910226
1546877118.804599,8.199318717047636e-05,0.03390752691001278,0.0028920592866090505,-0.0012325113398248344,0.0008751784523957025,0.00013103231272004788,-89.35913035187217,2.9191983849326832,0.03390752691001278
1546877118.904599,6.284179195425668e-05,0.03345830190578305,0.0029380174201102663,-0.0016420769677280363,-0.0005043096920819214,0.00022513797131188589,-89.36626994361771,2.9071181206323735,0.03345830190578305
1546877119.004599,0.00010852407410080743,0.03460027235997072,0.0029155189385920675,-0.0007396455641799476,0.0003185967797055958,0.0011324729413809465,-89.37247639367301,2.8958131824409032,0.03460027235997072
1546877119.104599,8.294798842820585e-05,0.03418249290034087,0.002912280108295287,-0.0009318398152770823,-8.648245189457993e-05,0.00018829060968788083,-89.37760575836768,2.883571683128732,0.03418249290034087
1546877119.204599,7.63639955897241e-05,0.033774332200741886,0.0029357808829329497,-0.0015141343315613392,0.0001928534967220521,0.0006111778265568943,-89.38471725093486,2.8722682715938106,0.033774332200741886
1546877119.304599,5.5223164242477735e-05,0.03369400902201953,0.0029158994207235597,-0.0012334284489357898,0.0004300881556577986,0.0010645572388976534,-89.38968689721132,2.860815964274305,0.03369400902201953
1546877119.404599,8.141392114366497e-05,0.033795461327597795,0.0029048620784722593,-0.0007814488599198994,-2.0278101998140014e-05,0.0006689986677100967,-89.39554875173775,2.8495004632662932,0.033795461327597795
1546877119.504599,7.536553243000841e-05,0.03420926333231286,0.0029020262417206767,-0.0020521905973030505,6.186252733025537e-05,0.0010349984063307864,-89.4002379605438,2.8402426736199575,0.03420926333231286
1546877119.604599,0.00011874437567711409,0.03469390827475792,0.002932902623752487,-0.0011092964498319528,-0.0001651768514985536,0.0003294281392817491,-89.40613243207726,2.830298800968642,0.03469390827475792
1546877119.704599,0.00012630642308973433,0.03519847071998076,0.0029268570639357887,-0.001496138485467457,0.0002861740782126768,0.0010808514134635866,-89.41092535700162,2.821562244843546,0.03519847071998076
1546877119.804599,8.298455578337426e-05,0.034384038867131594,0.002937348483316758,-0.002798910432443976,1.7270950828155687e-05,0.0008397772197712501,-89.4163386221373,2.8106735359236303,0.034384038867131594
1546877119.904599,0.00011919742934048748,0.03530059576478791,0.0030775467683557974,-0.002214903188123018,-0.0015599874870610804,0.00038137442231921267,-89.42606803789562,2.7999255189078642,0.03530059576478791
1546877120.004599,0.0001425456386397302,0.03569574648166974,0.0030961321631943887,-0.0015925327618705667,-0.00023903772646583751,0.001045582407701809,-89.432102333286,2.788880352210524,0.03569574648166974
1546877120.104599,0.00014096280794300504,0.035830103141205924,0.0030759774562359884,-0.002044495139956038,0.00043105424882199426,0.0016810455886146292,-89.43721590614811,2.7787092879198227,0.035830103141205924
1546877120.204599,0.00017362492961149622,0.036440012910699426,0.003095364716750527,-0.0019069944724850784,0.0002805104872035301,0.0009119398737759669,-89.44361300181663,2.7683406452758623,0.036440012910699426
1546877120.304599,0.0001475958318715749,0.035978625114807976,0.0030429927739531962,-0.0031079600086963014,0.0006862129258408988,0.0006806410016233368,-89.4469813696281,2.7575674676908943,0.035978625114807976
1546877120.404599,0.00018406378908830445,0.03658527290145034,0.003106022234207223,-0.0022526984988636123,-0.0005756749435955495,0.0008821085945297785,-89.45407717424277,2.7473003967084337,0.03658527290145034
1546877120.504599,0.00015731440582994195,0.036364287723818035,0.003066085089865125,-0.002916841490182246,0.0004455609817942799,0.0013380793767397527,-89.45789388837775,2.737318414132092,0.036364287723818035
1546877120.604599,0.0003124910868328254,0.03921028699027328,0.0029256888637087686,-0.0011369653818645484,0.001438075797620531,0.0023886849349070032,-89.45702673153299,2.725692375877272,0.03921028699027328
1546877120.704599,0.0001545812305513461,0.03624783986533385,0.0030569475246994943,-0.0038656464981835005,-0.0012244623626911488,-3.985601633869747e-05,-89.46721413151505,2.718480928555348,0.03624783986533385
1546877120.804599,0.00017553839604246956,0.036310254582591864,0.0030705307761226502,-0.0025920923953326462,-0.00021649782725330802,0.0003414474492926053,-89.47194689751477,2.709977223666305,0.036310254582591864
1546877120.904599,0.00013511748400298453,0.03611501270261109,0.003051534707726874,-0.003287257530267379,9.32704674256454e-05,0.0016545682879239797,-89.47610286939467,2.700768574146094,0.03611501270261109
1546877121.004599,0.00016801556700367717,0.03667821747860187,0.0030536062971483467,-0.0026935752145021614,-0.00033728668657789665,0.0013934695790471148,-89.48049133624993,2.6921809793165417,0.03667821747860187
1546877121.104599,0.0001590257429359978,0.03664516824228683,0.0030485849583236748,-0.0030908024234049367,0.0003579462880526322,0.0010711607746663394,-89.48434011169151,2.6841417405117824,0.03664516824228683
1546877121.204599,0.00031969957489682335,0.03942402636631656,0.0029277146716474626,-0.0016730606628470328,0.0009022788951786538,0.0028070104731956536,-89.48388449086328,2.6733119692094975,0.03942402636631656
1546877121.304599,0.00017031827429572673,0.037116470678185534,0.003032425258648046,-0.004414970551491518,-0.0008855427915504208,0.000815549818867849,-89.49217903910504,2.6681389722856346,0.037116470678185534
1546877121.404599,0.0001508780658292522,0.03655654190263131,0.0030671924737648614,-0.0032350890962211704,0.0003404654680862248,0.0010799042929455886,-89.49775796540725,2.6586297126264373,0.03655654190263131
1546877121.504599,0.00019601477762306205,0.03738129894233266,0.003083835732939882,-0.003193851898147999,3.029753951592362e-06,0.0017387709034246237,-89.50304025917171,2.64884890611269,0.03738129894233266
1546877121.604599,0.00015843015252956752,0.036871736845235314,0.0030516053105421495,-0.0038554187231038687,3.194972371669969e-05,0.002359172058831766,-89.50687840700029,2.6399475833754567,0.036871736845235314
1546877121.704599,0.00017502863672141965,0.037182578741092376,0.0030717059595812735,-0.003369624387536852,0.00029752842713718107,0.001801309882327325,-89.51154073827233,2.6320529152435497,0.037182578741092376
1546877121.804599,0.00019003130594145542,0.03746152484297915,0.0030622834397321195,-0.003994353044242412,0.0003855446799504316,0.0017170653688015477,-89.51571586355846,2.623071996805136,0.03746152484297915
1546877121.904599,0.00014556953830522907,0.036713829134910315,0.003066809489876006,-0.0035321224733993843,0.0003508612783110917,0.001629200416334534,-89.5195751711999,2.6153809229634235,0.036713829134910315
1546877122.004599,0.00017895622205607012,0.03749809007049676,0.0030389004499021747,-0.0030918281337777597,0.0005857734350069446,0.0022306716432092303,-89.52254922958629,2.6082286516546294,0.03749809007049676
1546877122.104599,0.00023033316804079113,0.03826306448999496,0.0030958603657832524,-0.0035657116861914136,-0.0007751737550219422,0.0007947482846523866,-89.52773702925327,2.5998041167833605,0.03826306448999496
1546877122.204599,0.00017220354965704504,0.03722332181426146,0.0030424258883061596,-0.004515176309121671,0.001068351738437653,0.0030801467928281995,-89.5297287932591,2.592478214660563,0.03722332181426146
1546877122.304599,0.00019660693112702018,0.037851879792925563,0.003048026104328324,-0.003584365243789559,-8.586645688495425e-05,0.0017105882795000577,-89.53510554887242,2.5838566311320545,0.037851879792925563
1546877122.404599,0.00023780507959944867,0.03917231050068269,0.0030545862596089075,-0.0027289653296127805,-0.0007229632077359156,0.0018535638921504775,-89.53760785279977,2.573972318325441,0.03917231050068269
1546877122.504599,0.0007999862346170503,-0.002771364056570526,0.003045296855726182,0.0009878863064557042,0.0030342484357956537,0.09733245502627946,-89.50994612511904,2.565584593489777,-0.002771364056570526
1546877122.604599,0.0010904336651707542,0.007034077489340594,0.0025274126021831073,0.0005562818089410762,-0.0030676516517146625,0.1335571916624962,-89.52126395273726,2.539014998185966,0.007034077489340594
1546877122.704599,0.00014639344749135238,0.11650606716555505,0.0034090659186820217,-0.005273298882409125,0.0007482408441105621,0.1261481579565113,-89.53007488709822,2.5551746182383868,0.11650606716555505
1546877122.804599,0.0009856308053351691,0.015616183821223154,0.0043948117416214745,0.0028790524380621694,-0.011616083941090457,0.22450833069257742,-89.51016403643465,2.5127430036832163,0.015616183821223154
1546877122.904599,0.0006227812829979144,0.06719633289269772,0.0036029215155954793,-0.005959273416468299,0.008642073162521042,0.30066738230522766,-89.54229240077869,2.5026264880732727,0.06719633289269772
1546877123.004599,0.0006317732419707988,0.14907426886832495,0.004137020108053118,0.00022364274253795758,-0.010641926363971373,0.2887359670657416,-89.58000092931886,2.48900177556676,0.14907426886832495
1546877123.104599,0.0003876509704093108,0.16159971837071274,0.004084172029010659,-0.003827174276534121,-0.0012336528335830316,0.32542955910476395,-89.57504320912665,2.4499358811931597,0.16159971837071274
1546877123.204599,0.00010868433058111449,0.20022151975052122,0.004319872586469223,-0.001895317180170721,-0.004275404741257593,0.3224896856564361,-89.45741149501839,2.5762087054472764,0.20022151975052122
1546877123.304599,2.060433994632648e-05,0.15581459365871367,0.0041826414485842955,0.003309403696151686,-0.000618163650202824,0.30590420674927343,-89.40896701310615,2.549844553108049,0.15581459365871367
1546877123.404599,-0.001430888334473795,0.564745066161598,0.0038067055187500157,-0.05964274293650207,0.006845714683014931,0.29297402057740063,-89.60267524285027,2.6171533854012545,0.564745066161598
1546877123.504599,-0.00797196058905451,1.956078320105727,0.00402812527356932,-0.037751925693004416,0.0059267712216120065,0.28579533909853294,-89.59085956302545,2.5545589062453433,1.956078320105727
1546877123.604599,-0.01085009589676864,2.405903936548987,0.0033150130864048216,-0.011474783977766618,0.0026117199944575864,0.29072557577279934,-89.72731056314103,2.4836786129003907,2.405903936548987
1546877123.704599,-0.011600297869679763,2.3929429320616658,0.002048685297918392,0.014348547236017476,-0.001647640686102745,0.2807868897320351,-89.94435869848802,2.4497960310240505,2.3929429320616658
1546877123.804599,-0.012172486633253718,2.3814132593656736,0.0009807009397272814,0.0016358691641168703,0.00032371319077513375,0.2439832501416936,-90.120073425451,2.3762269295314686,2.3814132593656736
1546877123.904599,-0.012951294382188632,2.3497725476850637,-0.00023874075683389274,0.0023311545860560962,0.000898627833754912,0.25778109596599663,-90.3576469692208,2.2851210044720154,2.3497725476850637
1546877124.004599,-0.013808376946079013,2.2802693831125866,-0.0012601786133223545,0.003116404924580959,0.0005506062453599829,0.24854396831202244,-90.47512153047072,2.2114182785971637,2.2802693831125866
1546877124.104599,-0.014598701543889614,2.262248722409406,-0.002218328850638729,0.0022398926773757434,0.0014858102033249686,0.25631580417174316,-90.56486120611599,2.063535897344653,2.262248722409406
1546877124.204599,-0.015499599476858798,2.26010356720363,-0.0036219182607200957,-2.198343358257541e-05,0.000855745315650908,0.30153020291445387,-90.72948895532257,1.8178928946044217,2.26010356720363
1546877124.304599,-0.016619874242877513,2.249592058017662,-0.00470990444847553,0.005030517835339243,0.0013672475467009807,0.32434048561172685,-90.83642797795997,1.5560591810170956,2.249592058017662
1546877124.404599,-0.017539149537868868,2.228982855591213,-0.005536816342228317,0.006803676171531112,0.0021885859335592037,0.3703183680834297,-90.85521032694969,1.4194617833067542,2.228982855591213
1546877124.504599,-0.018495056376025137,2.2717010137127382,-0.0064148093124891115,0.011074196295504265,0.006149042770747534,0.423174739787599,-90.87981467885065,1.449960535800793,2.2717010137127382
1546877124.604599,-0.01943062311462821,2.2462627813069513,-0.007436810898195362,0.005621326850481371,-0.0034776838693001827,0.4085708264455469,-90.91726643116323,1.4846995386349484,2.2462627813069513
1546877124.704599,-0.020566040363131345,2.3245560264416385,-0.00851880812197999,0.003872655543604388,0.003330231346962788,0.30183053039728147,-91.05371828240868,1.4000298900423036,2.3245560264416385
1546877124.804599,-0.02187095134200585,2.21222219471954,-0.009323865676855343,-0.0018634974832057779,0.008935006652736947,0.3630760287416624,-91.04938558679194,1.367654331019325,2.21222219471954
1546877124.904599,-0.02308858170400335,2.191402058959288,-0.010321855102951522,0.0037814101763359296,0.006461653373982215,0.38394786308534107,-91.04078594950809,1.330190286277965,2.191402058959288
1546877125.004599,-0.024221369713236254,2.241793819049096,-0.011505497800697484,0.008007417164436596,0.0017791004957801908,0.3839533004664299,-91.00084423012254,1.348882632453059,2.241793819049096
1546877125.104599,-0.024765623694446848,2.2181421332023223,-0.0121319048576057,0.013099234385485086,0.004251421815912448,0.36015697618743225,-90.93176362223615,1.3695409711213506,2.2181421332023223
1546877125.204599,-0.02533742315229368,2.1651118588695817,-0.01338341158427854,-0.0005883961757746966,0.011992910624901909,0.34710460911871766,-90.94872416039334,1.4630868932625083,2.1651118588695817
1546877125.304599,-0.02631653645834903,2.21602699768031,-0.01419820888871191,0.0030423575059289098,0.0058356910417981245,0.2993702752004627,-90.98292348984431,1.4716301519373725,2.21602699768031
1546877125.404599,-0.026919811667058167,2.0931320093874746,-0.014966700782274123,0.0043191657351864185,0.010522153902288547,0.36144744488547775,-90.97299766811031,1.4411272652548044,2.0931320093874746
1546877125.504599,-0.028012993106448614,2.079710425009474,-0.015568958449239821,0.004025955166247123,0.002177067989161942,0.38994587923950114,-91.0256082340606,1.3682380974237665,2.079710425009474
1546877125.604599,-0.029260541458804995,2.1089057438538488,-0.01603899596605999,0.005887372232333545,-0.016569233662442746,0.4155501824786382,-90.96587179509326,1.3108261546419755,2.1089057438538488
1546877125.704599,-0.030103414812869236,2.146660473274401,-0.016733789233797324,0.013028417712596998,-0.0030861440071619064,0.41956708398869536,-90.97318041898015,1.295286813013022,2.146660473274401
1546877125.804599,-0.03088231677484299,2.166715718874666,-0.017211622898471134,0.002879301417586515,0.00015278205134995008,0.4206491286854014,-90.93370599548484,1.3073042629086584,2.166715718874666
1546877125.904599,-0.03280769176833696,2.184662840264052,-0.01964796897403189,-0.002284948269654428,0.010206876445588431,0.4581521682381672,-90.97564804428968,1.2729741620860835,2.184662840264052
1546877126.004599,-0.03426906520519843,2.2779160227780717,-0.02157784370028083,0.005968168928645865,0.0013836137865741267,0.41413360491202333,-91.04603649099822,1.1631070792981502,2.2779160227780717
1546877126.104599,-0.036913629972769424,2.422496620933108,-0.02349003140601491,-0.03671483624584621,-0.0007139403785186927,0.42987682267435107,-91.08835543352262,1.1835929372886802,2.422496620933108
1546877126.204599,-0.047385560590025036,4.310330737672061,-0.024656735248089617,-0.07647201561513049,0.01131299589084002,0.38499042612654477,-91.04408388699696,1.202677546742757,4.310330737672061
1546877126.304599,-0.054706737931601725,5.493453444793936,-0.02594315289719358,-0.01420706463222616,0.0020727446628980815,0.3866071292660158,-91.04175215786722,1.2660577518442933,5.493453444793936
1546877126.404599,-0.06239334759794536,6.271468133862712,-0.02654538663423999,-0.04431330517172052,0.008743440245649577,0.424262724800983,-90.91352931723392,1.2931527585164808,6.271468133862712
1546877126.504599,-0.07477207907371025,8.001386662295657,-0.026667027606871105,-0.10995902919714522,0.006421106924992875,0.3759278371149038,-90.84166111029168,1.377679433734968,8.001386662295657
1546877126.604599,-0.09196244437205636,10.568680828959595,-0.026990989309533246,-0.12573179244119248,0.007140760463184833,0.36509063751033705,-90.76099464195188,1.4448824357485441,10.568680828959595
1546877126.704599,-0.11477924647535058,13.899580549961936,-0.025530054015551615,-0.19935948099307987,0.007835613625376792,0.3618450782624862,-90.35548040628096,1.4855757224987116,13.899580549961936
1546877126.804599,-0.14443782630907445,18.14388713854311,-0.025650641411149137,-0.22273125012347353,0.014220882039305303,0.33763042487690476,-90.28139859945726,1.1367029816312355,18.14388713854311
1546877126.904599,-0.17514630341563503,22.353780250919055,-0.02225521861658864,-0.23288553026718375,0.004402628344942292,0.3492957113754508,-89.96685594378924,0.9502264366006407,22.353780250919055
1546877127.004599,-0.20942966220380987,26.73839350601676,-0.018931486569265285,-0.238202060211806,0.0018257237994848872,0.3447490670769824,-89.59408313220344,0.3464483707295915,26.73839350601676
1546877127.104599,-0.24260505326560894,31.08098644798533,-0.021696336158013897,-0.2111652013113465,0.006113478245142806,0.29103595247757014,-89.74615131005397,1.2884874976288814,31.08098644798533
1546877127.204599,-0.27291551944011755,35.15270970312056,-0.0229571213680918,-0.19449799491043823,0.02194647640846826,0.312929106500706,-89.73838973161477,1.0201294476055909,35.15270970312056
1546877127.304599,-0.31373887297334735,39.979686803216694,-0.021488309577634007,-0.3398311697863962,0.014835898388634841,0.33746442274624433,-89.59654482787084,1.3458889175469164,39.979686803216694
1546877127.404599,-0.3602380519592961,47.357332687886654,-0.020765068208039136,-0.34298077439137514,0.003836987348968819,0.32226674674694156,-89.63086612441347,1.316059231730731,47.357332687886654
1546877127.504599,-0.4008843112153245,54.707516085566674,-0.020835547130386496,-0.34215763464220217,0.012984361161163131,0.13076446103627865,-89.61727942958103,1.2205616153630496,54.707516085566674
1546877127.604599,-0.42586098580296083,61.63258116637731,-0.021266270070945194,-0.35181408564261557,0.013122550109983783,0.017353220753800257,-89.59417589202813,1.232186760598494,61.63258116637731
1546877127.704599,-0.4427681445582956,68.76212071338531,-0.021144682592806198,-0.3603199266345676,0.015969300979650564,-0.010265453391010268,-89.63289084075754,1.2273190920505337,68.76212071338531
1546877127.804599,-0.45725237340716274,76.23644519651448,-0.021005454069757342,-0.36468997292948263,0.0037038032993491656,0.029176084439217882,-89.677590365936,1.1685050206449918,76.23644519651448
1546877127.904599,-0.4705419272079002,83.3451220085232,-0.02040510244129574,-0.303510900826083,-0.0008648517020170728,0.11448128414536873,-89.61658902232419,1.201432859166346,83.3451220085232
1546877128.004599,-0.4869401586090639,87.68604903922322,-0.020231175302650246,-0.10058640138956239,0.001089531137279597,0.1628881274321283,-89.68193250777489,1.2704796231092303,87.68604903922322
1546877128.104599,-0.5077446619278193,88.8122590530957,-0.020362505706492506,-0.02014157825740233,0.0032953172408624384,0.24199569667139814,-89.6605556148429,1.3364141517994244,88.8122590530957
1546877128.204599,-0.5368057593429383,88.82024617700874,-0.02100220895287177,0.004695710541571217,-0.0008165194738808472,0.29339142198549606,-89.74793017151595,1.3426721728344553,88.82024617700874
1546877128.304599,-0.5693481788426378,88.82833290991915,-0.021406175105313088,0.009298281457468038,0.0007884797829184611,0.30915155641558184,-89.77587426490147,1.321545536879747,88.82833290991915
1546877128.404599,-0.5979649888784688,88.83224372374664,-0.021550494189711607,0.009092721609525345,-0.004499863424083609,0.33315737031524334,-89.7355457348964,1.3860178690966052,88.83224372374664
1546877128.504599,-0.6357458552065425,88.81568560147382,-0.021165681139142675,0.0077125909494891,0.00558460910987263,0.40136376908093335,-89.66543859173119,1.3820973098797962,88.81568560147382
1546877128.604599,-0.6785725161013223,88.84309063981219,-0.02111009830317736,0.012142127892918532,0.006446519853257508,0.425674479554005,-89.65738393774713,1.3721976958285722,88.84309063981219
1546877128.704599,-0.7218226309473221,88.85252603325767,-0.020859272622670746,0.005099321798728711,-0.00155289921770048,0.4042671718439389,-89.66746381611966,1.388101608793878,88.85252603325767
1546877128.804599,-0.7604835577578183,89.94867236833552,-0.02095249243484307,-0.13324045442352608,-0.006291811570147506,0.37231618279977174,-89.75377096698404,1.5347081612940674,89.94867236833552
1546877128.904599,-0.7982619740042207,94.42171102757123,-0.02024361690746335,-0.24326169087752783,0.007536057514349772,0.3692635676545134,-89.69809662275031,1.5079112292880579,94.42171102757123
1546877129.004599,-0.8336013474177519,96.73041208680037,-0.020445538560998743,0.015209591324251034,0.0016898714270739182,0.33331725564374903,-89.71899772839588,1.42401856399974,96.73041208680037
1546877129.104599,-0.8648495806763719,96.31764029651609,-0.020144437796192117,0.0007941941979671904,-0.007443241350906965,0.31889044285819734,-89.66678740761122,1.5729183902083284,96.31764029651609
1546877129.204599,-0.8972400387275395,96.32193811856453,-0.020094773230705933,-0.004500001062616257,-0.0015488196029509551,0.3394365286577036,-89.60077819793894,1.6204708063702673,96.32193811856453
1546877129.304599,-0.9331304976734305,96.39628296197635,-0.020636649265707387,0.008616831844573857,0.004319711265411462,0.3547828017058631,-89.58489140914797,1.5511808711743797,96.39628296197635
1546877129.404599,-0.9684499317889422,96.3831179853594,-0.02115925414854392,0.006123822100135317,0.007532699366971485,0.36572978443702564,-89.58169154866285,1.5009518057528526,96.3831179853594
1546877129.504599,-1.0062896961795764,96.35975116965231,-0.021549772646034138,0.00930579509708828,0.013635038785265811,0.3986479290235854,-89.57617550862945,1.4344898086393338,96.35975116965231
1546877129.604599,-1.0494441789764803,96.36142298189465,-0.02227615017001048,0.00048800705497169727,0.02161048219008994,0.44833125915599886,-89.60868247384465,1.3556908626739337,96.36142298189465
1546877129.704599,-1.0953451736486777,96.41911508765877,-0.0226203070654631,0.015243177896327897,0.02116886955137734,0.4511320330473869,-89.64655084305714,1.2597403567060683,96.41911508765877
1546877129.804599,-1.1388332394856504,96.46863174958568,-0.022225666218121786,0.0032059614909166773,0.005192335348249212,0.38910114294953885,-89.65286912646674,1.3510226402420353,96.46863174958568
1546877129.904599,-1.1749032294961892,96.40313174872699,-0.02146787232803359,0.004675819558577428,-0.0018281934012493156,0.3578202820501839,-89.58514575325898,1.4104936751979489,96.40313174872699
1546877130.004599,-1.2112012349584262,96.3615665133446,-0.020871225443902984,0.00637189104878559,0.003953167088964502,0.4090577382115221,-89.55670164201685,1.4587356863748395,96.3615665133446
1546877130.104599,-1.2523477843869215,96.42425250085276,-0.020755264765739672,0.010458189630227994,0.0013639736665375698,0.42580714894402333,-89.54319606602945,1.5885167651218932,96.42425250085276
1546877130.204599,-1.2941928745073719,96.42671655399887,-0.02001344189323756,0.005845949310168484,0.0006618397490555203,0.4399453248616494,-89.47730807649864,1.621867581433576,96.42671655399887
1546877130.304599,-1.3405464918360388,96.46924877261054,-0.01964489874060359,0.01125294763360619,-0.003379066317661973,0.49204569682233734,-89.42102132639917,1.6094648401106626,96.46924877261054
1546877130.404599,-1.3907978813218773,96.49879342037464,-0.019365477180558255,0.007202107647069716,-0.0053021082387164666,0.5046205290393274,-89.39002470457127,1.5602380749525242,96.49879342037464
1546877130.504599,-1.4425126398177563,96.54652482118026,-0.019118573192518667,0.007675919929655626,0.002137290887444422,0.5368768414881782,-89.32270109996054,1.4065204904568815,96.54652482118026
1546877130.604599,-1.4977517255760642,96.54085893462667,-0.019234600020529742,0.003337691786287814,0.014359997539861993,0.5574198913869898,-89.31702075526422,1.5205282353448168,96.54085893462667
1546877130.704599,-1.5501953778664732,96.61628123840298,-0.01901878295844423,0.006149713666882225,0.017058613712832044,0.47011873109928265,-89.37317272575494,1.5293620873533782,96.61628123840298
1546877130.804599,-1.5944486449877058,96.31334713743891,-0.018101788524743465,0.07889214924292257,-0.007862071918764398,0.4362968950498939,-89.35935347051141,1.4156452436054763,96.31334713743891
1546877130.904599,-1.6390803674921526,94.294287362561,-0.01702109604377254,0.04768015406140371,-0.006363605348119241,0.435358375129896,-89.31746579393119,1.5402424823619663,94.294287362561
1546877131.004599,-1.682108503327155,94.52919631371239,-0.01689225246874371,0.005167780116982258,-0.010511213514392475,0.4361700200020841,-89.29241752812028,1.4905565798073472,94.52919631371239
1546877131.104599,-1.72973598212661,94.58333247776699,-0.016917760494135483,0.005194553324479323,0.003940544292420194,0.5060108010578739,-89.27953172594307,1.4878271148086093,94.58333247776699
1546877131.204599,-1.7815973986954903,94.58943526094606,-0.017313849618264453,0.0021119315483680546,0.014717923729193248,0.5447018333228308,-89.30417649887963,1.5292345215124854,94.58943526094606
1546877131.304599,-1.8371159575419727,94.61070093597824,-0.018080122046326925,0.010637234956443314,0.03716853386333632,0.5594759936720439,-89.4371224235779,1.5503213368277349,94.61070093597824
1546877131.404599,-1.8917687181379597,94.68575300563613,-0.0186323061063886,0.008667518932431569,0.03426690325879663,0.5602770486920208,-89.40318353245561,1.6004705102436811,94.68575300563613
1546877131.504599,-1.952392231899422,94.69869019849523,-0.018761806708942043,0.009641516515842448,0.03501875408188503,0.635099668913645,-89.37604734184802,1.6801615423829817,94.69869019849523
1546877131.604599,-2.0156869116982596,94.7669053693314,-0.019748994684332898,0.02641086496661276,0.0262713228291592,0.6204341777509297,-89.53640176989623,1.6011423289528435,94.7669053693314
1546877131.704599,-2.0743588989100705,93.37149431939973,-0.018956318719634654,0.12098165191835791,-0.0010823554440116518,0.5549162593291672,-89.5164124256513,1.4731847943468113,93.37149431939973
1546877131.804599,-2.1313244580766417,91.90878706188352,-0.019003018570264953,0.055859204728780164,0.006937134028271858,0.5825388633698294,-89.50088142046135,1.34725926847912,91.90878706188352
1546877131.904599,-2.19127250534474,91.67221491003474,-0.01931652828688299,-0.000775203395018175,0.012170138193611488,0.5917892068413071,-89.61072903552726,1.3530218824796272,91.67221491003474
1546877132.004599,-2.2483262430751445,91.90698111324005,-0.02006320328426927,0.021322220467546504,0.008221230761011155,0.5709858346897306,-89.67957461436087,1.3755456686462464,91.90698111324005
1546877132.104599,-2.3047172456466547,91.82231647309274,-0.02006297722424907,0.014681315560439955,0.013319584176777841,0.5593034136045539,-89.70011666728898,1.4574751451889538,91.82231647309274
1546877132.204599,-2.358740038340647,91.86067224427858,-0.019847560385627166,0.00574723108748491,-0.006400834591625439,0.516243996118869,-89.6753350780595,1.4685036182681621,91.86067224427858
1546877132.304599,-2.410517161944561,91.80845052566286,-0.019556195473339307,0.0048703480763605846,0.017910658691109988,0.5316252200535382,-89.63800476493162,1.5559257007878606,91.80845052566286
1546877132.404599,-2.465431441727574,91.85416368106227,-0.019674670014170538,0.007165158718282555,0.006465838175350718,0.5510689346359378,-89.66724170648065,1.458928744328341,91.85416368106227
1546877132.504599,-2.5223637147502345,91.8900589077217,-0.020052397823526687,0.00825347851769686,-0.0009139039224424551,0.5926921710768992,-89.66732284610626,1.4840899910090268,91.8900589077217
1546877132.604599,-2.58431087071785,91.93909870297561,-0.019990353692361268,0.011178288559568452,-0.004871279949392909,0.6274774197299903,-89.55784992085187,1.462204512489748,91.93909870297561
1546877132.704599,-2.647415457727706,91.99107592412373,-0.019540415305173253,0.014020648360055316,-0.005728645881239115,0.6094719578680694,-89.47642058075223,1.5118006880182784,91.99107592412373
1546877132.804599,-2.7053454921818973,92.02769241062308,-0.01849547491044687,0.009325895820674968,-0.0007867330054134765,0.5353048856026347,-89.35860143008533,1.454946856958337,92.02769241062308
1546877132.904599,-2.759304031711718,91.88893486757304,-0.018073232131732623,0.007640965130668848,0.007164564945332709,0.5590454754407037,-89.3318306471279,1.4850356489829164,91.88893486757304
1546877133.004599,-2.8167033457973765,91.9197976743202,-0.01868130234856019,0.01013694151897288,0.01141946660973004,0.5676474743330266,-89.34970516070676,1.5384665788933969,91.9197976743202
1546877133.104599,-2.874767109751694,91.99020441305512,-0.018339454493251035,0.019185702555032214,0.0036275725710830883,0.5627215078312869,-89.27286109336558,1.5952561608682032,91.99020441305512
1546877133.204599,-2.9315704338167525,91.9687566508997,-0.018416725526229926,0.016764053946317626,0.009516770849898144,0.5541228885564826,-89.24511162617694,1.5529439430818583,91.9687566508997
1546877133.304599,-2.9918241447454834,91.92999193216198,-0.018759159301681108,0.012259458513639028,0.003939127885072752,0.6042396771858306,-89.33691490567891,1.6179689707154359,91.92999193216198
1546877133.404599,-3.0559368606402364,91.97006713279973,-0.01847379472757837,0.01172835224393586,0.009373340438635408,0.6537998377791836,-89.40583613660137,1.6682432354646022,91.97006713279973
1546877133.504599,-3.124255549911164,92.02871001875481,-0.018717755983352208,0.012612245577435436,0.0028337441393357725,0.6865610913682636,-89.49579380967141,1.733289989130235,92.02871001875481
1546877133.604599,-3.1939121467818365,92.04374085693523,-0.018752049455665748,0.014065300138480463,0.018026381043488547,0.6965050435579927,-89.56870211019844,1.818299093438889,92.04374085693523
1546877133.704599,-3.263811193763166,92.00777703300122,-0.0195372960335242,0.01790967166438844,0.02896741056708951,0.6870574812481492,-89.59299098076433,1.786425805210742,92.00777703300122
1546877133.804599,-3.33086241120643,92.04664773039184,-0.019665760165419623,0.00030365163149770395,0.002479712612692442,0.6601409684479022,-89.69680221557853,1.6491066590356667,92.04664773039184
1546877133.904599,-3.3921109839933123,92.19856075244029,-0.01885647692065143,0.008246480903044565,-0.005606748965894857,0.5399613405028527,-89.75246958800558,1.573542420291107,92.19856075244029
1546877134.004599,-3.4432500660302474,92.20334142524874,-0.018751671037043213,-0.00019367119668260385,-0.0026671992389619738,0.5117160115802288,-89.6645711047887,1.488835348455818,92.20334142524874
1546877134.104599,-3.4977806575217745,92.15507751126025,-0.018224736539997465,0.005923623044380487,0.009087741578787195,0.5679121543919424,-89.57252898483291,1.4584134535181805,92.15507751126025
1546877134.204599,-3.5569073160406655,92.24645829514385,-0.017211906273913676,0.0080730789298919,0.0124709308465348,0.5896322551983227,-89.45176938933439,1.4939746587536447,92.24645829514385
1546877134.304599,-3.6175125857255646,92.2914141587691,-0.01638040410373439,0.010619737780204913,-0.0024891696108873453,0.605172399183174,-89.38807607227069,1.5898427056195572,92.2914141587691
1546877134.404599,-3.6806385811621625,92.351736181423,-0.015319829908182127,0.009793746226486214,0.00356494914607788,0.6194939640511538,-89.34280414502885,1.5127491191688913,92.351736181423
1546877134.504599,-3.742316046762536,92.36795465113728,-0.014781594291359989,0.017659702405884832,0.01165185327795832,0.6199159669727958,-89.2019704536837,1.4488855491310197,92.36795465113728
1546877134.604599,-3.7996666753884343,92.7058775057185,-0.01379223606225159,-0.06390457499100254,0.00032382446696663757,0.5053280190143185,-89.13992784133293,1.4860525779983609,92.7058775057185
1546877134.704599,-3.849916196637631,96.12711103561348,-0.013301256614808908,-0.22316794636173137,0.01550929121140272,0.4829988866843486,-89.0490969059826,1.4873880513489521,96.12711103561348
1546877134.804599,-3.895770484284107,100.68013051658188,-0.012549977939811678,-0.21561284982785547,0.00568817293752098,0.45766923388068714,-89.06837695476756,1.4724985684182021,100.68013051658188
1546877134.904599,-3.9384341999693504,104.73337067006929,-0.011620577364939395,-0.2224069182756422,-0.005381454365402636,0.44528137708678456,-89.07207182704055,1.4535018797903485,104.73337067006929
1546877135.004599,-3.9766147468103727,108.8540124432521,-0.01166877831082106,-0.17725809047347643,0.014191490410638202,0.4415732141870538,-89.06053828017312,1.3716485366204751,108.8540124432521
1546877135.104599,-4.0096905902432765,113.03877588996147,-0.011787361413484214,-0.17696369694213343,0.008390630056740515,0.3726362943245371,-89.15178450364583,1.3449479689089214,113.03877588996147
1546877135.204599,-4.032903289541604,117.06608276190332,-0.011615328319732915,-0.18105992744482832,0.0012689339788869965,0.2690627258157976,-89.22664647173067,1.4118067904129088,117.06608276190332
1546877135.304599,-4.045238967651633,120.97585701148334,-0.011271913020899138,-0.19177658545207726,0.012057701581456236,0.22541530812041655,-89.13212756836691,1.394706900320006,120.97585701148334
1546877135.404599,-4.059923883865737,125.10269924056496,-0.010915142464748333,-0.17797760119767175,0.010590729703853963,0.3428777264654698,-89.16268402917498,1.3889306905424392,125.10269924056496
1546877135.504599,-4.075036498979661,130.30305674501048,-0.011504116379188386,-0.3373443763819216,0.0248484833855385,0.39013598984089687,-89.25920093518361,1.5941513674125762,130.30305674501048
1546877135.604599,-4.077244321938314,139.3159993786015,-0.012168442687910461,-0.45855844206020685,0.03437339613016607,0.36518226951175176,-89.29385302195192,1.6074847384692728,139.3159993786015
1546877135.704599,-4.077836392866571,147.18817685172323,-0.012819969439676313,-0.3189412605986777,0.03663950152472564,0.42865932827397196,-89.25778234281047,1.6009569830037376,147.18817685172323
1546877135.804599,-4.078933993228201,153.01414732668115,-0.011126867666574175,-0.2634311408712157,0.002615974545219883,0.42622389481339706,-89.22731494295873,1.5091323891079116,153.01414732668115
1546877135.904599,-4.0891005468185675,157.98860598965993,-0.0031875105102708978,-0.26735420784441855,-0.010628678327819397,0.5039126715080166,-89.33412243862081,1.491851976774472,157.98860598965993
1546877136.004599,-4.070906049840301,162.8667371215817,-0.010110250092701355,-0.26414947394701255,0.010503967740562586,0.4680804028006885,-89.13717372877696,1.3509275194669879,162.8667371215817
1546877136.104599,-4.062694333570276,167.8263920010335,-0.009512118556903312,-0.274226688016462,0.010516345738752757,0.4866332485980192,-89.14718217749216,1.3665649993227933,167.8263920010335
1546877136.204599,-4.051223069127571,172.56466365382252,-0.00864891270860769,-0.24082732603061058,-0.021941375511982737,0.4919847011242817,-89.19086104942498,1.3524785630630183,172.56466365382252
1546877136.304599,-4.0370215035943895,176.90126109597628,-0.007933841292254502,-0.18102208248665783,0.004742337690983212,0.4772372731054288,-89.11675232162288,1.3428267412398702,176.90126109597628
1546877136.404599,-4.022339018536001,-179.55589840780073,-0.006994329896684555,-0.16726841827283298,0.002008352107130353,0.45600701822442646,-89.07913924705171,1.3409551610282682,-179.55589840780073
1546877136.504599,-4.008302020855653,-176.67593713533586,-0.006247946724474937,-0.14775831978022297,-0.010953652397961717,0.4598385404352814,-89.09438541034945,1.3570436372801506,-176.67593713533586
1546877136.604599,-3.997511965245998,-174.7722179235483,-0.006573750219548166,-0.02135248273917641,0.008955283904332088,0.41113235760198474,-89.11587677856265,1.293211426797001,-174.7722179235483
1546877136.704599,-3.995058896417166,-175.15659172855675,-0.005929421540210299,-0.005102073646011879,-0.007052850156857755,0.3979342441994736,-89.14196287838428,1.3555252480202515,-175.15659172855675
1546877136.804599,-3.9921600022598653,-175.21180915213344,-0.005151789887986975,-0.006167784384022209,-0.0009083531216398299,0.45250583772784836,-89.16882478955347,1.4450942399059694,-175.21180915213344
1546877136.904599,-3.98966027341135,-175.1241189716914,-0.004871212621794877,0.006088360959012664,-0.010102560892202656,0.45493167602323986,-89.21795738057645,1.427620768390246,-175.1241189716914
1546877137.004599,-3.986797282344565,-175.13186320401923,-0.0039007177267520446,0.009170702043197776,0.009074407667564444,0.44882667143475935,-89.19044232152993,1.4975865990825978,-175.13186320401923
1546877137.104599,-3.9837780188669067,-175.09940760993635,-0.004822888799849309,0.0007948187542275212,-0.009631366359265663,0.3885772718581184,-89.27607249176332,1.5096760844070074,-175.09940760993635
1546877137.204599,-3.981176003137058,-175.18824824226667,-0.00463820421179076,0.001992074891821552,-0.010486761207297223,0.40146352734828455,-89.23274547623386,1.4541695683694287,-175.18824824226667
1546877137.304599,-3.9774436862914246,-175.1232217623629,-0.00456048407371362,-0.0008570052162137697,-0.0013306357054154788,0.4639800861860388,-89.2687366745317,1.4743818728216473,-175.1232217623629
