timestamp,x,y,z,vx,vy,vz,roll,pitch,yaw
1560500330.7996094,0.13435561056947803,1.171473723650232,0.043385934325578204,0.23706609181076277,0.08180525322270736,0.08995125186668594,-14.683567054552828,-3.3666836356145966,1.171473723650232
1560500330.865392,0.1584144453426769,1.1992722503286453,0.006970557010252877,0.2606820092163022,0.08569375324368463,0.01876719386788129,-31.031403707243427,-0.28708719093760776,1.1992722503286453
1560500330.9975235,0.3376667884838175,0.5611370578361522,-0.04006994815844302,0.5031167524251402,-0.012850239123841818,-0.08762014886814005,-39.45078171625495,4.370288451650926,0.5611370578361522
1560500331.0634627,0.42630441892320653,0.005353083627730138,-0.03931455757018004,0.5964331873853282,-0.13579853330981137,-0.11399650039957626,-30.972880602306056,3.0557690940060933,0.005353083627730138
1560500331.1288886,0.439819102947316,-0.08912841208416503,-0.03168568492525222,0.5278439633344251,-0.1826070631768717,-0.09939259716207519,-33.733566935498565,3.2476500248185465,-0.08912841208416503
1560500331.2600324,0.4665821789409948,-0.3680693584694004,0.0059788492460197094,0.43771164870121454,-0.2420279571471321,-0.04731093205212827,-38.707312179218285,4.7428434525165555,-0.3680693584694004
1560500331.3262532,0.49156541190546565,-0.7879254825548144,0.028523465864434036,0.40408691352191634,-0.3598872616394203,-0.06030747029622008,-40.1729493033034,4.69806746599109,-0.7879254825548144
1560500331.4558954,0.5741374072299614,-1.3874495009293069,0.04784634843423407,0.47444443055555485,-0.4700728694673037,-0.08019819132728331,-41.23155380676236,4.227317006613005,-1.3874495009293069
1560500331.520875,0.625965185641044,-1.5911027065228598,0.06854234604268612,0.5208540441168878,-0.5112502065581326,-0.052847859933492086,-42.25542475105754,3.719945489221253,-1.5911027065228598
1560500331.64741,0.7007433513280126,-2.1580172509578546,0.11468291464456563,0.5067124472083012,-0.5467118294853066,0.007427197462679114,-43.278479786501876,2.7354247037214034,-2.1580172509578546
1560500331.711075,0.7286815029812079,-2.5503799235429416,0.14641225983334433,0.48158152039215474,-0.6020667546507436,0.02762827769473114,-43.90788975764962,2.0632432169200676,-2.5503799235429416
1560500331.8416424,0.8328619613350234,-3.3500762461445825,0.19195822951302435,0.5534158041754692,-0.6858465411597873,0.023033355541309197,-43.886858026917636,1.2396324152623157,-3.3500762461445825
1560500331.9070394,0.9119923006689162,-3.846121034162552,0.20744611433741694,0.6160536111324382,-0.697655602346938,-0.0057676776680684605,-43.18443352778798,0.3602321467564315,-3.846121034162552
1560500332.0372884,1.0056585818583046,-4.869831916699883,0.26979603951393755,0.6001190706418443,-0.7931093168224516,-0.02840228569577352,-42.90552038027459,-1.0703159731865324,-4.869831916699883
1560500332.1029718,1.0996591309498285,-5.353651213361625,0.299523852039913,0.7233650015265675,-0.8327730331502505,-0.03300816747537977,-42.93868247771649,-1.1747852140228296,-5.353651213361625
1560500332.2352135,1.1955029833760267,-6.452282076420997,0.3666907911588511,0.6849924879920527,-0.9264249594669633,-0.03846035819380439,-42.03544308182245,-1.6601038859439783,-6.452282076420997
1560500332.301356,1.215676285052672,-7.128072024696705,0.40597126900667035,0.6072055350937144,-0.9499829153124202,-0.01798144793614459,-41.29924548953701,-2.016936795221693,-7.128072024696705
1560500332.366946,1.2657151465450698,-7.7790245225674575,0.44256683134313807,0.6199532665167687,-0.9909878341496682,0.004225890795170106,-40.524717103749126,-2.273154657602566,-7.7790245225674575
1560500332.4984937,1.3751421349132515,-9.015035339124347,0.5189594093603767,0.6338526914978814,-1.0980923222225107,-0.07955231868117107,-39.805285630347214,-3.0482357162285094,-9.015035339124347
1560500332.62944,1.4592617321106423,-10.349827484036423,0.6007759660733338,0.5873966938300934,-1.206978533295963,-0.07135921896783315,-38.49588148880386,-4.043157909392107,-10.349827484036423
1560500332.7610085,1.545770870179557,-11.673242852940444,0.6903179375376496,0.5925760758894185,-1.3259300416519113,-0.0422192409469867,-37.62436099951403,-4.659279750237743,-11.673242852940444
1560500332.8927104,1.6161739469817331,-12.908226054172331,0.784236005249001,0.5031839356844683,-1.4436038847059551,-0.07419895053673997,-36.66798546595502,-5.112968753236991,-12.908226054172331
1560500333.026286,1.6899512072452576,-14.17725224672615,0.8767583262472154,0.4584906149658122,-1.5592084203746728,-0.1022457024181368,-35.31018718991124,-5.089541140879151,-14.17725224672615
1560500333.0917666,1.794310618799607,-14.848561095704627,0.8955330835702628,0.594215573569428,-1.5439264129902173,-0.07850857914326737,-33.95520333881096,-4.632760159650306,-14.848561095704627
1560500333.3560977,1.8790628051202334,-16.617817722528162,1.0972911075666059,0.39422442874617525,-1.7442205820524843,-0.06206833160980929,-32.96003013010352,-4.864301751360448,-16.617817722528162
1560500333.4228997,1.9474148280273154,-17.037945889324067,1.1384744256264874,0.44802207427350116,-1.7808154448220848,-0.10833209378466868,-31.92673362109712,-4.406317582313054,-17.037945889324067
1560500333.683631,1.858252858545803,-18.10743609872299,1.3847751229896512,0.027663350796649888,-1.9718461610389468,-0.05963134112690238,-32.016565237191124,-4.910777646250954,-18.10743609872299
1560500333.9462936,1.7443134832987317,-18.62734956541724,1.6369289702034717,-0.22511008525767545,-2.148484264117672,-0.05214931929175315,-31.282993734688294,-4.846852815337528,-18.62734956541724
1560500334.427272,1.1173260866046508,-19.42660795174851,2.17107479420045,-1.0176044032649147,-2.4113652126573593,0.005993038505177406,-31.37080702156619,-4.898599836618281,-19.42660795174851
1560500334.7613707,0.488268613609915,-20.06803902084986,2.5772810637341337,-1.4811436976683758,-2.6374466692841496,-0.035284328431584244,-31.111177792659735,-4.960505259890911,-20.06803902084986
1560500334.8942895,0.21055726624249904,-20.226666871643424,2.7512248876274734,-1.6635648340843798,-2.7194006752824236,0.03195161212853259,-30.86459628084537,-4.948921300182618,-20.226666871643424
1560500335.028158,-0.09468399408161021,-20.373279792670118,2.9402966597227547,-1.8374343603001637,-2.811453230372174,0.07827734692103538,-30.494569962308184,-4.839028361187991,-20.373279792670118
1560500335.2943838,-0.824843770013759,-20.501881370549192,3.3194659077110398,-2.2690556304196017,-2.9626342066480986,0.16777189003706505,-30.228596318439752,-4.648794138017637,-20.501881370549192
1560500335.6183815,-1.9028451062796017,-20.42186446543303,3.787135138186856,-2.821856715463102,-3.123750704246342,0.1232718179915695,-30.056221053374415,-4.5786925487747405,-20.42186446543303
1560500335.9428284,-3.123013887693215,-20.276884295065,4.303074842775073,-3.3685948256578877,-3.2757025654694503,0.2099376334201457,-29.958868061059725,-4.32631930538283,-20.276884295065
1560500336.1405816,-3.9189438968126766,-20.060654544467862,4.641053514012102,-3.6573974942961183,-3.3528824879668946,0.2361559607102155,-29.616961967931644,-4.2542166810117,-20.060654544467862
1560500336.341303,-4.782306543283376,-19.830334649836484,4.990293323271819,-3.936608274048121,-3.4629792190251534,0.2967580364123805,-29.291687331783965,-4.282167705967154,-19.830334649836484
1560500336.4075894,-5.16067153068382,-19.817673342728618,5.06576282666674,-4.156272135655805,-3.392905083599926,0.3664471915003762,-29.756119786713374,-4.053045992047393,-19.817673342728618
1560500336.4743326,-5.474204748344835,-19.749313537155935,5.189772895482578,-4.262795741922505,-3.3967530012325433,0.35197786095931227,-29.535232776600846,-3.768947960226715,-19.749313537155935
1560500336.6069121,-6.109417412805897,-19.70490722071395,5.45213013759289,-4.427096631688822,-3.4344697782215197,0.42694012705803575,-29.170425959388513,-3.595113898436691,-19.70490722071395
1560500336.7406287,-6.8516456946655655,-19.61527501522387,5.668686142796483,-4.710837787555892,-3.4644085040707724,0.3968804719798227,-29.4091720433866,-3.4854274968519827,-19.61527501522387
1560500336.8734415,-7.545509514169584,-19.50240549348879,5.925936128536259,-4.851887962790712,-3.4962515911452687,0.43285761404591083,-29.218912405144202,-3.273092677197556,-19.50240549348879
1560500337.0731685,-8.690328438752726,-19.35319840991729,6.287541717042464,-5.217427696107169,-3.516896726773144,0.4935251038900801,-29.243768579799365,-3.072221497029887,-19.35319840991729
1560500337.3380985,-10.309380706607651,-19.01943478423806,6.7866687941598745,-5.665695131512725,-3.577300123317203,0.49819674378675627,-29.253682045477394,-3.038600279507711,-19.01943478423806
1560500337.7366667,-12.997847967923505,-18.68818768128234,7.55692443286661,-6.435189453239568,-3.67594891102277,0.5553265794633722,-29.26787462359818,-2.585904256967316,-18.68818768128234
1560500338.1333213,-15.992072649665005,-18.355155365691267,8.361907299344507,-7.33504188862076,-3.7411268399458466,0.604611475777302,-29.42395738161185,-2.2341862094445375,-18.355155365691267
1560500338.4682493,-18.788937992615978,-18.007993858815112,9.061809161555885,-8.15406527999517,-3.762182235542194,0.6015976319482628,-29.500025067356987,-1.912952483974986,-18.007993858815112
1560500338.6028817,-20.07131652240464,-17.82250336099155,9.334963530157966,-8.55638791944587,-3.746970079429004,0.6412605509306715,-29.76890282419173,-1.942226367546861,-17.82250336099155
1560500338.8019538,-21.900986117688106,-17.664604177897655,9.754880038656847,-9.05375661542668,-3.7183652968790892,0.6703500964182652,-29.82126203261548,-1.5119366505667884,-17.664604177897655
1560500338.9341264,-23.130234316917438,-17.541698487579264,10.039029350055612,-9.330855471724298,-3.645874109550058,0.5598294912693642,-29.786742820733487,-1.0589593460810092,-17.541698487579264
1560500339.0671084,-24.418467885016327,-17.306149827222782,10.319320516208808,-9.62448651897019,-3.6253001458661793,0.6144817958031343,-29.96718434659845,-0.9643613646530448,-17.306149827222782
1560500339.1996467,-25.838169086420983,-17.126773095067254,10.60627623589211,-10.044198827589877,-3.630099294539381,0.6812059646693969,-29.95939315366931,-1.0120571598653922,-17.126773095067254
1560500339.2649615,-26.45616568404049,-17.03271680334887,10.751695983035614,-10.103475523890317,-3.561414758914153,0.6666679008380507,-30.055904599115273,-0.7052952290414168,-17.03271680334887
1560500339.395933,-27.8259990471097,-16.87675845810738,11.047453746974442,-10.37295693823727,-3.5429286867419494,0.6564886933696277,-30.03454896070471,-0.4715001731749445,-16.87675845810738
1560500339.6558692,-30.680670503111187,-16.578536812244547,11.64463980017835,-10.96821210823202,-3.5151886905946315,0.6593201751157649,-30.006526002659207,-0.12525337450408652,-16.578536812244547
1560500339.7856016,-32.168182844270014,-16.355173464285503,11.949935851561719,-11.268663889801509,-3.515532813106164,0.7111695246394185,-30.10405341575471,-0.12863255150411823,-16.355173464285503
1560500339.9198349,-33.72150443252837,-16.10287293258291,12.270559432359422,-11.563289786005758,-3.4868315605881492,0.7685738937395885,-30.120624059707094,-0.09556983584008356,-16.10287293258291
1560500340.0550318,-35.249274461889534,-15.975166359080205,12.607461193812354,-11.758533510992795,-3.4378240717020008,0.769578536859501,-30.084015270587297,0.421669124943144,-15.975166359080205
1560500340.188632,-36.894693965913625,-15.821569293804064,12.941228273350736,-12.089282193031263,-3.4179993163677094,0.7838787751745571,-30.212122783516183,0.5080107598502401,-15.821569293804064
1560500340.4535162,-40.13041612813502,-15.53578064362554,13.621194838904596,-12.462555809513326,-3.3741952725480253,0.7099371637273606,-30.000642052794337,1.2018856735174335,-15.53578064362554
1560500340.719931,-43.68329849975485,-15.142147737566484,14.313352765834404,-13.08973783217494,-3.345378735893356,0.8506815111461792,-30.238294029010213,0.9403170712005822,-15.142147737566484
1560500341.1314054,-49.27981329648467,-14.693089982812916,15.424126814303035,-13.846804047111553,-3.270787981795954,0.9308678880125072,-30.319178363848742,1.2637368589692572,-14.693089982812916
1560500341.3252623,-51.96750609864503,-14.427907071279728,15.953229262690579,-14.158328931494749,-3.196800326100945,1.0043000693635484,-30.503683702758888,1.3663257315191202,-14.427907071279728
1560500341.5212004,-54.84396724104441,-14.28937497830122,16.513633105623867,-14.551566314671643,-3.16974014986645,1.0378441667226301,-30.611668681360552,1.5355060807560108,-14.28937497830122
1560500341.6517048,-56.71135586699333,-14.213890551396299,16.88212951165586,-14.741785473040489,-3.0695473949606913,1.0526140068033305,-30.801263151431673,1.759542594796574,-14.213890551396299
1560500341.7881193,-58.63398381644652,-14.075273874829584,17.25797072168952,-14.856861200940312,-2.9888680114340405,1.0721755750141684,-30.988869025163257,1.9874836793696466,-14.075273874829584
1560500341.8543408,-59.563627272148125,-13.986646441330647,17.44398969721161,-14.913225833370776,-2.8148039264186027,1.0909208034604605,-31.250750639257443,1.9883552956045623,-13.986646441330647
1560500341.9204445,-60.478500590555996,-13.882417639141337,17.622313012381014,-14.919049678191346,-2.6620291146985013,1.1525708725769197,-31.524912451062384,2.033277737821776,-13.882417639141337
1560500341.9862254,-61.30939188281026,-13.774929778336414,17.777147915711144,-14.754309147652439,-2.329310995153471,1.240961171078832,-32.13513212905886,2.1383315978690915,-13.774929778336414
1560500342.1182451,-63.124242936938046,-13.552854503060196,18.14831197135542,-14.706619562227871,-2.085546051373639,1.3911923951862157,-32.61620776244577,2.2213546130761537,-13.552854503060196
1560500342.250551,-64.94827495918594,-13.396129390456897,18.552719210808636,-14.69034883155036,-2.048079306890198,1.5801476045085456,-32.69344860227247,2.4666145251067744,-13.396129390456897
1560500342.3167698,-65.80274629910504,-13.347562068638009,18.739269801030837,-14.597029584137475,-1.8750965470347574,1.615579629231867,-32.84548865926741,2.736872049919085,-13.347562068638009
1560500342.5186841,-68.62743155865277,-13.143948369693453,19.346188499229843,-14.71710224897564,-1.7621407174213761,1.637229105947548,-32.9963410170005,3.0601066422724035,-13.143948369693453
1560500342.7925014,-72.55189508009778,-12.834537759603657,20.190009791622405,-14.979507046742034,-1.5671793617723337,1.7862494171738208,-33.24559472647821,3.2720409321063575,-12.834537759603657
1560500343.0539198,-76.2651827401772,-12.50591404189754,21.017808929739413,-15.112056887975905,-1.3262054852075778,1.9391634640097255,-33.619184690729554,3.4689389310987875,-12.50591404189754
1560500343.3189554,-79.97849271180536,-12.14862206576766,21.885632774995305,-15.135008746778682,-1.1090403491935708,2.1513535203916074,-33.786706043805474,3.8286834183215253,-12.14862206576766
1560500343.5851114,-83.70372822003797,-11.799234744662458,22.783263064888757,-15.152388296956909,-0.8825849364586829,2.2715575946134807,-33.89323987585241,4.178454314364088,-11.799234744662458
1560500343.718146,-85.52410268095525,-11.594068525175368,23.225707101653917,-15.131917351739375,-0.6713004218870062,2.3238775885492657,-34.02331385665958,4.310940169907084,-11.594068525175368
1560500343.9164283,-88.31269106272156,-11.381184077750437,23.89378265442243,-15.138264395510348,-0.5779627335174211,2.4593660302341767,-34.02228305581939,4.664109143745287,-11.381184077750437
1560500344.049159,-90.38464959646981,-11.246343597593766,24.28860178025754,-15.380173401720816,-0.2843351844233144,2.5202482788851506,-34.394659741306995,4.5276596681180905,-11.246343597593766
1560500344.1829963,-92.35272893439023,-11.078186606139385,24.744753931157174,-15.464461362352973,-0.1365658900425193,2.62936403195497,-34.716293714955384,4.509132838642789,-11.078186606139385
1560500344.4497056,-96.31444105609964,-10.686374253682834,25.65051215257857,-15.614610876512312,-0.02359468905709461,2.7994886846209397,-34.72743956568015,4.585826378361152,-10.686374253682834
1560500344.7146878,-100.06656277610982,-10.610557864452396,26.65719111584193,-15.54192946829617,0.1328581752834901,3.1144305665725067,-34.64834457830152,5.224523711668351,-10.610557864452396
1560500344.9126315,-102.90171364615453,-10.632988457072633,27.387019737163648,-15.538235650647993,0.31938086372742536,2.9426770326676506,-34.5689194745931,5.710279497888069,-10.632988457072633
1560500345.1110215,-105.87692353770954,-10.269065787461045,28.11043320243439,-15.679063026342519,0.4936308139017487,3.0486823893521393,-34.231314588750294,5.613683939054042,-10.269065787461045
1560500345.3087025,-108.90852914315124,-9.948631663501295,28.836919953603886,-15.868060718390142,0.6241277845433024,3.3190153503015014,-34.424438527764096,5.35207049624361,-9.948631663501295
1560500345.4421222,-110.9796806325396,-9.995197849649024,29.344815657266256,-16.026503095305458,0.7052840997473298,3.4673288052562308,-34.68949835406835,5.595762305492607,-9.995197849649024
1560500345.5768626,-113.1018206524866,-10.07976565176609,29.851927823760942,-16.195220564735965,0.8130330571301152,3.427540233823847,-34.84712358079436,5.796226141314274,-10.07976565176609
1560500345.781868,-116.37534870509266,-9.754475243068606,30.60583022972217,-16.397871318777057,0.9587421903618552,3.4453671823651937,-34.86227903898399,5.5133994072941,-9.754475243068606
1560500345.9853566,-119.56561199721966,-9.543865013989102,31.3746609837491,-16.53661749363974,1.1482531278366301,3.7714583355745,-35.18867647107199,5.562815337164032,-9.543865013989102
1560500346.0550227,-120.72773435764356,-9.602107824875125,31.630137300365284,-16.676117798534737,1.2340862592325195,3.7446699614318923,-35.168083039803136,5.674295009621108,-9.602107824875125
1560500346.322116,-125.00966223964365,-9.307700131594965,32.6537171080364,-16.814665407010306,1.4670351830975474,3.785590445185042,-35.47208767899812,5.655516993526802,-9.307700131594965
1560500346.454679,-127.06931452525272,-9.012595553245111,33.15887272951413,-16.802994668952227,1.5618771665006692,4.033231437387268,-35.455988886972875,5.5755208678201,-9.012595553245111
1560500346.5872693,-129.36727514772946,-8.908707456808838,33.67364411880338,-17.137115757298957,1.7998003881575553,4.291964634029443,-35.731545805160195,5.43248507762344,-8.908707456808838
1560500346.78803,-132.37588702216635,-8.793952674451145,34.49949114161852,-16.908829513812147,1.8225631432140306,4.408713358537679,-35.87589262807997,5.956896316874524,-8.793952674451145
1560500346.9233308,-134.350006328345,-8.746775109640136,35.07186192275772,-16.73136381125353,1.9248545608805814,4.381890572923373,-35.94885174128206,6.3513051619681535,-8.746775109640136
1560500346.9917455,-135.57062110449579,-8.738664825252858,35.34137188779192,-16.99686041582258,2.120909462671324,4.411982034752621,-36.16479423479183,6.224299898691262,-8.738664825252858
1560500347.12771,-137.75799689827713,-8.682498842735837,35.90191018999536,-17.06192125923375,2.2349360406921615,4.442722444898616,-36.21230498442698,6.336388250995455,-8.682498842735837
1560500347.2619097,-139.9432118257648,-8.57157883294286,36.45557666063713,-17.149581509719116,2.31135228652544,4.521566667592316,-36.257128554910324,6.361631400650661,-8.57157883294286
1560500347.3929694,-142.1719142367467,-8.444334322490857,36.99611432108371,-17.387308193451865,2.4868256600517458,4.697500643535044,-36.339074813167144,6.252934391925465,-8.444334322490857
1560500347.52247,-144.34609623760264,-8.35861674856578,37.538113880115986,-17.545724704676,2.5651666023188215,4.786046639091792,-36.30751212203339,6.270968344796565,-8.35861674856578
1560500347.6533496,-146.60310369085568,-8.299081057489168,38.08766659005545,-17.757301336468274,2.685891296910726,4.860445356995712,-36.33461835981729,6.267362156485132,-8.299081057489168
1560500347.8531487,-150.22934040645305,-8.256260605736971,38.92706073946681,-18.275471133504038,2.965966279475188,5.061904030230321,-36.53529285370849,6.1712451978117455,-8.256260605736971
1560500347.984363,-152.59015143269616,-8.173997107668148,39.48470340480906,-18.472919838650366,3.0533732401624776,5.124096870520566,-36.618541240646195,6.139769915834235,-8.173997107668148
1560500348.2141242,-156.61305309569374,-7.877253535355328,40.466973342032574,-18.59516169140355,3.3130909447303054,5.478844379047986,-36.62586867539848,6.076640030443122,-7.877253535355328
1560500348.3196325,-158.5851325530173,-7.941035756009244,40.917337152336145,-18.813265655374348,3.3670447441938594,5.534711896027009,-36.54950684524787,6.073892452386521,-7.941035756009244
1560500348.3782644,-159.73113144303872,-7.982416183492033,41.161432613859525,-19.004649765092744,3.4496079215529787,5.519720593240033,-36.62675517612166,5.999126506986243,-7.982416183492033
1560500348.4850473,-161.7282432698653,-7.985123239744678,41.613363280916,-19.202213147430026,3.464700443215081,5.529101757888496,-36.51321630546195,5.914656613029543,-7.985123239744678
1560500348.6053648,-164.00126262865876,-7.927764025789331,42.12697068270964,-19.431545134275463,3.5201420228213367,5.580674162890667,-36.33423970056663,5.77855149653797,-7.927764025789331
1560500348.783811,-167.31490242812401,-7.788971127203029,42.903413394243984,-19.635930661611386,3.6231285213709907,5.761640633158335,-36.13130110881869,5.66408064360225,-7.788971127203029
1560500348.9171903,-169.8234219681992,-7.841351164677173,43.49145671821327,-19.801645130544347,3.753416292583566,5.932093908812573,-36.17015826787669,5.853325078896424,-7.841351164677173
1560500348.9843187,-171.1102442534129,-7.891231000450225,43.78450470010725,-19.912135595180708,3.789389426950884,5.841852035226137,-36.078808202511794,5.9757095922887435,-7.891231000450225
1560500349.1836174,-174.873017249517,-7.4821058654866,44.65191059135352,-20.056545909981182,3.9449543258225535,5.738252451498583,-36.07689924318134,5.769741962568635,-7.4821058654866
1560500349.4519274,-179.98777864175787,-7.00725691578678,45.853076651731776,-20.261082722854347,4.246162760528189,6.280732843175057,-36.24124644750198,5.753639066424582,-7.00725691578678
1560500349.852198,-187.62468798625292,-6.540189914162297,47.67550745005241,-20.400624271608066,4.713071843208326,6.627185754962242,-36.43754756984901,6.209139656564879,-6.540189914162297
1560500350.1186073,-192.72617084824267,-6.492825572117851,48.90086465153962,-20.445374331718806,5.182067628858901,6.795815190254032,-36.79836063045262,6.7945302583390115,-6.492825572117851
1560500350.2545762,-195.32350601063996,-6.383749430207239,49.52037391942671,-20.46306207143328,5.353085071096926,6.714941421512751,-36.83900489382085,6.9195573772620005,-6.383749430207239
1560500350.4819767,-199.6885296768579,-6.078355822626245,50.563670788664425,-20.450943657528793,5.7305091555592185,6.934007553150384,-36.762206420515824,7.035257224494474,-6.078355822626245
1560500350.7019508,-203.9427967677206,-5.646232664159192,51.58168230858454,-20.473594741287407,6.07581613775547,7.323251014428312,-36.80477182052831,6.907258363933748,-5.646232664159192
1560500350.850676,-206.8515114659283,-5.592249187956421,52.27735134496086,-20.5855493261074,6.262736714136084,7.542529823737011,-36.94114372687922,7.096494883645307,-5.592249187956421
1560500350.9866326,-209.54922994214766,-5.5139587145723965,52.912450173319336,-20.70024667300397,6.463999817304309,7.542971935236993,-37.04224045586494,7.192207953840407,-5.5139587145723965
1560500351.1189587,-212.2978040031478,-5.3808024837384965,53.53237555310217,-20.962098185806088,6.676628383592764,7.694859641189387,-37.11047116575764,7.141614379176586,-5.3808024837384965
1560500351.2507308,-215.1039284473425,-5.341966797840242,54.1466124249315,-21.27671441932086,6.9180698816121975,7.858226807857544,-37.19843587273516,7.146487571363857,-5.341966797840242
1560500351.4464033,-219.18738577772498,-5.178889511806764,55.0640843099168,-21.585803653458594,7.172452017975963,8.026760536579616,-37.25821516440666,7.148492904001284,-5.178889511806764
1560500351.642396,-223.5586403740453,-5.013141191199859,55.98284619416361,-22.165299895030255,7.478313825004452,8.209143177242556,-37.27200579005481,6.993004425182185,-5.013141191199859
1560500351.7758605,-226.40257955667516,-4.913241920819251,56.61671404991567,-22.2655626310309,7.617451902670966,8.40152266782834,-37.282234603033935,7.096021226952966,-4.913241920819251
1560500351.8437421,-227.99221257843,-4.892201607328157,56.928770736773224,-22.52069850618732,7.7988227507699275,8.431647919362334,-37.38887149362953,7.007302660810414,-4.892201607328157
1560500351.9117916,-229.6185374811709,-4.885918782495385,57.23655001216749,-22.82965790309144,7.8884395696738645,8.495361123534739,-37.45227415201497,6.904625683350042,-4.885918782495385
1560500352.112658,-233.97765288937953,-4.792682509186827,58.1813118828366,-22.963705636999116,8.08795646457582,8.699768828066992,-37.65064419452061,7.099330703250108,-4.792682509186827
1560500352.3105009,-238.31870642597832,-4.6248698311067695,59.10578185565469,-23.111328411381717,8.372344180169463,8.820016243488041,-37.624611191533305,7.199194135807065,-4.6248698311067695
1560500352.5094872,-242.7271538760984,-4.434927296620722,60.030934989937975,-23.256987497516686,8.689582084514097,8.989463513610843,-37.584658353073074,7.308899062039822,-4.434927296620722
1560500352.8317866,-249.7678357760964,-4.293008358502158,61.54689912476682,-23.24885889689526,9.287938616237813,9.100842689652007,-37.52520090913004,7.803253022945533,-4.293008358502158
1560500353.0290399,-254.0974336841899,-4.1301167894821225,62.45914806610614,-23.28481138601835,9.468539208498964,9.249253578327481,-37.38599379755966,8.039788843385864,-4.1301167894821225
1560500353.292826,-259.79163619170333,-3.7610189213923206,63.70919121932765,-23.135741924389098,10.01061289682422,9.532376906983114,-37.25973043336846,8.165354859197333,-3.7610189213923206
1560500353.35918,-261.2944665047763,-3.8091978424046142,64.02529571318723,-23.19709367159622,10.048539169232882,9.605289748551023,-37.23703066954003,8.33386332765226,-3.8091978424046142
1560500353.493023,-263.9891654318633,-3.826681479203205,64.68317319016205,-22.96847237930291,10.165330590638979,9.591632783347228,-37.315831836193766,8.721192081610484,-3.826681479203205
1560500353.5590873,-264.7755816630544,-3.757189602820311,64.98402648207644,-22.057607890033886,10.083631328023767,9.448361302681452,-37.179440465431824,9.25022852119062,-3.757189602820311
1560500353.6265268,-266.15556671735266,-3.686026244391048,65.30242559297311,-22.00639887502165,10.329117303504486,9.353240423736713,-37.18787240338166,9.26669290051441,-3.686026244391048
1560500353.6926363,-267.62761680802555,-3.577336421339984,65.60768866734023,-22.26309962541332,10.547267251635123,9.616449524393062,-37.34325690827697,9.09290880472788,-3.577336421339984
1560500353.7580464,-269.0848413185169,-3.5059284365300094,65.90266368330235,-22.477401273142448,10.713062219297413,9.79763606492351,-37.533592290298664,8.986253015070066,-3.5059284365300094
1560500353.823671,-270.49290931860804,-3.4550999732881875,66.21524743044145,-22.5565070615925,10.844500078414248,9.934184551322577,-37.64751838780077,9.015880515929812,-3.4550999732881875
1560500353.8909595,-271.9231477695004,-3.438527648515563,66.53220539061525,-22.56108896948184,10.99350422440883,10.039708434522504,-37.702027286033115,9.10203411896188,-3.438527648515563
1560500354.023787,-274.6715700353945,-3.465926828478102,67.16136670190653,-22.397210182273746,11.149847155251841,10.177281709577247,-37.98982658697162,9.474106010112672,-3.465926828478102
1560500354.090475,-276.0814347051247,-3.499503986575083,67.47206431835095,-22.43289908902844,11.322755254006466,10.150662690896949,-38.13813874012129,9.595528324471909,-3.499503986575083
1560500354.2247348,-279.11899446826175,-3.4774673474765234,68.09228627239675,-22.885187868089954,11.702993134621217,10.27811034823257,-38.42910445715868,9.572735224677395,-3.4774673474765234
1560500354.3617578,-282.21452428508707,-3.346202755133689,68.70747927029089,-23.14217509473342,12.0149146036873,10.485934323762057,-38.722752048020645,9.461524741208894,-3.346202755133689
1560500354.429114,-284.05490946300915,-3.2548848640084014,68.98320480331837,-23.80393344231834,12.397004098575072,10.771385545088558,-39.0125655806279,9.083084022628332,-3.2548848640084014
1560500354.4958882,-285.56486045033057,-3.182130303835417,69.28746817244335,-23.799796303829407,12.34178111509355,11.063988838323514,-38.98279122587632,9.064364392761263,-3.182130303835417
1560500354.5652664,-287.1279551033424,-3.1532754387796387,69.60833716937596,-23.790727780787773,12.434228059800724,11.182666484923914,-38.95447796923575,9.127997805584245,-3.1532754387796387
1560500354.7636445,-291.4014061130529,-3.0904069718722424,70.5378686698128,-23.42787656433662,12.586818358463171,11.336242605413398,-38.85576921323989,9.5810581464248,-3.0904069718722424
1560500354.8295648,-293.0132283215012,-3.1292258760619345,70.82326007264398,-23.7370549327715,13.001249586207832,11.25073588776604,-39.04028368422053,9.596547214382893,-3.1292258760619345
1560500354.895667,-294.1725346808115,-3.1010157469001816,71.15340498394907,-23.025572574566187,12.69883627949011,11.309022521839454,-38.82844778161619,9.960136088664738,-3.1010157469001816
1560500354.9611642,-295.4581618387288,-3.095360775804025,71.45085465091991,-22.727832404761415,12.816538439225392,11.195022831447286,-38.83978291518107,10.15399335760915,-3.095360775804025
1560500355.0274413,-297.1516273573444,-3.0851298688560536,71.72884056537175,-23.315550363929933,13.284221442278255,11.250937859532126,-39.136148155078374,9.930908878440553,-3.0851298688560536
1560500355.2264705,-301.1563691540744,-2.8872329125444836,72.64870909993596,-22.47488391701245,13.109239456804472,11.59215263583586,-38.74659634465336,10.329126624106173,-2.8872329125444836
1560500355.2931995,-302.38568900054054,-2.857101766042339,72.93035561956854,-22.010521345759244,13.30042844872619,11.472154571212856,-38.690392596834755,10.531183310126297,-2.857101766042339
1560500355.360243,-303.83662270216183,-2.812267668957659,73.22275897221898,-22.118139617262493,13.578757133430093,11.498175208877754,-38.803808342481275,10.503587908518687,-2.812267668957659
1560500355.4272287,-305.47890879489074,-2.784469647441503,73.48339249236501,-22.62373080318214,13.982348713466513,11.626225312709892,-39.0117576903367,10.285029417356055,-2.784469647441503
1560500355.4941096,-306.7901073122954,-2.7212976274598337,73.79490864815992,-22.34799978303918,13.808567566942912,11.82136015070617,-38.8862397877418,10.391932187537074,-2.7212976274598337
1560500355.6275513,-309.9778124958149,-2.7419012313748166,74.3542801593116,-23.264552201805515,14.63265670818052,12.058721634298156,-39.38367626335104,10.154330694099718,-2.7419012313748166
1560500355.8961346,-315.7308548751256,-2.7861708548059148,75.53793827277248,-22.96543465291545,14.806375127819658,12.301786678263316,-39.37182904059645,10.632636497194955,-2.7861708548059148
1560500356.0315452,-318.7926261373983,-2.7518029370599844,76.11365914394901,-23.141511804487124,15.10986031001983,12.469561624118391,-39.461398029189326,10.703553794751576,-2.7518029370599844
1560500356.236155,-323.4382640492699,-2.6933111140274315,76.98589696943948,-23.32728895595489,15.54409479717863,12.75825696428338,-39.60273719127385,10.841503245344633,-2.6933111140274315
1560500356.438804,-328.0714685727323,-2.6181685715263763,77.84753773535004,-23.47570623851565,15.948727158842123,13.009702413082152,-39.65825057100556,10.992621404846437,-2.6181685715263763
1560500356.6335046,-332.1179137460487,-2.484167905853686,78.71987389169634,-23.11775301448688,16.253763008391363,13.170823849843629,-39.541572351688565,11.278010045057783,-2.484167905853686
1560500356.69883,-333.7049769257923,-2.4663334132432984,78.98716813604416,-23.311935049052483,16.438978075599454,13.29654469858637,-39.58205721327438,11.242788392941996,-2.4663334132432984
1560500356.962799,-339.40920334621177,-2.2068414888609977,80.14328993164965,-23.12025166761609,16.84455586140684,13.699133384199722,-39.54754381348589,11.355840932515788,-2.2068414888609977
1560500357.1618004,-344.08133778852954,-2.2652824744834636,80.98821071179134,-23.493229652321183,17.348678953968953,14.010506702851483,-39.684330021898184,11.554944198534507,-2.2652824744834636
1560500357.3599956,-348.2027310927222,-2.3359370259370116,81.88310920567427,-23.191084354972986,17.45444319287038,14.075738098727367,-39.746194638824846,12.062352622380324,-2.3359370259370116
1560500359.3706145,-348.1936739108518,-2.4338871438746597,-0.01333253067699074,0.02042575973620281,-0.0562824528887857,0.021908617414286204,1.2230736598354455,3.3182580113930773,-2.4338871438746597
1560500359.5028684,-348.1475978308223,-2.5456201671711267,-0.010828434276785422,0.10500178611644227,-0.02700170679637168,-0.008796401130219351,-5.112949540214766,9.119052035284076,-2.5456201671711267
1560500359.6339376,-348.1230314606211,-2.689506324189832,-0.035096995089042266,0.15788392799033696,-0.010046117852688293,-0.0815022284122073,-7.511685690036122,10.628140922723635,-2.689506324189832
1560500359.7002313,-348.12541381236184,-2.5528785657805866,-0.02520961500437917,0.11940035411818989,0.010780968846386631,-0.03316897672609853,0.4488153425446532,8.904164452073363,-2.5528785657805866
1560500359.8984149,-348.1159200320066,-2.469445766925435,-0.02768479789616167,0.08428821980314873,0.02492309811002837,0.01004227159906878,-7.875276824060397,9.253275955121952,-2.469445766925435
1560500360.230419,-348.0940430936383,-2.398399316746181,-0.034843302938738975,0.09140891204232794,0.041331173559360564,-0.045091680089778985,-0.11559757122285498,8.487878704056243,-2.398399316746181
1560500360.4312057,-348.0805537644514,-2.4339635702157536,-0.02753356493199263,0.0834739309267524,0.015111646411957029,0.012753466993618292,4.316785475701815,9.262758123453949,-2.4339635702157536
1560500360.5634422,-348.070752215047,-2.429919860373016,-0.025851056132889582,0.08126772572580067,0.02437185569119739,0.03475166225029412,4.174407315453492,9.278957398962401,-2.429919860373016
1560500360.8301618,-348.0476230989357,-2.4149947465864456,-0.02836458641177048,0.10396176473213621,0.03884800497216227,-0.0013767564978861401,3.40503185925514,9.274916081277919,-2.4149947465864456
1560500360.8965702,-348.04317337814524,-2.360788740921296,-0.031016486997475282,0.09550768410428671,0.022550920863728518,-0.014605445644577338,3.4236613313846522,9.173449089362665,-2.360788740921296
1560500361.0298002,-348.0314646464551,-2.3208436963489336,-0.03308915558255526,0.08191604417661329,0.023246876767899747,-0.003984810921679101,3.3992619369006323,9.141713883572528,-2.3208436963489336
1560500361.1640875,-348.0216431129576,-2.3027606706398327,-0.03884405397601103,0.10808526039508368,0.013357195110571,-0.037007648238794356,3.1911030010634605,9.248779461426095,-2.3027606706398327
1560500361.3667526,-348.0105468437642,-2.3161189856512547,-0.034847179811677606,0.06611451389394818,0.003251201330111636,0.0004671688181019009,3.8020807934203242,9.3947100224735,-2.3161189856512547
1560500361.43344,-348.01257106158846,-2.3306887351107,-0.031218019497476487,0.036575574058768934,-0.0066179320527718095,0.006520729942708354,4.054665083598833,9.442781040703673,-2.3306887351107
1560500361.4994862,-348.0078495216028,-2.329130741030371,-0.03204273903450397,0.050869714810186054,-0.004998194384317909,0.00928458983799335,3.7507389761463643,9.439351078368913,-2.329130741030371
1560500361.698307,-348.0071244690037,-2.3453536709339637,-0.037451129683384404,0.03741548558994543,-0.010529293095132298,-0.013082331215783196,3.058557735376257,9.512555513628538,-2.3453536709339637
1560500361.8306005,-348.0084938565304,-2.358018624715168,-0.03616415433191776,0.019989407457797228,-0.014607326018533977,-0.02593143020432806,2.8967564260639445,9.45033388283839,-2.358018624715168
1560500361.896921,-348.0151592908982,-2.3449681269417644,-0.03626123473958099,0.012701844307423216,-0.00417244074155221,-0.025233942286693466,2.445924364293862,9.35831574793569,-2.3449681269417644
1560500362.0293133,-348.0144110202832,-2.380116118284264,-0.037935765343044166,-0.0071303977793906945,-0.019024971757545167,0.005414044938388607,2.403825169266813,9.288865113368926,-2.380116118284264
1560500362.0952861,-348.0116682748411,-2.4101694708414523,-0.03663551496748227,0.007116818146645095,-0.027418311566852156,0.03213217762578474,2.5085108424603835,9.262274320434424,-2.4101694708414523
1560500362.227437,-348.0103679172672,-2.444489900662298,-0.036016217414363554,0.0015751142077213933,-0.012358565735513019,-0.009979680852519183,2.712649174230691,9.33501427241462,-2.444489900662298
1560500362.293649,-348.0105845235481,-2.4573883406463315,-0.03679339078781107,-0.01564225225571537,-0.011013979128601163,-0.03573197026430491,3.055270717617094,9.270580185638037,-2.4573883406463315
1560500362.3595178,-348.00990636122003,-2.4574393800424645,-0.03859251889574176,-0.027386752551889743,-0.015664464348435,-0.06670424078569546,3.389528380017622,9.236915095488076,-2.4574393800424645
1560500362.4259334,-348.01055611659933,-2.4747333627002206,-0.04165725815025243,-0.03757683540658977,-0.02016288541759817,-0.07953073753015023,3.4323978627962353,9.330230854552363,-2.4747333627002206
1560500362.4925597,-348.0123913593561,-2.4700183574516585,-0.04877972248945467,-0.052923360182448774,-0.025978551901898246,-0.08489745461014443,3.351863805952806,9.252791249213711,-2.4700183574516585
1560500362.69289,-348.03241539688497,-2.443318495729693,-0.04833296817024099,-0.20622590849471145,-0.006635351391984329,0.04335273167242028,2.826013572080794,9.627451565453876,-2.443318495729693
1560500362.9597185,-348.105870740289,-2.447990287862501,-0.03521493298891358,-0.3513133157662481,0.008591053387099602,-0.06895834793993018,2.6656572281678645,9.87770735104268,-2.447990287862501
1560500363.0931637,-348.1584173167377,-2.423933152503606,-0.030422348709091225,-0.44001266253977733,0.006726213868355134,-0.02624614588597937,2.660128118071434,9.829564707983232,-2.423933152503606
1560500363.1594589,-348.189052992375,-2.43149369927603,-0.023322466536418174,-0.49431732988834687,0.0051196213661634845,0.009115494610003883,2.712609122809634,9.913133319452562,-2.43149369927603
1560500363.2279353,-348.22434154578303,-2.3914097294165573,-0.012365546246860398,-0.5486574045587084,0.013536752254941446,0.02252452692735099,2.853638056654217,10.048105800605283,-2.3914097294165573
1560500363.2966402,-348.2640783939331,-2.3988667877387293,-0.011104722245808614,-0.5874204868771076,-0.0037444874243909403,0.0029198498967210607,2.741706331991553,10.265724148860135,-2.3988667877387293
1560500363.364908,-348.30744660073606,-2.348372218086347,-0.00985111566331686,-0.6317396105488315,0.003050190561298987,-0.03558380510164531,2.7214503573499726,10.424972174132616,-2.348372218086347
1560500363.432014,-348.3479635257098,-2.3308856694026088,-0.007996897124406752,-0.6539796778939121,0.017780334242399908,-0.0890615105728807,2.7188949815255095,10.45426628020074,-2.3308856694026088
1560500363.4979575,-348.3932289574366,-2.2900839707560317,-0.0044438006518039905,-0.689787108514928,0.014701936715238112,-0.11909046436901376,2.715327919734858,10.410446940275508,-2.2900839707560317
1560500363.6981928,-348.56018986613697,-2.1457012523102716,0.0163863047844292,-0.8778885032420509,0.011625331021924527,-0.049601380087476624,2.9009011969807466,10.048196554031284,-2.1457012523102716
1560500363.8329992,-348.6811845873205,-2.0014799360712607,0.03295754951762271,-1.0084692680598841,0.02203346299182104,0.05781999755244974,2.9944950829231183,9.989694735865351,-2.0014799360712607
1560500364.0324905,-348.90031997082593,-1.803708870375232,0.09854759595460677,-1.1900178931142589,0.05688680112410462,0.065218268326623,2.8882928533673917,10.421799603996334,-1.803708870375232
1560500364.1654286,-349.0443490612831,-1.652617085208421,0.08853897730532462,-1.2520492732124053,0.0828612247273196,-0.03567657476450581,2.750634129756638,10.496871108409579,-1.652617085208421
1560500364.2319765,-349.1427749232479,-1.54103258805879,0.05254636906861803,-1.3043329754815605,0.050515745896904315,-0.13593634263790005,2.70592418171896,10.54273538457778,-1.54103258805879
1560500364.4308014,-349.4006713771863,-1.006246020154466,0.1341908161976688,-1.447969865450514,0.09574019442289872,-0.045944534784628815,2.9221187306348746,10.469112155176036,-1.006246020154466
1560500364.565611,-349.59858795433007,-0.5746421787950656,0.19660304865410563,-1.5618245751187725,0.15331615764314316,0.054983471436898024,3.0296297380988038,10.454115680035489,-0.5746421787950656
1560500364.702365,-349.8199693790053,0.033872223664183077,0.23808098312376888,-1.6640643157010109,0.17040418299813406,0.011764150258824102,3.390546993637521,10.58994022780748,0.033872223664183077
1560500364.7684565,-349.9290280425719,0.3531230598066976,0.22325517145335685,-1.6909801429576141,0.21644226611755535,-0.0821445061719989,3.279432486425545,10.636027171466182,0.3531230598066976
1560500364.8344395,-350.04115498071354,0.7363789585044785,0.22501959390675447,-1.7245223015925946,0.2675457623131532,-0.11235881639423656,3.2074278232289903,10.714765150257406,0.7363789585044785
1560500364.9666924,-350.26857773532333,1.6230277010616458,0.2799588108262441,-1.797487386886991,0.3481815990959296,-0.10466301573724562,3.4588701968864553,10.492012102614119,1.6230277010616458
1560500365.0991435,-350.5073978371438,2.7683775732860663,0.34181976114533946,-1.8680800365573362,0.4063604819375994,-0.03426908733925943,3.6821340161741416,10.373768187025512,2.7683775732860663
1560500365.1656063,-350.63291743740007,3.3624404885326693,0.3713805262596512,-1.908185888987412,0.4028262039686037,-0.005221198908969604,3.9783848995489617,10.257809261826587,3.3624404885326693
1560500365.3653543,-351.0314907568941,5.573984134501051,0.446565591481981,-2.006822937903465,0.5961951443139605,0.054503397288722,4.350320153052233,10.0949351545229,5.573984134501051
1560500365.433341,-351.15421096453935,6.435571919250508,0.46853829554169485,-2.0120145313925666,0.5495106036548422,0.06546379131672742,4.6207887770543605,10.132411259983812,6.435571919250508
1560500365.499432,-351.3033697991376,7.305562781478213,0.4698507831603049,-2.0268513543413733,0.7387822945994572,-0.015051498478473757,4.378241393172629,10.148384883994881,7.305562781478213
1560500365.5656054,-351.4390220439706,8.213285945838354,0.4359209051221987,-2.01847766851673,0.6867875525340347,-0.12562258534077558,4.481675262845212,10.210081126644194,8.213285945838354
1560500365.7673926,-351.83861013257155,11.149388477496522,0.5211151197014698,-2.0399777618386796,0.6716004147462608,-0.06496520932592842,5.027202351609051,10.114697675407161,11.149388477496522
1560500365.968312,-352.28646342158584,14.565597285344072,0.641511600461407,-2.0353910504992,1.1512571859120166,-8.232212546499529e-05,5.605809029615354,9.743500804189978,14.565597285344072
1560500366.2358527,-352.88135489288516,19.5041378553691,0.7557638283923112,-2.2145384588010826,1.1407125655198274,0.007744990191019818,6.276310565238322,9.309742956460727,19.5041378553691
1560500366.3690066,-353.20957046358427,22.14347409927374,0.7417952149107402,-2.1505703057689147,1.4729709584471546,-0.11138302076998285,6.2095192815654725,9.247666736077303,22.14347409927374
1560500366.6365337,-353.7729949025712,27.636269969415213,0.8261006282399739,-2.117634597189238,1.606765387922311,-0.0639823923419029,7.051877058214052,9.091504560167452,27.636269969415213
1560500366.8364892,-354.40760099280516,31.70233058408453,1.137840079570174,-2.2731239150995384,2.0305866530256376,0.13947221696200818,7.437242866443415,8.483287913920844,31.70233058408453
1560500366.903265,-354.5413690193172,32.95973785241207,1.1189925029030126,-2.359884608237424,1.7911786265831742,0.06418135567717598,7.807516536518521,8.569323200791464,32.95973785241207
1560500367.035628,-354.95596590889846,35.62026953731447,1.229649907403471,-2.565331697004625,1.7689837026748414,0.08097215645737588,8.33924035259551,8.363982796302158,35.62026953731447
1560500367.169439,-355.23468398090984,38.122512812547974,1.3798453278926104,-2.5184110961965027,1.7251583467787983,0.1808064617680165,8.776425829616278,8.428124004944483,38.122512812547974
1560500367.2358904,-355.4790493348424,39.45729747716619,1.4142732643373286,-2.491382187465957,1.9932776842227438,0.13991726567475005,8.703132891654029,8.315411179263005,39.45729747716619
1560500367.4355025,-356.0110459322576,43.313392837797,1.6142739112272537,-2.492457502816227,1.9397920703621216,0.23670340867746664,8.716153410860002,8.492372860342273,43.313392837797
1560500368.0317936,-358.16427390891425,52.13125381265157,2.113524831201932,-3.1907664917408596,1.9827687115126948,0.14990487506415795,9.309978347974242,6.858102840793923,52.13125381265157
1560500368.1656022,-358.04860663523806,53.50793928164775,2.1753706749015067,-2.7717849735616498,1.6652461505108278,0.2595997666232285,9.591485943064503,7.6910898379827595,53.50793928164775
1560500368.2978578,-359.0951228898464,54.68882620064459,2.370714462105234,-2.9060971402242455,2.4779165248272355,0.20269759323234415,9.584410599102343,6.3501917115904085,54.68882620064459
1560500368.3641014,-359.3072143378911,55.35015812042111,2.4383362707468557,-2.9175128732907396,2.3921833537969155,0.22599444189567275,9.653121294195788,6.182994965916854,55.35015812042111
1560500368.4296882,-358.8716419179,55.74510395361978,2.381048617433118,-2.357877694600578,1.73724556036713,0.275519484730249,10.236240705791744,7.563652863123743,55.74510395361978
1560500368.4964705,-359.8328694028367,56.609288817795914,2.5547475154073105,-2.98354232557312,2.4000951248113287,0.15395211627592698,9.652366579634048,5.845191893269409,56.609288817795914
1560500368.5612843,-359.58292466807154,56.99872687247405,2.5729708470898207,-2.221301608027748,1.6989045896277046,0.3881517690477363,9.531549964090894,7.8537624333214024,56.99872687247405
1560500368.6273916,-360.0228211136266,57.49164655921126,2.6662653263993104,-2.7506351753001184,2.084268131149502,0.2573353208944781,9.712960751089698,6.48726692642668,57.49164655921126
1560500368.8220453,-360.86348237628346,59.035118779914434,2.861060342473155,-3.082131103612745,2.2262890231856165,0.23571953965851034,9.97870635925857,5.625685793403168,59.035118779914434
1560500368.8886027,-361.0708036235876,59.340270913621836,2.9241881321398573,-3.0018964425802723,2.2526195512942255,0.2646046666238514,9.971241537019813,5.719051405807642,59.340270913621836
1560500369.3472273,-361.6468553560182,61.514983528907514,3.245809337943847,-2.4632180125112817,0.9393122301727982,0.4110720913123789,10.375124628656677,7.129394682814793,61.514983528907514
1560500369.4120257,-362.838441226564,62.03280904961908,3.423765404409643,-3.3146563012561794,1.9628534506152229,0.3122951945907141,10.253900489881184,5.114461835220991,62.03280904961908
1560500369.7432206,-362.9040779685037,62.79035956841408,3.6312414046783297,-2.6747750833584747,0.9403959115075875,0.4384693485617022,10.12069524754867,6.407502137186253,62.79035956841408
1560500370.0091667,-364.58320598196036,64.03631975359602,3.9795771162296125,-3.350108708189128,1.4192010505176964,0.3742718992266234,10.414165104981425,4.900215592117562,64.03631975359602
1560500370.2747178,-362.17272212743563,64.99788029357974,3.653947560040246,-1.601295872285952,-0.7047597556319951,0.35114870228032097,10.83057694700201,7.625969549779657,64.99788029357974
1560500370.3408437,-362.52791980040996,65.27462430039228,3.7013697964003747,-1.7186742326838156,-0.5581003392546805,0.31554584716247464,10.720237143609046,7.3071609805383675,65.27462430039228
1560500370.4069092,-363.0743247986232,65.54115856364638,3.8686358881087073,-2.1292521678707135,-0.1854710202158783,0.3616230688080805,10.678851441374578,6.545724673956091,65.54115856364638
1560500370.4730387,-364.5159503176823,65.9249214838691,4.147695716840898,-3.223729876596168,0.841507858941265,0.3946375646059136,10.83821801658979,4.64567042281057,65.9249214838691
1560500370.6713154,-364.2062943109349,66.9582106232415,4.195870883725215,-2.5796470174357102,0.007130828678009543,0.407301072737412,10.890431181836723,5.505276748196146,66.9582106232415
1560500370.935735,-365.5307134685684,68.71761855496679,4.529868792682121,-3.2843476111378815,0.5621293113421777,0.4157813995868805,11.157948726341706,3.867294054496718,68.71761855496679
1560500371.13129,-364.89522663216485,70.2123080424775,4.425422533220793,-2.747852081364014,-0.4396633117495636,0.37279720493563206,11.981147037281836,4.520904591948958,70.2123080424775
1560500371.2626092,-365.1968922347949,71.16807270558783,4.500060227187813,-2.8252412170356216,-0.3133164166515253,0.33283198123960145,11.776126224732936,4.246196808770224,71.16807270558783
1560500371.3288622,-365.69828867122015,71.90741933800372,4.645424696577578,-3.2548921526336145,0.06387539985430958,0.34874652260819355,11.73996083068011,3.4270405190457303,71.90741933800372
1560500371.522433,-366.19877226877577,73.94567975228716,4.780658185128103,-3.5939496298458735,0.32366659083593485,0.37127671879876856,11.935261808609118,2.6669101144700065,73.94567975228716
1560500371.6523168,-366.4959074904597,75.40793687990067,4.852639647293731,-3.8653696912681426,0.34301024282763515,0.34093510097912505,12.070401173820844,2.1416539019103804,75.40793687990067
1560500371.7830172,-366.38888228285845,76.94286142037406,4.842377158260305,-3.552802667533819,-0.06760958461078997,0.306809111210238,12.08125407121612,2.506567717804778,76.94286142037406
1560500371.8467565,-366.77972570658244,77.76205740160692,4.956262564219964,-4.054284728260219,0.49288550542041176,0.2858098943095414,12.007726956489478,1.6586770467393768,77.76205740160692
1560500371.9783857,-366.65778970622335,79.43029999392887,4.9482608401612875,-3.754822092645192,0.011469159836055814,0.2972851764349259,12.105626171430085,1.9926369569600442,79.43029999392887
1560500372.1095579,-366.8615447299896,81.2126927655901,5.046720782445632,-4.06403720880803,0.14793933203567827,0.31138544674980617,12.425897285887418,1.450498198902732,81.2126927655901
1560500372.2404742,-366.96514269577233,82.93656667863398,5.094137693636276,-4.113012715902773,0.15389355216240885,0.30498463705277423,12.250861044508069,1.228226013147833,82.93656667863398
1560500372.3058074,-367.10870906801864,83.81850948739506,5.139766985419859,-4.296099232981244,0.40415634784736415,0.29186596812486476,12.121554838454,0.8151806011856326,83.81850948739506
1560500372.435032,-366.9412775925057,85.60924177759314,5.147458090780131,-3.9667087470053723,-0.11453632723863874,0.3053031183319335,12.156504334211391,1.1189364652353708,85.60924177759314
1560500372.563503,-367.1356870819085,87.58246101087782,5.191502700231968,-4.242008930880067,0.1514362054884548,0.20035143445643255,12.220362965059474,0.44332353939767355,87.58246101087782
1560500372.8198235,-367.3768140725631,91.5986735511939,5.30054612125273,-4.533154651117007,0.28213529903339096,0.256919541304113,12.040593725769806,-0.4925330238121836,91.5986735511939
1560500372.8836362,-367.72316841280036,92.8856246616044,5.400639646554902,-4.811352771028034,1.2255448816571914,0.3196823154296029,11.822843642511712,-1.2699367680487772,92.8856246616044
1560500373.07711,-367.8410761487731,96.71300004000835,5.480994896396908,-4.881067170370255,1.0429970045275736,0.336420258107328,11.835911338531874,-1.8139986931515668,96.71300004000835
1560500373.3359563,-368.4008617493579,102.87095385300303,5.636747154326053,-5.253369612276289,1.7577533620640706,0.30209013352828784,11.489672600349907,-2.9398053171039615,102.87095385300303
1560500373.5312726,-368.44012538818515,108.0793516698496,5.737312594596936,-5.147399149329515,2.118773906373082,0.3423109977853772,11.085150262825538,-3.2821429428765754,108.0793516698496
1560500373.9317331,-369.04422698817984,119.99153271342327,5.907632042448428,-5.616684570190426,2.944076917399774,0.19013665565908516,10.107584576103248,-5.242932175005096,119.99153271342327
1560500374.187534,-369.3492287425758,128.17188173095255,6.036177430561574,-5.50004621809556,4.321143033721475,0.17055497176345263,9.266982234272943,-6.729090513146322,128.17188173095255
1560500374.3209846,-369.79559037043293,132.4814909681866,6.057888529983512,-4.662097892731819,5.912803398875065,0.08218107019666315,8.740314895320605,-7.419816837576889,132.4814909681866
1560500374.5216188,-370.082445807207,138.85847255829125,6.130107447336017,-5.1585111176588745,6.240017391646584,0.0645723105403993,7.783079626357839,-8.256819257517858,138.85847255829125
1560500374.6502795,-369.38757869321904,142.7935630003576,6.172829650242623,-4.903176981803786,5.921849056089045,0.25496619439571777,7.8468440344723875,-8.41175434796798,142.7935630003576
1560500374.7818549,-369.1063244175172,146.81531977424135,6.2089156614597565,-4.903273264322151,5.936463001745509,0.2589690043726185,7.4185091194031285,-8.619313986428983,146.81531977424135
1560500374.9796948,-369.54207596272994,152.8528783394136,6.286702106895297,-4.882655167951867,7.617526661456523,0.06374282960367883,5.496911269193556,-9.546848238981433,152.8528783394136
1560500375.0457876,-369.70091893399416,154.78945069180898,6.3666314391701215,-4.120468014784301,8.534165094858405,0.2372976879344372,4.839816623544551,-9.822778562611115,154.78945069180898
1560500375.1126115,-369.742562147607,156.66252787187562,6.3895289576807555,-3.9753996521361423,8.885124045218108,0.2706076803436164,4.467126151250069,-9.928444187317643,156.66252787187562
1560500375.1792972,-369.78024155469564,158.40949837079003,6.413298818383019,-3.4869906136217947,9.21460084547154,0.2529975692889839,4.153417923768519,-9.885487565180766,158.40949837079003
1560500375.3114748,-369.90617877616194,161.72603304782623,6.475575815059568,-3.42074102276062,9.27614553760007,0.2503824204263393,3.327751718405055,-9.60554487906906,161.72603304782623
1560500375.5094342,-369.90223459484946,166.13876884952447,6.533190279802013,-3.373002013390263,9.909142630397696,0.28455498029636983,2.4769420816555847,-9.759079081558399,166.13876884952447
1560500375.708237,-369.8719906702481,169.8343226328535,6.616153842903473,-2.859196917098638,10.207679193554869,0.3189197285256504,2.134861871856001,-9.604742184768703,169.8343226328535
1560500375.7736137,-369.85919709363907,170.78927867092244,6.635638344891566,-2.291718772983729,10.505753484658067,0.2396272813606084,2.0106323772398134,-9.552527661269869,170.78927867092244
1560500375.8396099,-369.88568157540635,171.6042298260185,6.689330058786823,-2.013154651309743,10.109374926024099,0.2769111898272189,2.168524140173727,-9.179539475797373,171.6042298260185
1560500375.9676237,-369.8877029060379,173.03018295185817,6.753408682747528,-1.8919008770185055,9.954498423375215,0.26198934012883834,2.040578469612833,-8.857641920068723,173.03018295185817
1560500376.3594418,-369.64662800771174,175.42485582723737,6.898716975427326,-2.168986315513217,10.464798594486327,0.3354409979663847,1.7192460573036419,-8.521215585253742,175.42485582723737
1560500376.557637,-369.4149101007022,175.6548793163775,6.959897965062643,-2.055165817580439,11.010698874812565,0.2494427338081085,1.6284021614370041,-8.231415876828024,175.6548793163775
1560500376.623927,-369.3389515847219,175.57976885836675,6.988353433382264,-2.088634483522461,11.158630239004653,0.24271580830202583,1.661346932147816,-8.157170218741403,175.57976885836675
1560500376.6931298,-369.2726384060396,175.42365554315168,7.019360431705302,-2.1548111004059995,11.230745843692812,0.2525850728191856,1.6862497409748696,-7.987504983312878,175.42365554315168
1560500376.7609754,-369.3420705003674,175.11711666083733,7.084944615310841,-1.9827646461905186,10.750899629095183,0.30746192827762564,1.9961005971055092,-7.363397226908626,175.11711666083733
1560500376.8248403,-369.31442460954804,175.05389605633036,7.132150389025935,-2.0423257588686887,10.580337194742595,0.2885221345529281,2.2027968359405623,-7.241718052807308,175.05389605633036
1560500376.887545,-369.24469668611914,174.8901517360333,7.1567053046012825,-2.113196141328421,10.675375150318672,0.24197192834463313,2.1160491320172095,-7.002616041818625,174.8901517360333
1560500377.0855603,-369.05886276739096,174.77077144527786,7.238601248596267,-2.1981627502628633,10.571727391667713,0.1648640057238235,2.2881601085852896,-6.817576425236926,174.77077144527786
1560500377.2206545,-368.99165205972014,174.54262990670435,7.302521694763585,-2.138512457073023,10.411886162323837,0.22191093078282306,2.3564910671329407,-6.340980120503737,174.54262990670435
1560500377.4165442,-368.9175990239497,174.15515206844506,7.404942725818326,-2.0669005910187392,10.351874088484209,0.2406810345326546,2.2071764379060865,-5.551399393353507,174.15515206844506
1560500377.5458581,-368.88380301903237,173.80034520858226,7.474288650664745,-2.051819584684853,10.434458429424865,0.189526596847982,2.103006901008461,-5.139016172675725,173.80034520858226
1560500377.7357235,-368.8085400357624,173.42536335722136,7.553334336609689,-2.1302485359244896,10.495945915309955,0.17497124469321715,2.1387575391283646,-4.783566348782098,173.42536335722136
1560500377.9251854,-368.62194500839394,172.9834407679588,7.593536387471623,-2.254440708157675,10.99006303073982,0.13506058118383363,1.908234609402433,-4.551123294803451,172.9834407679588
1560500378.0506535,-368.5170934707006,172.67137655041577,7.620531447483257,-2.384992969169752,11.271795829722539,0.11895915645727606,1.6944427822019745,-4.400173881369848,172.67137655041577
1560500378.1774693,-368.48158454906996,172.41032955965687,7.657345424161882,-2.3544697270725545,11.353072270085796,0.13611671771241846,1.5463686486969297,-4.127177499784606,172.41032955965687
1560500378.3070617,-368.61590340002414,172.15099089710768,7.7255630290542285,-2.092788095631144,11.069181699109617,0.17774552607341246,1.549831063254329,-3.617436866859738,172.15099089710768
1560500378.4426305,-368.64058018025787,171.90314472728622,7.768168881517674,-1.9589729042679989,11.145910633184672,0.1473535822336571,1.4208391646239675,-3.228605063322962,171.90314472728622
1560500378.7030244,-368.6006607155818,171.484766943598,7.849390779800238,-2.0116476116955155,11.287049705275498,0.12851768168272076,1.3969792526477536,-2.7515090824601516,171.484766943598
1560500378.9547124,-368.6021969024717,171.00416527902865,7.9066943879736655,-2.0909797712456206,11.517714073958723,0.10246437118296922,1.1828836607069768,-2.6501011001133583,171.00416527902865
1560500379.1525838,-368.66645528237154,170.6867083480713,7.949894927976222,-2.102973509361346,11.620134262711835,0.08541969895657636,1.2875312200880282,-2.443577409097186,170.6867083480713
1560500379.3500268,-368.4884939370153,170.3845467314765,7.9753374996704025,-2.4280677057502906,12.1105902880019,0.11872967063542639,0.9676914327146314,-2.075375805076366,170.3845467314765
1560500379.4818702,-368.76720684308225,170.2067822649527,8.039751354100598,-2.0802324280620192,11.76097652581123,0.035414846841331615,1.0514682894170426,-1.6414267535867324,170.2067822649527
1560500379.5486124,-368.61285366287086,170.09130708723382,8.011663667882797,-2.3954596785027116,12.417245567735419,-0.03159316418339281,0.7384743405158508,-1.5806367995813786,170.09130708723382
1560500379.6158104,-368.84988832718267,169.97778522908868,8.04684663149153,-1.9723559098956558,12.104924610381152,0.05367020316039567,0.7896637562538691,-1.1821485295936847,169.97778522908868
1560500379.681889,-369.2793782040052,169.8514780506171,8.121232017395073,-1.0269349198801347,11.31730278878565,0.15025800036126427,0.8672897430600252,-0.3802255243747358,169.8514780506171
1560500379.7474916,-369.7628666310232,169.74636042879297,8.202687290605322,0.29250044725811064,9.97905775473263,0.29998851289717465,0.9920585774139926,0.6743074923780319,169.74636042879297
1560500379.8142288,-370.1917349877704,169.64496068341586,8.269738012250953,1.3941536078155357,8.87510621399295,0.43424569190702683,0.9840581481371762,1.5613352082253538,169.64496068341586
