timestamp,x,y,z,vx,vy,vz,roll,pitch,yaw
1560500327.1910126,0.05677700191573829,2.798055708874984,-0.14056242194628074,0.10800353114053478,0.4654897116049129,-0.33976359193199435,-36.05706893584493,-3.606698687671229,2.798055708874984
1560500327.256254,0.09168626588510301,3.5414408109988473,-0.18522604807064633,0.15167147846276183,0.5212360924263051,-0.39347486828133965,-36.28812705148535,-1.5607177786414281,3.5414408109988473
1560500327.3870366,0.1437545040323078,4.8012249478965865,-0.2219105785318265,0.26714413451660995,0.732586058615863,-0.04203844378125743,-30.884065641638625,-0.3061728277531243,4.8012249478965865
1560500327.4536862,0.15180640018535885,5.833652892858312,-0.25661894779719546,0.3064533173254159,0.789694414747085,-0.04702057449169761,-27.564770665635272,4.1359265950742214,5.833652892858312
1560500327.584778,0.18567857646528915,7.529012116616979,-0.29587676459038914,0.3669967087466762,0.8531870554613573,-0.04651976755376347,-21.46221178138732,8.681502193407791,7.529012116616979
1560500327.6501553,0.20017258305317032,8.24037915022384,-0.32490901210569534,0.3758358294313446,0.874799690007267,-0.052951587069860195,-21.25437952026081,8.946616642559116,8.24037915022384
1560500327.7794204,0.222727092506588,9.800447722314587,-0.3705145442184238,0.3766997846456528,0.9222799933827226,-0.02922999211931987,-18.87062076734684,9.750081081039424,9.800447722314587
1560500327.8466609,0.2321519157062547,10.588798744469011,-0.3943495135994959,0.41443884516920826,0.9383345734230272,-0.05575543419574214,-17.81574429387586,10.461348898166353,10.588798744469011
1560500327.9794261,0.2773882059090069,12.217791926088072,-0.4436271701295924,0.5260869312010887,0.9511218000942705,-0.03078053060724656,-16.148398300055863,11.457256988620216,12.217791926088072
1560500328.044517,0.2831287008662915,13.185514631674522,-0.47445723354181607,0.5038022159470539,0.9132808425551235,-0.038546198719549396,-15.639585466669125,15.426199638280377,13.185514631674522
1560500328.109147,0.2907679301273855,14.01091211666781,-0.49032029395932464,0.5278874586887196,0.8684925973399479,-0.016563565705102923,-14.423032303329755,15.802541612465951,14.01091211666781
1560500328.2407134,0.33490412996651275,15.685394108639297,-0.5325142054030335,0.5894414366399785,0.8650833278743791,-0.014864273065855027,-12.930537724070945,14.365195576078074,15.685394108639297
1560500328.3071182,0.3550485777093279,16.602555312544304,-0.5621598660934772,0.6327748279664249,0.8722934163799041,-0.05050698967572825,-12.71240316817452,14.613344451170153,16.602555312544304
1560500328.4398844,0.4035862373756774,18.353092425824208,-0.6199555088595207,0.7319686571150179,0.8319013741096757,-0.053866325548356186,-11.76453786207066,14.792474233836296,18.353092425824208
1560500328.5077906,0.4451220888006314,19.231387180412597,-0.6416883329535622,0.7991993665887871,0.8514176623305332,-0.017055745554758917,-10.591912425884741,12.760926353782956,19.231387180412597
1560500328.6407232,0.5146800982291692,20.94562551465971,-0.6854660864062524,0.8720699247568354,0.8602920067019706,-0.037188442139058864,-8.950838575452606,12.093724997996523,20.94562551465971
1560500328.705646,0.5410631468730736,21.858820065120245,-0.7188355435135624,0.8917819510574467,0.8225843292306698,-0.0955615573467879,-8.574523904220175,12.978742942012541,21.858820065120245
1560500328.8353841,0.6219954224192668,23.478856502600195,-0.7623808527746265,0.9527587354044127,0.6958694258685788,-0.0657560735670144,-7.008076634693193,12.607147913729605,23.478856502600195
1560500328.9013894,0.6425747702216427,24.4176506381907,-0.7683161510343848,0.910381631368455,0.7145845308021552,-0.018730718676588487,-6.250615557146533,11.879320769274315,24.4176506381907
1560500328.966966,0.6663147298613932,25.233731809468555,-0.7798213647299259,0.8953403921255885,0.7793403808107122,0.016214776938880904,-5.9703937506717555,11.31029371525759,25.233731809468555
1560500329.0993319,0.7542957107017565,26.670903513163623,-0.8249522706322546,1.0014449552578184,0.6724250339391404,-0.04186142446729241,-5.403955084312077,11.615268029589595,26.670903513163623
1560500329.1659248,0.7847128999035005,27.441878495292855,-0.8416434917941281,0.9827811725405826,0.5521601607498668,-0.05340368576815785,-4.406918489925481,12.286921780005299,27.441878495292855
1560500329.2986813,0.8340994819069425,28.66887141531942,-0.8742807817379409,0.9618280310688846,0.5031795438364526,-0.05873169737333511,-3.5835956206871558,11.614057635612609,28.66887141531942
1560500329.364327,0.847557237675568,29.241522894724756,-0.8906372335935353,0.9395033208684652,0.5017817165213632,-0.07253254521349756,-3.4480376087227933,11.1696784629472,29.241522894724756
1560500329.4960191,0.8985221255220471,30.369080442404986,-0.9158093008833926,0.9033512593278898,0.3819538569964976,-0.042972208303872106,-2.85715000268171,11.158474726980863,30.369080442404986
1560500329.561911,0.9147983530563217,31.030758640432076,-0.9324956886894299,0.8712307843848809,0.3558974616344113,-0.03704888501814965,-2.7838592606459276,11.173668992909043,31.030758640432076
1560500329.6900537,0.9253516522380532,31.963886830857515,-0.9475309952582174,0.7568729735323674,0.33734219799389964,0.02261351199630668,-2.310290462679678,11.035647999360144,31.963886830857515
1560500329.7555141,0.9555430090352092,32.41409401592038,-0.9586521314048598,0.7515580992173145,0.32821963879964045,0.04503265005242775,-1.7227003540287888,10.821946949191874,32.41409401592038
1560500329.8859618,1.0030251172090032,32.98237313679038,-0.9748972392410385,0.7204041190080213,0.20396673644863372,0.008950790190540125,-1.2241709098899,10.838943070744316,32.98237313679038
1560500329.9496398,0.9793476761108435,33.34008611611277,-0.969321224772114,0.5854241570931645,0.15056293420359362,0.0012140086108327203,-1.1115356499226758,10.347159078494105,33.34008611611277
1560500330.0130727,0.9657207233751299,33.6710836239505,-0.9736728141986009,0.5177831056545827,0.16650111164250797,-0.018798393172889546,-1.3168520367921714,10.094320767477985,33.6710836239505
1560500330.1416717,1.0251207434894853,34.08770266273868,-0.9888471005906845,0.5922150054488345,0.12880497668079136,-0.047633009091232345,-0.8691254847304691,9.826647090206238,34.08770266273868
1560500330.2069974,1.03367278468452,34.26336756847089,-0.9963012577390588,0.5940780115260543,0.07169763315145183,-0.10596585913020949,-0.4740072576896074,9.514222321432971,34.26336756847089
1560500330.3368645,1.11923159853993,34.590718186351374,-1.020141961303829,0.6826156316453056,-0.12246417295270386,-0.01849503142875658,-0.21194813281644623,9.261410769361486,34.590718186351374
1560500330.4022615,1.144413767890747,34.71477796250448,-1.022299090168639,0.659186663390464,-0.04761331221393799,0.08729271083061982,0.12139329963876219,8.931641092909572,34.71477796250448
1560500330.534083,1.2641885995792528,34.54753672411422,-1.0265645777493349,0.7393453177311234,-0.20876412862399002,0.19039924640154632,0.15248961692953047,9.29215807094973,34.54753672411422
1560500330.6006885,1.3141664282225232,34.5452023115554,-1.0438790441555803,0.7516238049958495,-0.3244592697172963,0.1324646269695902,0.36059219762669914,9.40973133545799,34.5452023115554
1560500330.7335172,1.4231196839849367,34.40223561443328,-1.0547480592394327,0.7881334378746934,-0.4305173842115277,0.06999784954431143,0.6428095203751599,9.226606352875972,34.40223561443328
1560500330.7996633,1.5235581357205346,34.1461354527081,-1.07342384838498,0.8947914269182023,-0.4748571017720662,0.054956712695515844,0.6723478676761504,9.149439508459373,34.1461354527081
1560500330.9318485,1.6535860349753284,33.55063880761529,-1.090155603090152,0.9191309025070906,-0.6557465638557588,0.07699825160072271,0.6999147320932729,8.899066384757235,33.55063880761529
1560500330.9975915,1.7265624145734377,33.29892033312139,-1.0965343164012622,0.9528440665147707,-0.6777668045837054,0.09185866071436916,0.6154892152760024,8.502227213629402,33.29892033312139
1560500331.0634115,1.7943620131501083,32.9948759761877,-1.1025503916850812,0.9691649704665487,-0.6679827301194825,0.09787236719895867,0.372835151054017,8.263708911440967,32.9948759761877
1560500331.1946568,1.9489988975607142,32.09948366149803,-1.1150822481097784,1.0390362532297404,-0.7013723395897472,0.06051133719898055,-0.07105832222718253,8.09838146866797,32.09948366149803
1560500331.520875,2.433367384959845,29.432364164586662,-1.1584176634491565,1.2130710180824016,-1.1051961959184569,0.059570626874864904,-0.549596793643229,8.078833704025687,29.432364164586662
1560500331.776063,2.8966992702995573,26.90753813214789,-1.191731309442826,1.4177619034125382,-1.3145216500350505,0.1142063205398785,-1.3453819868313703,8.04265575944201,26.90753813214789
1560500331.9725192,3.3008981861365827,24.734378304762497,-1.2179494224317615,1.5907790674475641,-1.4218469152207878,0.09028128114586148,-1.888832219800422,7.896369552976749,24.734378304762497
1560500332.2352135,3.873571874098123,21.64921823647565,-1.2456684933026985,1.803103322145089,-1.6452964337921636,0.10661413180506686,-2.261542231774734,7.694522681566108,21.64921823647565
1560500332.366946,4.195081473023745,19.97623254927098,-1.2632101548757082,2.02485261403826,-1.5998318380151866,0.12533494274989787,-2.638500288480506,7.649192786493712,19.97623254927098
1560500332.5639143,4.750266330074318,17.401767586513593,-1.3022908733833414,2.1971606185107526,-1.851683930480992,0.10695991311042868,-3.2841205760757246,7.533200977106516,17.401767586513593
1560500332.62944,4.946399694811122,16.453204470512755,-1.3249372305980514,2.338338649092869,-1.8368843926390757,0.08668738208911705,-3.522512920293958,7.488919930400868,16.453204470512755
1560500332.8266714,5.537876408183807,14.101799950307566,-1.3799597102064793,2.523798206395492,-2.0088099702411477,0.07337337563944879,-4.192967368083133,7.446163120801634,14.101799950307566
1560500333.0261316,6.186114343520204,12.023911256256062,-1.4301915546822421,2.7515509129390914,-2.1181342477322054,0.03777207621623699,-4.6362846081016365,7.540053473216045,12.023911256256062
1560500333.1579077,6.661375174861513,10.768028899398237,-1.4854759839239673,2.9623648392104025,-2.093792519485565,0.026188788343389308,-5.141262736526665,7.679770941803066,10.768028899398237
1560500333.3561628,7.381653539016863,9.285739371740387,-1.5497346825221876,3.1683571302168194,-2.1928976399676636,0.010935897056383231,-5.483401772552383,7.885734331393709,9.285739371740387
1560500333.5532732,8.14890009783517,8.167345052688797,-1.6347481400446613,3.399239972422696,-2.2193642098706445,0.0053560214184775745,-5.881858292047345,8.029260437737058,8.167345052688797
1560500333.7473247,8.941797680224886,7.28479817317053,-1.721914378755658,3.617823615793424,-2.2107371865113077,-0.05910583201392533,-6.291225911596113,8.192554508663733,7.28479817317053
1560500333.9462328,9.78854342009713,6.681932062575661,-1.808118415428126,3.8124380440917656,-2.208181827373036,-0.015327059026189582,-6.385218747729738,8.36243613508429,6.681932062575661
1560500334.07894,10.406889488593814,6.320117177760547,-1.8861140011543756,4.000452018867087,-2.111409787426068,0.025731708897921313,-6.620133414701049,8.71296619456678,6.320117177760547
1560500334.2170022,11.053590812851205,5.919927161054442,-1.9696948599741158,4.149903659331597,-2.050210302200656,0.013833824029749864,-6.963722909199878,9.08509698714564,5.919927161054442
1560500334.359202,11.748344301806274,5.381412915196193,-2.057636801746067,4.355811947754485,-1.9531861835099278,0.06463457593877647,-7.215915189283494,9.563720242544472,5.381412915196193
1560500334.427272,12.114893551827421,5.05769098047862,-2.118341879292532,4.50937613042053,-1.8619822714947278,0.06599805143775611,-7.368371934027362,9.910823525712004,5.05769098047862
1560500334.495073,12.467120430694873,4.758577556352924,-2.179431712705089,4.638251506798447,-1.77568834872733,0.024511347289955188,-7.565078934264126,10.21965614626754,4.758577556352924
1560500334.6297355,13.139889327679992,4.237391410045682,-2.282827460697149,4.797916820777866,-1.6376854221365336,0.005208099392349563,-7.902099132114579,10.555708421405056,4.237391410045682
1560500334.8274896,14.129938550193712,3.570521900111641,-2.456413323108486,4.984921286143872,-1.3773616835491542,0.00019626365071245822,-8.49809886837348,10.991204062297857,3.570521900111641
1560500334.960959,14.822937845340077,3.1717777493077954,-2.5761292093992103,5.117061901970991,-1.18701545981927,0.06771850622850206,-8.71353698069431,11.36104619556837,3.1717777493077954
1560500335.1604884,15.833562009419722,2.6964792292529727,-2.774947533811249,5.226602767663231,-0.9010368158008548,0.07330560949067888,-9.023952106628306,11.811733089478954,2.6964792292529727
1560500335.2943838,16.375415188981343,2.2695787818478346,-2.962550952349417,5.103106392810723,-0.33163258285966113,0.08027229632456567,-9.81275600194853,12.431995767068216,2.2695787818478346
1560500335.4251168,16.944030133850088,2.0066069717649966,-3.1419088654448863,5.0601585647188445,-0.007808885500335594,0.00269098033898163,-9.997071161216128,12.599449344850916,2.0066069717649966
1560500335.6183815,17.925727336538724,1.8252256897871106,-3.384253090291112,5.160696863320306,0.2107317889413331,0.04125590220085362,-9.896430846419314,12.617677983106134,1.8252256897871106
1560500335.8123784,19.012926297512248,1.718392163382821,-3.6344410489901517,5.334649168197412,0.34629725374971676,0.11145903890349662,-9.971748312064248,12.814230496315526,1.718392163382821
1560500336.008303,20.078752449605147,1.678537133953105,-3.8817240494275973,5.452857680045858,0.4660379532334974,0.07455087220036005,-9.961353484784683,12.830244977734417,1.678537133953105
1560500336.2073362,21.16838720263958,1.707719342773833,-4.139264120991079,5.553142767724104,0.5988175998509795,0.060870073530471025,-9.804141004784594,12.713286661196163,1.707719342773833
1560500336.274565,21.633971987478787,1.7636568479526646,-4.24928927166599,5.701529734780063,0.6022979345806935,0.06815262710928982,-9.744895060857049,12.728127285147641,1.7636568479526646
1560500336.4742665,22.825076309560345,1.7918702548808496,-4.52581650310981,5.854212745939892,0.7239847442505154,0.10316197588548648,-9.712371751510886,12.861474638678564,1.7918702548808496
1560500336.5409114,23.178849891108047,1.8615836833516481,-4.608610631851615,5.834154949514774,0.746905832506052,0.1012515194937107,-9.636615819155763,12.80342922302188,1.8615836833516481
1560500336.6742969,24.00599275094498,1.981309978331105,-4.807598068136018,5.997586962329217,0.788091124843856,0.07640341113758953,-9.406458049197221,12.830298595790735,1.981309978331105
1560500336.807294,24.835511695065467,2.055894862146586,-5.011628948115237,6.133071373317609,0.8338824972097527,0.04713346038416888,-9.248668672769714,12.850197689982263,2.055894862146586
1560500336.9401393,25.73264306699439,2.1792950143512373,-5.231280271456386,6.337941292582458,0.8489530233584459,0.05559619150126749,-9.156814402026324,12.914421294843786,2.1792950143512373
1560500337.0731685,26.592555392080822,2.309420289674894,-5.441674796254789,6.461709695185219,0.8360627843002222,0.05868189833121629,-8.93900550330591,12.956462315389746,2.309420289674894
1560500337.2718778,27.88727239285407,2.429843748541143,-5.760917455901567,6.602519549879589,0.9121860349994174,0.015744360674039504,-8.910284465227624,12.965023921457865,2.429843748541143
1560500337.4047291,28.800843338575447,2.654320525124426,-5.984970043018782,6.7293987902314925,0.8990037305536466,0.058748177552095715,-8.759599221297082,12.955920587054031,2.654320525124426
1560500337.4707625,29.2856191691986,2.7383531004482218,-6.097548459253858,6.830498623702423,0.8655133163367312,0.08508543394456147,-8.632122712310649,13.000362325387394,2.7383531004482218
1560500337.603931,30.14963941851578,2.8177830392765273,-6.30307295802252,6.832834296791027,0.9044661563507568,0.0775394936620446,-8.654255537793926,13.063882954426107,2.8177830392765273
1560500337.8687606,31.94312937541409,2.96203427655165,-6.7470423065612755,6.903634942316744,0.9957358479068041,0.07195011538977858,-8.618492991270518,13.225619573285803,2.96203427655165
1560500338.1333213,33.641698400385785,3.0950086327234865,-7.168616259676431,6.79233965325469,1.0883767454366113,0.11793351228850124,-8.658868007409064,13.363495752080189,3.0950086327234865
1560500338.535478,36.22349785019733,3.364900739374774,-7.833175435154575,6.653449502296841,1.302622462624662,0.09372524224614232,-8.78828631354874,13.545046256710755,3.364900739374774
1560500338.7367911,37.54361623759896,3.616721221276585,-8.180972256807436,6.608913795321652,1.2800656106865296,0.1591638717835555,-8.61758501339072,13.733819858415785,3.616721221276585
1560500338.868527,38.29567358682395,3.8001801310078767,-8.365951679594298,6.497146053295105,1.3580207020789883,0.11165639877889744,-8.66802220034859,13.83085069584751,3.8001801310078767
1560500338.9340758,38.73679136380572,3.953131051760906,-8.492813666660773,6.5098816560650254,1.326776777459372,0.09276609685605242,-8.565455661371782,13.735956490847883,3.953131051760906
1560500339.0670536,39.89466817170161,4.313627883464399,-8.817202369939817,6.860389852708653,1.248901020868182,0.05830748995772028,-7.98538791421343,13.944067068633466,4.313627883464399
1560500339.133582,40.50434274868304,4.523155595418328,-8.984112597409723,7.162601567068811,1.1054736560671499,0.07432984980537527,-7.6045226836913455,14.120447273508953,4.523155595418328
1560500339.1997197,41.01866652696057,4.6080959645523185,-9.116005534046197,7.285043319071859,1.0933616463881881,0.0798847101025768,-7.457895918133754,14.212905946853555,4.6080959645523185
1560500339.395933,42.41886687144417,4.849577945625776,-9.494811461330535,7.329624472972132,1.0407928233404724,0.08760766954699095,-7.285247017003226,14.47297983325241,4.849577945625776
1560500339.592799,43.33199493169578,5.074458887002187,-9.725478126044992,6.526729880703236,1.1245810068848143,0.10700823425538664,-7.5729133075948285,14.271455151282797,5.074458887002187
1560500339.6558692,44.107114213925556,5.258657320004378,-9.943742914111041,7.209250579575348,0.9505517829934499,0.0453479149860776,-6.985627301402258,14.376125744862073,5.258657320004378
1560500339.8523138,45.37210866656788,5.5249764405426625,-10.284014427905163,7.033668010439758,0.9181138112261937,0.04045292073609552,-6.7838326017373145,14.261956152328468,5.5249764405426625
1560500339.9876049,46.3493489328783,5.70065035726187,-10.536809923525864,7.086085538344588,0.8696362575776021,0.07917782697778986,-6.6723088228827345,14.37850220129387,5.70065035726187
1560500340.1884136,47.79869621914147,5.962400168761837,-10.930182929446481,7.181637021428939,0.8101484039903804,0.07292758829055956,-6.548443748078101,14.667564580267555,5.962400168761837
1560500340.2529182,48.07922854879356,6.078070106159715,-10.995885821756064,6.930273001711455,0.7656738578353818,0.08300551341180396,-6.53880670171006,14.5379551996753,6.078070106159715
1560500340.388123,49.17406012507684,6.219392049840878,-11.290839409544214,7.237498976548732,0.7232008392671538,0.047051690927238043,-6.308097792879825,14.570978150994314,6.219392049840878
1560500340.5846322,50.440917378339,6.379666547223148,-11.623496073473074,7.1272442334227515,0.7160162184561552,0.05644114137160994,-6.25517529129248,14.555280662551766,6.379666547223148
1560500340.6513026,50.92335746675777,6.464594924184673,-11.751853245444776,7.178626518673044,0.6536364780822025,0.05349460577858611,-6.108766646434692,14.566448922338457,6.464594924184673
1560500340.7198706,51.38960386598539,6.539565695440687,-11.873868144345748,7.16999259795133,0.6224361543057063,0.057876245672024096,-6.016050735843716,14.551668962943,6.539565695440687
1560500340.719931,51.39065948691624,6.511333097014236,-11.866508490958346,7.1635159074622905,0.5954449432155166,0.05061428643582189,-5.89155541858851,14.421888102893512,6.511333097014236
1560500340.9261947,52.80302347404419,6.598102704367185,-12.211657290236179,7.178572737255096,0.5561595764074081,0.09233236463303718,-5.6646324987616525,14.204920371027319,6.598102704367185
1560500341.0647411,53.74833079891401,6.650781536559437,-12.450653820700552,7.184054506810899,0.5420941708113045,0.05437901082493779,-5.58926929674189,14.185427955997802,6.650781536559437
1560500341.197576,54.64812180933796,6.762368446868301,-12.679943844388571,7.17442428241019,0.5427075722677579,0.05258324544595405,-5.666016615019174,14.19948308448497,6.762368446868301
1560500341.325372,55.52640875756381,6.873872461696674,-12.904837654558566,7.184070488524628,0.5136388707389394,0.09991546269293305,-5.657117942582322,14.24015823924416,6.873872461696674
1560500341.3915205,55.9281646795505,7.032811249661891,-13.082524982649966,7.144366423432611,0.5608957764267308,-0.007088436750964933,-5.904265967320574,15.037790834986462,7.032811249661891
1560500341.4546506,56.23165101520239,7.108777517580044,-13.158678495850939,6.893524454143639,0.5092798735148895,0.09416380445418926,-5.80010969100876,14.919619195888393,7.108777517580044
1560500341.5849326,56.84732388069552,7.137383738484071,-13.310313790555622,6.412013106560881,0.5351341085286054,0.11058884680868486,-5.970088189364566,14.866142166522947,7.137383738484071
1560500341.7882104,58.15465549589311,7.162079023387115,-13.658176404136848,6.566716108790814,0.5017909670133998,0.04818229919499539,-5.948478437143208,15.06636650719051,7.162079023387115
1560500341.9862254,59.55497780898297,7.242101887603991,-14.036223187111174,6.8655605650672475,0.45964863582800186,0.04768067665395992,-5.880353571313434,15.06041352907794,7.242101887603991
1560500342.118323,60.485283650381305,7.313625419726997,-14.285364638049753,6.969201628749344,0.4060317718678076,0.09406771717356888,-5.774165366387321,15.04012541161818,7.313625419726997
1560500342.250551,61.42530071672506,7.409221370365337,-14.529295575778502,7.061198138168571,0.3407500417911078,0.12072022831928564,-5.5350056051349155,15.023938250139544,7.409221370365337
1560500342.383841,62.12011232355627,7.415576208320195,-14.694986725473532,6.795525874237394,0.344580224424091,0.13420355789754956,-5.7096340359057285,14.891355527631974,7.415576208320195
1560500342.5855668,63.33616859658891,7.4863646726112725,-15.001051624591561,6.702571151652513,0.32006447815437034,0.11502479127347764,-5.7330055882860425,14.825002468425893,7.4863646726112725
1560500342.6546311,63.721489017524355,7.491661693593783,-15.095768095758071,6.62194465007474,0.29766549428861033,0.12483037685118425,-5.699708562096256,14.772632756735913,7.491661693593783
1560500342.7255425,64.09973305569171,7.534838417104713,-15.180497232778158,6.518192179643233,0.2779751359728803,0.1319665106220662,-5.728304617792089,14.611883080117,7.534838417104713
1560500342.9215283,65.38958936818238,7.6360899706272845,-15.500398376078612,6.667882359172202,0.23539798482846033,0.10424383332812703,-5.690085016275024,14.593532959611993,7.6360899706272845
1560500343.1199696,66.30226169569413,7.648675626195636,-15.701678178605052,6.213797477913791,0.26779185632091485,0.1301498896263853,-5.82381769765236,14.39858819053156,7.648675626195636
1560500343.3189554,67.3607958606124,7.684795381651418,-15.948495862482547,6.102990393414036,0.2877382229103824,0.16853987138789805,-5.917428467556338,14.37930873657168,7.684795381651418
1560500343.6519394,69.3662503942568,7.813350601778973,-16.4284197769982,6.296749460570584,0.27562277052296624,0.1344929230637204,-5.917135974993946,14.363912466789495,7.813350601778973
1560500343.9164283,71.08673364525137,7.88728550722508,-16.844071044454083,6.499870511055435,0.23653774687678147,0.17641851487089277,-5.9298999497838665,14.347319488860606,7.88728550722508
1560500344.1829963,72.52069752911882,7.950983247742307,-17.184281858336355,6.400284773121355,0.2481227175760106,0.14838951058007588,-6.107532502495545,14.168734283740397,7.950983247742307
1560500344.383006,73.57087157964452,7.958797915203753,-17.42689443493952,6.309290145969277,0.26972895785749507,0.1719213813139091,-6.184996443711436,13.972965081068015,7.958797915203753
1560500344.5165763,74.49423633093441,7.959979410409914,-17.642720923532018,6.445454962632155,0.2897188192102401,0.1760327649684812,-6.252861897750936,14.041852743710644,7.959979410409914
1560500344.780893,76.27034536396212,7.904985306160369,-18.057396085366317,6.654150060386516,0.23826350519804618,0.26508621782342745,-5.869992037307903,14.595584846940836,7.904985306160369
1560500344.9126956,77.11792747542108,7.854487328496277,-18.275301122963583,6.722998328922126,0.22273654020319686,0.07523540480690216,-5.7599190658755655,14.525346988222513,7.854487328496277
1560500345.4421222,80.3959500734206,7.830914633469602,-19.08369423010086,6.674459911890067,0.1847810416973865,0.23189893233596415,-5.878878660054942,14.339466618242815,7.830914633469602
1560500345.6446533,81.70869651461133,7.73029796070763,-19.39825598102035,6.774628795655352,0.1434906534763153,0.055298186113955206,-5.90639370886105,14.3962071813306,7.73029796070763
1560500345.781868,82.54878325237907,7.745412458839278,-19.635653079834412,6.789125569702221,0.1538244774119059,0.047227738164162814,-5.97267848787527,14.012591984519162,7.745412458839278
1560500345.9173474,83.50800042656036,7.652176310734248,-19.850011290918896,6.882059453819009,0.1799329570869048,0.18300147635332986,-6.17493649849792,14.302390147467722,7.652176310734248
1560500346.2560115,85.89232935489359,7.594636117625679,-20.42372381497018,7.171901873252652,0.16766604591545767,0.033260088284576605,-6.166523851470075,14.604370473948725,7.594636117625679
1560500346.3880785,86.9623646196508,7.577869316353819,-20.680536562398018,7.399463068709545,0.14932040247233283,0.18080152073785727,-6.186975660221183,14.427586323021773,7.577869316353819
1560500346.4547687,87.54559209176719,7.505902198238873,-20.82176221470901,7.557671582028683,0.14847151310798945,0.2234293180749669,-6.12013164281991,14.349786545132433,7.505902198238873
1560500346.5203402,88.05615876678588,7.493982668153727,-20.921725876745132,7.613363662891469,0.1669728635904322,0.25889405652173325,-6.106070844751297,14.174957436425961,7.493982668153727
1560500346.721127,89.51146468390996,7.444193037406428,-21.280692270639015,7.661812899246236,0.1580174237738675,0.1877537582937523,-6.099508019302126,14.029175939098359,7.444193037406428
1560500346.78803,89.99892294621064,7.485631446983942,-21.4324598593203,7.6936692235734645,0.161791425254898,0.06556866394664773,-6.097165538939731,13.927144611645579,7.485631446983942
1560500346.8557675,90.48193562067097,7.480446498027507,-21.548671429086966,7.682894501077211,0.1427202746096348,0.023466421048837338,-5.9678239931566495,13.685273680232855,7.480446498027507
1560500346.9918165,91.48729204166766,7.496432551594268,-21.794461612087893,7.740284735034026,0.1469350419165297,0.02659641242589772,-6.029091706246657,13.824419562983984,7.496432551594268
1560500347.12771,92.51268004563917,7.470298668373479,-22.051996880808886,7.841510570791045,0.16940320403548098,-0.002425187022870645,-6.131237775116771,13.956081765132568,7.470298668373479
1560500347.2619667,93.52536615938614,7.47854008400795,-22.30771428583948,7.915705732511268,0.17771846285199425,0.012152059735297982,-6.194561822671267,13.984378568436574,7.47854008400795
1560500347.4572785,94.94404242942888,7.4892574669550225,-22.681053900834105,7.907016381634771,0.24615085715972473,0.06292590714048085,-6.441478219620175,14.217509438054213,7.4892574669550225
1560500347.5868602,95.93204904720001,7.453614452641502,-22.94495476352181,7.977257100975988,0.2701740140537068,0.028678750363752448,-6.483209497857824,14.241706211270921,7.453614452641502
1560500347.6533496,96.4472556592983,7.434552917668627,-23.075861698185637,8.015947671923639,0.2838754213621604,0.03947737827612108,-6.4808306474298245,14.249014261673468,7.434552917668627
1560500347.786618,97.49509300933619,7.416353997774475,-23.34109841144981,8.109486035704322,0.2730551088895735,0.05660250318523441,-6.3977770658717805,14.25193969713964,7.416353997774475
1560500347.9194114,98.56953604812082,7.392790467992641,-23.620329391270143,8.246979172520023,0.2786607825305849,-0.0006276212285840632,-6.378175746077513,14.105241244707017,7.392790467992641
1560500347.9841342,99.0799707456433,7.426975545820274,-23.75258357692111,8.279495108653153,0.29008386594389046,-0.063384983394146,-6.3669031504595255,13.977657164513857,7.426975545820274
1560500348.0460994,99.57207218807889,7.40408966491458,-23.87648148665168,8.306430222746386,0.2829598825408305,-0.062140359163289416,-6.3415921277608165,13.889186709208444,7.40408966491458
1560500348.1056232,100.05238729814148,7.381457414333024,-23.999138932039266,8.342142097850237,0.30476972237702804,-0.014079440994326342,-6.387767108793094,14.016730593688928,7.381457414333024
1560500348.2141242,100.92682255540852,7.359204728422354,-24.219059640615598,8.394697402649857,0.29993322788341426,0.06833179485291963,-6.279808036733844,14.020989423682087,7.359204728422354
1560500348.3196325,101.77506451865507,7.340663837368977,-24.431029495919038,8.438774170876679,0.3127711725585717,0.050502088794135425,-6.3332913700331535,13.997764532993825,7.340663837368977
1560500348.3782644,102.24361640353418,7.358065470126284,-24.550679181847336,8.453228736790992,0.31305276510313207,0.007074447458158328,-6.283904145544724,13.867519587128593,7.358065470126284
1560500348.4329548,102.68217500094015,7.3863175079198005,-24.657818887564233,8.46240099141232,0.29528314619557083,-0.006072340323231895,-6.195848935076915,13.699672688759247,7.3863175079198005
1560500348.544735,103.59427079665848,7.3162044939681925,-24.892131916744038,8.52427221545959,0.27609351591190767,-0.039142898299891815,-6.10705775283766,13.748215627970898,7.3162044939681925
1560500348.71822,105.01776344111398,7.246153992178901,-25.255067862951005,8.589668225194439,0.2862700557607054,0.014134915334772957,-6.01619175286075,13.693095165798557,7.246153992178901
1560500348.8506768,106.11275715358171,7.206123885983884,-25.525409034757462,8.633226486931475,0.30750601941947137,0.06730987465283866,-6.093794769449059,13.905179370948003,7.206123885983884
1560500348.9171903,106.66324595704795,7.192742793161344,-25.660036295204204,8.658351408956026,0.30202919088288316,0.0899116210935913,-6.086623826795883,14.006994265824622,7.192742793161344
1560500349.1169672,108.32794898494458,7.2854454417006345,-26.09683972395612,8.775537759336995,0.3125753423032325,-0.09474548216402079,-6.124249597139783,13.753402716264736,7.2854454417006345
1560500349.2516234,109.47768921257352,7.370113308838163,-26.396195447727653,8.833792678421656,0.3254034753450908,0.007576998599623241,-6.186312443778801,13.51904431872538,7.370113308838163
1560500349.4519274,111.2209916232747,7.529103900109492,-26.832087879216438,8.956010650175157,0.36606708332336296,0.02001650101965513,-6.262804399609816,13.793473766543768,7.529103900109492
1560500349.586499,112.3758107044858,7.653603143384651,-27.141315232357044,9.012271100339262,0.3710100355546778,0.004529147441547199,-6.313082845776368,14.07798879906073,7.653603143384651
1560500349.7192953,113.49797015847163,7.738114642716442,-27.430997552321834,9.03544642876628,0.3758235109376329,0.010974441392295642,-6.301035853026537,14.021428680694692,7.738114642716442
1560500349.7856324,114.10065008407409,7.774761077634587,-27.562290567637145,9.094047016626233,0.3550477503288975,0.034399077247337484,-6.218723242564142,13.731977113695908,7.774761077634587
1560500349.852198,114.68830749148083,7.8444166571100205,-27.69920363159443,9.123684492562196,0.36679933190278574,0.04609635488970287,-6.222067248557468,13.732777988172343,7.8444166571100205
1560500350.118714,117.01292538233774,8.002083622737555,-28.278215148615683,9.23549262251945,0.4378282132564898,-0.041217029019234186,-6.4990325205402515,14.085304651559861,8.002083622737555
1560500350.4014738,119.51831653073916,8.132069373951209,-28.924094967135865,9.396401672311162,0.4510199195269265,0.02132091998925123,-6.424442463222819,14.081085187616145,8.132069373951209
1560500350.624632,121.60830713671349,8.321420190721343,-29.48286658293045,9.60841489035501,0.47162522228591414,0.0074203801599384,-6.493254988751704,14.007455813325043,8.321420190721343
1560500350.8507314,123.63406087263932,8.403484821627714,-29.960887376501265,9.63419923690856,0.5312444725497678,0.10933403700067768,-6.479922550975655,14.063400763565381,8.403484821627714
1560500350.919472,124.26673365644848,8.447049235872603,-30.118846804612133,9.67006793026353,0.5184673404118404,0.07034682659687741,-6.487456588080274,14.04287468898057,8.447049235872603
1560500351.1189587,126.36420012845102,8.686265327188329,-30.742358730690142,10.04111576316633,0.5489372262278707,0.021216213840136167,-6.547624451392595,14.391200462339462,8.686265327188329
1560500351.184626,126.93961093624745,8.71744485997463,-30.845064335628756,9.991068442722003,0.49715779185758463,0.11495656842950419,-6.427451119953497,14.100453344450887,8.71744485997463
1560500351.3160603,128.14466115883016,8.779325895115715,-31.151381985048996,9.977034262725018,0.537220913178251,0.03680743060508629,-6.401850959641626,14.081496453550177,8.779325895115715
1560500351.4464033,129.3498964154624,8.863172709001256,-31.455225462343677,9.970174575225624,0.5438091366923089,0.03969707273094336,-6.3350422276160145,14.06261931082484,8.863172709001256
1560500351.7758098,132.4926069868686,9.087306277223886,-32.27334991370004,10.107990223608834,0.5819948524936752,0.054359325449043094,-6.353022776008894,14.157243998526807,9.087306277223886
1560500351.9117916,133.79376970523492,9.176278504141553,-32.61448543469964,10.155831949056559,0.6164070844274689,0.061075751225605934,-6.436448674622082,14.200948737165675,9.176278504141553
1560500352.112851,136.0081307008605,9.376875528860788,-33.278724106067344,10.593847506443922,0.6663526207029659,-0.050386401175607,-6.649590880834855,14.847890951580716,9.376875528860788
1560500352.3105009,138.03981877413935,9.504226332732179,-33.84444461675547,10.754257431162111,0.6247896246793274,0.06192082760758222,-6.474430576118855,14.974004397959305,9.504226332732179
1560500352.575837,140.9457695809109,9.666224430839362,-34.647955578321756,11.076974734732186,0.6614958468249668,0.12841008413072919,-6.407147469998231,15.150668600982433,9.666224430839362
1560500352.639689,141.3686711284312,9.716154929189937,-34.71823202900111,10.790559238779602,0.692974592523051,0.13151823544250263,-6.405689092388832,14.808487850342418,9.716154929189937
1560500352.7039845,141.9161956233248,9.735240842454003,-34.83201479598286,10.6745804352838,0.7241322346855011,0.10991325456562251,-6.3826525816356945,14.580639677673835,9.735240842454003
1560500352.7694004,142.56026545953398,9.785637641747115,-35.000707014340925,10.685865498400815,0.7268949202042396,0.04971625885348585,-6.310795962691663,14.480237009666805,9.785637641747115
1560500352.83195,143.18418896363025,9.916256225004867,-35.17488293730882,10.697810702747608,0.6393441167217215,0.0014441921234236155,-6.043308723589409,14.451548398093983,9.916256225004867
1560500352.896645,143.8378140483048,10.004386504276642,-35.34979321881526,10.728559206141654,0.6105431805958041,0.02366519276587553,-5.995942169419341,14.402828956176544,10.004386504276642
1560500352.9628289,144.50498895932722,10.066625241961765,-35.53302737885254,10.753314040599044,0.5985245398100965,-0.011578023846670948,-5.994365727740451,14.538191262894154,10.066625241961765
1560500353.226606,147.20185137599208,10.277971780451256,-36.256886712438266,10.886760598868854,0.641537398399924,0.07817811579189993,-5.881586387743026,14.518520279171053,10.277971780451256
1560500353.292826,147.88423817335593,10.305139260686156,-36.433698519994515,10.918188923365326,0.5989074507000548,0.12976431464900262,-5.853678048373295,14.631004968814068,10.305139260686156
1560500353.3590713,148.5634709642733,10.369564811042398,-36.57951110126616,10.920334936508512,0.55155370231733,0.18258306128665547,-5.822601386200904,14.66961309602314,10.369564811042398
1560500353.4257677,149.25788011718944,10.404367874557007,-36.76823497353392,10.97658474611572,0.5478839255511949,0.16246624683439803,-5.8456372231202,14.807083721736022,10.404367874557007
1560500353.4929414,149.95724511716023,10.48969174463783,-36.961309828004325,11.026650632349105,0.5360812995725655,0.07095610295057408,-5.811575825511691,14.78301108693546,10.48969174463783
1560500353.5590873,150.65345518624096,10.578962366498882,-37.14022973227114,11.061873656123392,0.48589969655347476,0.05428846469978499,-5.6996202221426255,14.529772646378872,10.578962366498882
1560500353.6265268,151.3582917550381,10.624171816227404,-37.331299506482246,11.090474318578279,0.48108865329172185,0.03721945882152777,-5.679695505570449,14.506408879257998,10.624171816227404
1560500353.758137,152.74302875210674,10.708229841176061,-37.69646656256775,11.152784361794383,0.46866403368281195,0.12037032736318398,-5.7698798587859805,14.569315243047656,10.708229841176061
1560500359.765851,152.81115077935905,10.91909520854602,-0.021182554836797027,0.17276920729080797,0.0003770565986949909,0.05604178160533271,-5.235058985160593,2.3680806496058078,10.91909520854602
1560500359.9640684,152.87214191578016,10.804737878352443,0.0003220967721591448,0.2152411483743908,-0.0425671484625322,0.15583608925137715,9.248691333983931,3.4255961876001733,10.804737878352443
1560500360.0963287,152.91258216592416,10.814201555768983,0.009981987975941697,0.25586337435115375,0.014346271799551596,0.1907388947191038,5.812055208552446,3.0979734231442397,10.814201555768983
1560500360.1629581,152.9000298629935,10.84164482563059,0.003056726770251157,0.2258521111199743,0.015060306798297344,0.09480947120568575,7.6923083807486385,3.5773080006837246,10.84164482563059
1560500360.230419,152.90296271808643,10.912590515588398,7.152014046219943e-05,0.21529043372844528,0.012575402378521772,0.05999006056879433,4.3298355503634305,3.128067818558339,10.912590515588398
1560500360.5634422,152.96313015700525,10.953114717055861,0.0115691382319826,0.19638921921460123,0.012814832724145223,0.08806317197017,6.515266246054169,3.0600794384428425,10.953114717055861
1560500360.6300611,152.9575471275648,10.987195463388522,0.01284990437111706,0.14926230074962146,0.026850585553767126,0.08784066551947921,0.5544694329178893,2.8895338184931716,10.987195463388522
1560500360.8302405,152.97759930760026,11.005583268306252,0.017498068313933746,0.13816338967497438,0.016297856406874756,0.0489522254381259,7.499185131672775,3.155848654761116,11.005583268306252
1560500360.9631689,152.99877912910762,11.039779467816718,0.019004388390111468,0.13373512278514232,0.005574012993881253,0.03638254190042159,4.785850046406069,3.0451826014286216,11.039779467816718
1560500361.0298002,153.00354794045242,11.055848521282774,0.01129771931565016,0.12252511221900139,0.01343760820169875,0.020521468778248345,5.253991980979251,3.0897615890474706,11.055848521282774
1560500361.0966973,152.99950019305058,11.083359693865493,0.008966007705250014,0.12325112488474901,0.017536159515903694,0.012904481375428052,3.789070415270304,3.109987981698846,11.083359693865493
1560500361.2320511,153.0117839711299,11.098198180118205,0.007183731736496808,0.1241772479003381,0.012200343673980481,0.008184653562344001,4.024184486614131,3.0663450913088988,11.098198180118205
1560500361.2994385,153.00847385634373,11.101770711542095,0.008709033838234974,0.0793119885167652,0.013924111559402614,0.016297455622741167,4.142819063586125,3.022373949805394,11.101770711542095
1560500361.43344,153.00371934555727,11.133273251442183,0.00900677634381947,0.05306685480871061,-0.0005140173373154616,0.0023130444401571475,3.7225320336403134,2.8999949128314677,11.133273251442183
1560500361.499394,153.00084793944566,11.143617192306735,0.008346033583577137,0.0382578721416133,0.0007678046501879514,0.0064594260454843965,3.577218806548658,2.9272709838835946,11.143617192306735
1560500361.6330352,152.99970997459053,11.156692844830822,0.0064205179673567335,0.02118377554625862,0.0060081877970248705,-0.0046566246643636325,3.281840418104417,2.9400612929675165,11.156692844830822
1560500361.6983738,152.99900742902625,11.173026209921424,0.005528290336820062,0.020104409848470256,-0.0009555563160069901,-0.008751770554701034,3.1852379773932484,2.8782875052296792,11.173026209921424
1560500361.7641637,152.9990992693119,11.179234353187976,0.006381237643980758,0.003573183155048036,-0.007906058697344502,-0.017141242899952017,2.967909874308295,2.8606424909893033,11.179234353187976
1560500361.830665,153.00027438967055,11.188058552971183,0.00728826241933825,0.0007162363193061155,-0.0049251885286073676,-0.014961178519556634,2.4132191482062746,2.820939891838723,11.188058552971183
1560500361.9630291,153.00229814106973,11.182982988625389,0.007151702575946182,-0.025904131184798597,0.002460714217328529,0.005945254020662122,1.948043606509476,2.694651453915038,11.182982988625389
1560500362.0952861,153.0015316476269,11.174706584527302,0.010586852258275662,-0.05843485764003008,-0.014145392375286229,0.061916416930540674,1.9943465182283817,2.6909553750649873,11.174706584527302
1560500362.227437,153.00414311239567,11.169605957066148,0.006538140713884802,-0.04460902048153305,-0.005191291587116355,0.0072182245217062065,2.624625411912539,2.7386307168367057,11.169605957066148
1560500362.4926178,152.97791966860208,11.153923165845303,0.00804439308996726,-0.22548054548502974,-0.02913031745849165,-0.0664194522360794,2.5260328742448803,2.5890917874447426,11.153923165845303
1560500362.8930461,152.8334179026919,11.209514470885473,0.037620265565169946,-0.5067412548813436,0.005340844928030328,0.10436768952666554,2.351129526008618,2.686742125309286,11.209514470885473
1560500362.959807,152.80095195346047,11.171709517178593,0.04404542612628457,-0.5701867850396429,-0.022534484549921914,0.06891512475225174,2.4287666746629437,2.6892217018029827,11.171709517178593
1560500363.0256627,152.7640237476567,11.189641023742078,0.04826142736844271,-0.6127137716153975,-0.040690378211661285,0.07932066448845916,2.568442262278351,2.671752523073385,11.189641023742078
1560500363.1594589,152.6747330341847,11.261751171005505,0.05757502189427594,-0.7312782251916877,-0.012507224369159813,0.11299931816295597,2.7680411915711365,2.777103315416627,11.261751171005505
1560500363.432014,152.45386374086135,11.431788684152014,0.09195917025963483,-0.9365380157824017,-0.0009864883672662346,0.05164557826359484,2.9981302394349636,3.1938103789876124,11.431788684152014
1560500363.6981928,152.19708054946943,11.588135282709054,0.07912826960091346,-1.1263632123807024,0.008757497469424193,-0.026439583070305986,3.2769776867699085,2.877553619544741,11.588135282709054
1560500363.8329992,152.03840595669772,11.751643669482627,0.09548715693885497,-1.2767979096447595,0.03943339245613142,0.09744500696289556,3.3001597254541286,2.8934162167510395,11.751643669482627
1560500364.0324905,151.7451616255766,11.98780062743208,0.1449864364223986,-1.50987495593198,0.06691747316351895,0.09038005136815624,3.0873892507689953,3.1617653911226196,11.98780062743208
1560500364.2319765,151.4426430762133,12.28217273166568,0.11238659723412288,-1.6539520381585673,0.09248797823488905,-0.04751184753997673,3.3432101756879833,3.3312413022733707,12.28217273166568
1560500364.5656693,150.84847957149614,13.214397524206992,0.129184472719304,-1.9557988449614518,0.1475602957448487,-0.018284873860247644,3.364418887257568,3.403862984163894,13.214397524206992
1560500364.7684565,150.45545575840393,14.179326944507167,0.18568208243635154,-2.1013096097413158,0.1957281183264959,-0.039370791409995,3.532888075228379,3.40922274539444,14.179326944507167
1560500364.8344395,150.30906584672275,14.446026510700905,0.19317200468489365,-2.1569332953309592,0.2687816429253284,-0.05241507361352543,3.570093136183198,3.38767193653077,14.446026510700905
1560500364.9666924,150.02729120029787,15.39125339413103,0.1718499188640074,-2.255197268585303,0.3391071067503036,-0.10609153103440686,3.5644537818618005,3.3661761586362853,15.39125339413103
1560500365.1656578,149.53299520925748,17.166234230305523,0.24722486946782518,-2.417117451539362,0.5418313995680143,-0.015193426764948392,3.499602098287427,2.8983967773022172,17.166234230305523
1560500365.2989442,149.19190556880187,18.59614117939623,0.26637203134254783,-2.499126637529344,0.6934705390757694,0.02990085336006401,3.6097001173250196,2.7630050939600497,18.59614117939623
1560500365.433341,148.83608146513694,20.184133595916734,0.30665460973040115,-2.6146738827432983,0.7228960404290046,0.08581152388158042,3.7268139899015154,2.6708542374942192,20.184133595916734
1560500365.5656054,148.49285824375644,21.967327930931955,0.29062300018782333,-2.6328089796614558,0.8308991493951767,-0.019622665671175044,3.9865533233040957,2.7550264172094954,21.967327930931955
1560500365.7673926,147.94928316255763,24.872667351252595,0.26228373315108544,-2.6179976614074514,1.1123736239534843,-0.11712080560307694,3.98083301182044,2.576148806409897,24.872667351252595
1560500365.901147,147.61446789125506,27.08272140744106,0.33228040009840487,-2.6141780002947685,1.191166953188136,-0.04215065276019872,4.120323910130871,2.599048109106099,27.08272140744106
1560500365.968312,147.43826571845852,28.197505173959613,0.3665047944586956,-2.6405750826543293,1.20660667361288,0.0020072204798552706,4.350904301370749,2.456873968088593,28.197505173959613
1560500366.3021665,146.34629046172765,34.4844660941184,0.4286268080000788,-2.7712203386896017,1.925377936333834,-0.020789872144128335,4.0836323614353445,1.8927480471665674,34.4844660941184
1560500366.5701618,145.4872771340503,39.662303520113475,0.48307655764859364,-3.053558695085346,1.9589815302851237,0.006497452863195086,4.450528483645182,1.6892042590169392,39.662303520113475
1560500366.903265,144.1581138077862,46.52335339469589,0.6363659702003949,-2.9411186074568216,2.9670891359481577,0.06670353246372923,3.9368530331048652,1.5718149097717984,46.52335339469589
1560500367.1695776,142.87484761026147,52.01286861339708,0.7885179111812822,-2.9875236677576353,3.6212850259003546,0.12216899994108382,3.7056425479594353,1.1446835177943064,52.01286861339708
1560500367.4355025,141.47633066913613,56.94938834394526,0.8980595912793203,-3.600487121390848,3.7451894022690917,0.10272231983789903,4.623713588284688,0.46327440295093664,56.94938834394526
1560500367.9662144,138.57055095707005,65.21052534321764,1.1571248991135765,-3.945567092764821,4.428557745870928,0.058432013880606704,3.731296102214619,-0.05242168491192073,65.21052534321764
1560500368.0990355,137.7136615981275,66.75010189627199,1.2885097992200647,-3.541315207639431,5.059424680148832,0.16805284802652198,3.778659274476369,-0.483899012546537,66.75010189627199
1560500368.1656022,137.15924075844038,67.35472415070537,1.3086494527058758,-3.7917607030128666,5.236821387651142,0.1595297385187327,4.596048496050508,-1.270101760835298,67.35472415070537
1560500368.231819,137.1862595245828,68.13093637628742,1.3381162706336913,-2.9436743262286296,5.108256882537899,0.1406633124991742,3.1644401704390073,0.5558957653978411,68.13093637628742
1560500368.2978578,137.13758869719365,68.83911042522297,1.3242104942694062,-2.3311402469262457,4.977145043689545,0.1753636423478055,2.3506326587516213,1.7313643382968977,68.83911042522297
1560500368.3641014,136.9829050402369,69.2004344041267,1.3439971553056722,-2.167232431931691,4.780862722296023,0.18201478477450778,2.968264371109768,2.099848770450427,69.2004344041267
1560500368.4297557,136.97323148895836,69.66309873571757,1.3606085255026967,-1.3063174878913184,4.284273342576203,0.16317272929907178,1.9327735970113884,4.252594413157102,69.66309873571757
1560500368.5612843,137.78486296573297,71.09416842182249,1.3109705960154072,1.2329141103675323,2.415763785145633,0.2873380379865948,-0.6868025449413161,10.291518505470354,71.09416842182249
1560500368.6273334,138.3542964832512,71.70291076651341,1.181391984061005,2.2504211951885753,1.1474924161992661,0.3876448461162166,-0.3777503963070282,12.265354383222583,71.70291076651341
1560500368.6929126,138.49326777150685,72.50636199079581,1.087993404682424,2.3723464078626697,0.646213423850686,0.22614518125026273,0.9165517072275365,11.939449340680952,72.50636199079581
1560500368.8220453,138.52222781966725,73.49879566513741,1.0554335692779215,2.6320512343542486,0.5080170160384081,0.24144404521102308,1.2538550501928951,11.834477385022915,73.49879566513741
1560500369.2142277,138.79413981452623,75.93812611044025,0.873064759249167,3.441007260951003,0.051539093972752636,0.27608433500655705,2.051423345247498,11.605197965226992,75.93812611044025
1560500369.3471513,138.90200142901912,76.58343654305932,0.813597221439284,3.542081870826447,-0.17926151598753545,0.25457352420926554,3.3252210611205397,10.622408819357622,76.58343654305932
1560500369.4774477,139.04981270549334,77.12980856792545,0.7258146567674325,3.8258349353650427,-0.31354348780806335,0.1881002085367598,3.989076346510535,10.227013942056097,77.12980856792545
1560500369.5431333,139.03586001105728,77.35557449391098,0.7351515193962104,3.6496368233113134,-0.29792602290681813,0.17395292471508733,5.611631266792461,8.70211521088908,77.35557449391098
1560500369.6097224,138.94786689947622,77.61025865669045,0.796092099850417,3.363744842613524,-0.1826838003049851,0.058654085099679454,7.076494513349059,7.035747918285896,77.61025865669045
1560500369.676562,138.9087836678298,77.91877692003477,0.8399221852821707,3.0941310587763566,-0.14831351522613198,0.10078343025648273,7.7173977004000545,6.1078933560117505,77.91877692003477
1560500369.7432206,138.9157976187327,78.18858193422635,0.8500960173725433,2.9993367646352724,-0.1833874502462,0.0721046569400679,8.107159066716315,5.588736772233939,78.18858193422635
1560500369.8095555,138.82947161234537,78.44383913144397,0.9245011081485257,2.5742435149075673,-0.06695696231936149,0.07770908088861034,9.378483890298691,3.9880366009714083,78.44383913144397
1560500369.9429345,138.6872646953947,79.02951665653673,1.038161782006196,1.8908241924336209,0.0821671738101389,0.18782346041007864,10.470635988125526,2.066967582316001,79.02951665653673
1560500370.0758214,138.64319943987468,79.60807113321972,1.0876062925653642,1.7262721180662046,0.08349333192120291,0.16386921068247884,10.822569678259185,1.3105024438276012,79.60807113321972
1560500370.208516,138.46258052301556,80.11427637893155,1.1739555561251607,1.2199927014886662,0.22057274595419116,0.1833078663356317,11.807715632706712,-0.2126464292854485,80.11427637893155
1560500370.4068515,138.36765028003194,81.03025906161255,1.2192154179743464,1.0545501938889061,0.22201632061453297,0.12548351996837628,12.133774516899976,-0.9891776794310851,81.03025906161255
1560500370.6048284,138.30303672120746,82.06418727816443,1.2703253859466126,1.106701325712482,0.2586402733096872,0.13667358547345276,12.284259943063995,-1.4615973593952578,82.06418727816443
1560500370.6713154,138.2223792969114,82.40686219447825,1.2526075977247133,0.9615360042192365,0.29821383155046094,0.08229418241562367,12.374031748442277,-1.7472302247096092,82.40686219447825
1560500370.935735,138.10540856203622,84.00945446699455,1.3070180198113257,1.1237876981111699,0.36838339099900164,0.04324956938052227,12.016275535346336,-2.1322427899539793,84.00945446699455
1560500371.0670614,138.08011613687992,85.04191662373503,1.316174155954941,1.1774144634902812,0.3517273467592203,0.053487297528467884,11.838703981374312,-2.2057370449913116,85.04191662373503
1560500371.13129,138.0060481789024,85.68633051651628,1.3287637685201896,1.2352993430717036,0.42116014906786536,0.04773931566633735,11.662635126294985,-2.2896103325216655,85.68633051651628
1560500371.2626808,137.90493889515537,86.88019731033435,1.3461611615176838,1.2934621166307987,0.5050866022276912,0.00897203640417163,11.40438653623089,-2.397444673319585,86.88019731033435
1560500371.5871675,137.75336831262115,90.21139658825305,1.4073640046970908,1.4095357874320118,0.578035780342028,0.004175819739091674,10.97688559748251,-2.58520023086222,90.21139658825305
1560500371.7176113,137.55928483548217,91.74957601121342,1.441263199429282,1.4476351503424545,0.7209796099860913,-0.012723972680225154,10.441722241349122,-2.7407181326327774,91.74957601121342
1560500371.7831144,137.4134276785013,92.64605376584062,1.4342787608887682,1.4385427057142288,0.8551282110310829,-0.07147765828968355,10.17344428193666,-2.8695601960442834,92.64605376584062
1560500371.9121397,137.20273686022918,94.28988307511351,1.4329999846201282,1.2982277102996886,1.032038374544418,-0.1413219533929231,10.164385284459685,-3.060268922374862,94.28988307511351
1560500372.0438604,136.99594308191212,96.01491071430038,1.4365078115210095,1.2792998323219409,1.1274997360567443,-0.18100223298756282,10.012580959316455,-3.2790062256937658,96.01491071430038
1560500372.2404122,136.7207931712619,98.51976215453757,1.451316554726211,1.3244338500574844,1.2221932744533979,-0.189321178782633,9.656084120728432,-3.3070734246660085,98.51976215453757
1560500372.3057444,136.61471326583143,99.32369273377678,1.4555791304811674,1.3224712593860972,1.2767546379125765,-0.20158597048890992,9.592332982812817,-3.3773593060775933,99.32369273377678
1560500372.3706818,136.5041810632728,100.28230526369796,1.4619281465575429,1.3341250806428337,1.3497508980588109,-0.22448589896437504,9.425828396912292,-3.423246022895101,100.28230526369796
1560500372.4997437,136.27943439507234,102.29769104229133,1.4761498384607818,1.4442511922811678,1.442655791981224,-0.2564799031878142,9.146621114375046,-3.4690177921812317,102.29769104229133
1560500372.563503,136.15989666090596,103.35833311296518,1.4809520833177316,1.5511201851456715,1.4665966298959756,-0.2540879278049251,8.914919500027096,-3.4715581429517877,103.35833311296518
1560500372.8836362,135.51677091346383,108.77161521463368,1.5166193857914807,1.7172485740222334,1.7699491928265754,-0.27189414048137694,8.292810080151224,-3.6027321799226177,108.77161521463368
1560500373.1420035,134.90411888163942,114.20887104421804,1.543478384084081,2.2548687250570554,1.725659536832142,-0.25785658433801417,7.908330066843645,-3.78115592656208,114.20887104421804
1560500373.3359563,134.36669446655156,118.78703878709,1.5780693238386336,2.3464200549588696,2.049282619566996,-0.27606221724683716,7.401875763463777,-3.8410062726310934,118.78703878709
1560500373.5992978,133.54275780262375,125.89210655868935,1.6299545292306492,2.4879872320853544,2.4170127970651007,-0.32047853786842395,6.580530776925875,-3.781364756163739,125.89210655868935
1560500373.9950826,132.07763071331635,137.90767426283466,1.6916708119418886,2.5662336694740406,3.0668440125149847,-0.3864175694248161,5.4913499900166265,-4.640836308252778,137.90767426283466
1560500374.2546833,130.97988044074037,146.4205821602882,1.736650742755406,2.982478587238669,3.1924605329422002,-0.4102130310833869,4.789435784279428,-5.189271049218418,146.4205821602882
1560500374.459265,130.05180129827687,152.98405020343728,1.7809409108809375,3.291665682447852,3.3377474314893627,-0.42905994829529714,4.08445087949224,-5.413083248724922,152.98405020343728
1560500374.6503487,129.09442978452861,159.16256561045304,1.8575101161118508,3.615603540383204,3.538709268801278,-0.4036748919091114,3.2344934506266503,-5.503905407927178,159.16256561045304
1560500374.8481154,128.06871692315158,165.2410397517909,1.9973788947651898,3.871337714486906,3.8721669958115648,-0.29439893383550597,2.254624456421766,-5.523236600993278,165.2410397517909
1560500374.9796948,127.41886309439946,169.23120573259447,2.1370367352181012,4.143545424083757,4.036391412846644,-0.15224307751206717,1.6706242056357299,-5.367483785671529,169.23120573259447
1560500375.0457268,127.05396437753215,171.21866113136383,2.156862835814796,4.442623281708067,3.9241544278248877,-0.15206503631043722,1.5408756271244115,-5.07448697719268,171.21866113136383
1560500375.1127236,126.69826678262046,173.14921870961274,2.1772488408311,4.569489844753976,4.002301629633932,-0.16050116993761587,1.4280793751601724,-5.008260325167975,173.14921870961274
1560500375.3115442,125.63063244892818,178.43794900388065,2.2323642044435608,5.1302512145672186,4.064515603700584,-0.18034697959868123,0.8916566972859059,-4.708973719313663,178.43794900388065
1560500375.4435136,124.87501980346806,-178.41003690694075,2.2689021398977567,5.4793879975853175,4.132116492409477,-0.1674136195850368,0.7246509767807078,-4.332376818038807,-178.41003690694075
1560500375.5094342,124.47070425968666,-176.85342789855878,2.2799373706753556,5.587631033656458,4.266649720798337,-0.1905251810945296,0.7435720574752983,-3.996035166706584,-176.85342789855878
1560500375.708237,123.35165004678326,-172.8709935657972,2.3172456926508977,5.82021092392149,4.766452898212801,-0.2549912098206406,0.5870855749059394,-3.7362394934579064,-172.8709935657972
1560500375.904704,122.14360569314456,-169.689017122237,2.3282494331929353,6.4024800709383145,4.911306658396526,-0.33254544237877837,0.3291049511483705,-3.4233547077978477,-169.689017122237
1560500376.2241576,120.19988342499641,-166.5914601789665,2.3613114733132434,7.016380160192509,5.421580671016979,-0.32578806127139126,0.07166405234038462,-2.901172140583343,-166.5914601789665
1560500376.292761,119.71283658675418,-166.14024119921564,2.3596453778646436,7.4610314376268,5.1577233290220805,-0.2592406418885973,0.1277005844329188,-2.583454066837509,-166.14024119921564
1560500376.4261243,118.75704747182306,-165.4989663214583,2.3455553952718633,7.849633224262133,5.21207791660757,-0.20822863693713353,0.1867456084402672,-2.0662126803674274,-165.4989663214583
1560500376.4905295,118.3705872614769,-165.34897788631415,2.356062136758376,7.907058050471978,5.377265567064696,-0.22502630802567974,0.14676935574987546,-1.919352844115325,-165.34897788631415
1560500376.623927,117.41740223343255,-164.99578517908893,2.3392154913894845,8.201926003642592,5.55858151993028,-0.3239395119508741,0.11828871098108933,-1.4608256269587834,-164.99578517908893
1560500376.8247857,115.94723303224768,-164.6094914631688,2.2781175912414127,8.621968336439913,5.78599874543837,-0.32101102566165823,0.21046550124227714,-1.0871792889701308,-164.6094914631688
1560500376.951334,114.95130296396478,-164.36450794270033,2.224424300124488,8.983102372329846,5.8387650794113,-0.37805862496015025,0.29144376685202394,-0.7210298115117004,-164.36450794270033
1560500377.2206028,112.90655636815345,-163.9382113417295,2.1216936895026595,9.563771892955462,6.142409850972838,-0.4137879462527756,0.4841535986859512,-0.3622599808873885,-163.9382113417295
1560500377.2874563,112.2594797546333,-163.5967438776363,2.0515486104460563,9.815305304881319,6.068547175646363,-0.46142399091785224,0.5965743476621248,-0.009108297672004977,-163.5967438776363
1560500377.7356715,108.50224204412712,-162.7789600932325,1.7982546560178583,10.715400754458745,6.597578159537797,-0.6354437663905762,0.7368403108687308,0.8052528161052742,-162.7789600932325
1560500377.9251213,106.75928967321205,-162.33037187668836,1.6350803539936805,11.269903064307421,6.441354648886387,-0.5265197106585413,0.9825891553806664,1.148437493569502,-162.33037187668836
1560500378.050575,105.53567277351918,-162.00601608757148,1.5078523385542608,11.578070943570342,6.293696845453067,-0.5783170177081969,1.1504895114350793,1.419590027037206,-162.00601608757148
1560500378.3070617,103.09642605902668,-161.7088038888931,1.2778329451647883,12.070950471144185,6.463563641428081,-0.6498667919737819,1.2479239376078657,1.800388309138013,-161.7088038888931
1560500378.3751369,102.36293916686101,-161.46374264441945,1.1766427943832125,12.283304634398704,6.193615624484801,-0.6030387111451777,1.415947502933465,2.0131413850914526,-161.46374264441945
1560500378.5074134,101.05907736524229,-161.28275814217707,1.0450530141775816,12.510133086251562,6.226491820148809,-0.6527417236798774,1.55884947480437,2.29357596406555,-161.28275814217707
1560500378.6370285,99.75464508780217,-161.10091654255174,0.9011269347636492,12.76541776886456,6.1984857488538605,-0.6711081950366078,1.7082121054453707,2.576435512673902,-161.10091654255174
