timestamp,x,y,z,vx,vy,vz,roll,pitch,yaw
1559195803.7109942,2.1905340814003944,-0.02949183750896018,-0.24071894889053802,1.874888385030289,-0.020354093421134867,-0.1909900858115723,-1.7152193640803093,6.47380333053427,-0.1317556171594612
1559195803.8111882,2.3807944183153054,-0.03872098955502188,-0.26133259711818396,1.942431705835976,-0.019791790913887764,-0.19783589577481825,-1.7056982949099475,6.504016147564618,-0.10384894026775812
1559195803.9112349,2.5810964144684703,-0.041137127780295685,-0.2817927299805742,2.0223797019169725,-0.026498200468225486,-0.20649058749754035,-1.7166490453034664,6.5399617484862205,-0.10963125674083747
1559195804.0113053,2.7889158947226447,-0.04361204700516923,-0.3029448943500647,2.1103507155792918,-0.019238975135686415,0.025405185580156003,-1.7131868974386744,6.60015487817226,-0.1258703563276515
1559195804.1111636,3.002060026360732,-0.0464857551748374,-0.3252197390694768,2.1758456319396204,-0.02768316522359429,0.02041769751447059,-1.722309702952747,6.639160171499832,-0.13010956181304145
1559195804.2117689,3.218249140616264,-0.05095782182259014,-0.3487301047068073,2.2509850922873293,-0.0323203544051521,0.017194504965606566,-1.7016583747045342,6.668979625494901,-0.13034763971205848
1559195804.3113885,3.451044008377134,-0.05454958314087687,-0.37434988634929633,2.3271613890838587,-0.024215482502410304,0.015850698394723195,-1.6985623303133093,6.704293108664786,-0.14899592914911952
1559195804.4112825,3.6870548057900705,-0.0576210765523027,-0.4001084498895321,2.4021879278554876,-0.02256406452341279,0.019045858859125964,-1.7054901097221609,6.735387975876037,-0.16459603247637405
1559195804.5112922,3.928631901422917,-0.06075662990233843,-0.4260576872689041,2.474547860547409,-0.020509394532982728,0.015197996301251904,-1.7242246548367035,6.760261072901556,-0.17513210917739616
1559195804.6113722,4.177680927590857,-0.06528145747075734,-0.45536796046942624,2.5406419706032812,-0.023737061719403704,0.011368681557907268,-1.805030102591593,6.769184099570547,-0.1782092646268272
1559195804.711423,4.433789012134811,-0.06958849719404027,-0.4842082477714564,2.617265013250057,-0.03414481732060355,0.02239988017594774,-1.8256131395924868,6.771424373444675,-0.18506545784565848
1559195804.8112347,4.694816220658798,-0.07350784692664282,-0.5122523883195752,2.6848317469296643,-0.03834888236524002,0.023772918689844214,-1.8202535733252958,6.7985140024120145,-0.19388016731239024
1559195804.9112964,4.96303415870527,-0.07959208291575594,-0.541729255686982,2.749381419548096,-0.04161563550135868,0.022578374956518765,-1.842180349511556,6.796459014715923,-0.1968607896395872
1559195805.0115516,5.241129081149025,-0.08482659271882827,-0.5722021628368086,2.8118237974625684,-0.03788920513589747,0.023652114908521482,-1.8202664060821556,6.7914691579199395,-0.20341758650524308
1559195805.1114547,5.523408035080203,-0.08993003771516385,-0.6036357292794782,2.875457885948143,-0.03387199471101794,0.019092294569503176,-1.8315807394200847,6.763379055127794,-0.21095294326485614
1559195805.211366,5.810980104890878,-0.09423366960804529,-0.6360704779412476,2.937430953311361,-0.029262995344060762,0.01471050545475866,-1.848955111114462,6.745537276987641,-0.22279119940946962
1559195805.3112137,6.104998812968026,-0.09855155155633162,-0.6694151193670337,3.0010949262053788,-0.03202978696615528,0.013237824124594288,-1.8643793682803724,6.711464027850839,-0.2341044047508425
1559195805.4112296,6.406971670048015,-0.1016595062661072,-0.7029350771860456,3.0700309043136773,-0.03583323268154207,0.012419956635640383,-1.8827932989213336,6.690220758663701,-0.23857348429094197
1559195805.5111854,6.715329093088536,-0.1065270653797214,-0.7377600316501951,3.1316126422836965,-0.04774112913102963,0.011714804222134056,-1.8584188726227613,6.675000912247419,-0.24711796152813725
1559195805.6111982,7.029487594149257,-0.11190844732907348,-0.7726614727159689,3.1944564704375646,-0.04434361174352801,0.013993584123347336,-1.8251732561031244,6.653446475649599,-0.25243461683555035
1559195805.7111447,7.350094553268233,-0.11766849842409512,-0.8089243283163476,3.264509021380147,-0.03921194320854336,0.015373289387967004,-1.7890842483653429,6.648044459798223,-0.2602677391124835
1559195805.8110952,7.679218683978802,-0.12341261909115898,-0.8446522735110473,3.35821304665533,-0.03738577398621819,0.022044957015251943,-1.7257114757493655,6.739497627844671,-0.27175442898452
1559195805.9121587,8.019966951626571,-0.12884773464396462,-0.8823165579308756,3.422766904910514,-0.011707592114887278,0.04195449740104584,-1.8382862369363897,6.913961989214081,-0.2915039871842794
1559195806.0112557,8.359192564318077,-0.13143910238252426,-0.9191501564987309,3.462918164983903,-0.012159606339120435,0.04596716910229087,-1.928565792967532,7.020593687532817,-0.31026883279631
1559195806.1113079,8.70709237398581,-0.13629037116158174,-0.9575671955657122,3.528698556015457,-0.060855302004288875,0.06841845973097965,-1.9566850065612065,7.123518129266882,-0.32165419229806486
1559195806.2113843,9.060679019147702,-0.14544542407737526,-0.9960165452277429,3.5551121484728068,-0.05253844985193711,0.05539639715979705,-1.914096935870497,7.1412606377681165,-0.31243641087078633
1559195806.311349,9.415526731616865,-0.1524244736496377,-1.034820354463212,3.5929229819669417,-0.039761121667951385,0.0473966688127781,-1.9744113485539665,7.0485799931944255,-0.3116432505831153
1559195806.4112756,9.775409554512398,-0.15720709237315653,-1.0760022751744982,3.653355631056806,-0.031063502239042497,0.03937510339090927,-2.022788103859922,6.956218753368193,-0.31745730154745505
1559195806.5112739,10.141700921704963,-0.16227505199009756,-1.1170236479099684,3.707650357572686,-0.05140884364416676,0.025458852270170917,-2.0576818212800916,6.897582405638243,-0.3325785023439012
1559195806.611327,10.512254984678869,-0.17062120026865724,-1.1639030251616367,3.748734286800866,-0.0669684995316,-0.047787930776226284,-1.9945008262844983,6.774557325358593,-0.3379685077929801
1559195806.7113142,10.886464049162731,-0.17878610299285502,-1.2142233215730387,3.824808445030349,-0.03679772825956737,-0.04048447374424469,-2.0003318372070606,6.600004528246235,-0.34330882170028065
1559195806.8113706,11.270146455282205,-0.18466240875490547,-1.2640601767131354,3.8940459165375696,-0.03203824712321365,-0.0609539914137589,-2.0407558298288193,6.538991361357375,-0.3623069926554241
1559195806.9113514,11.659698915130472,-0.19126853776563715,-1.3119571305219964,3.9598185953863303,-0.03949753461430772,0.006964203087670207,-2.09731441010944,6.522234784000398,-0.35769512554367267
1559195807.011346,12.058590799024072,-0.19465767505115952,-1.354619458175331,4.0295386457536795,-0.018593965189761814,0.06572331131059095,-2.1805304434072936,6.64182182458225,-0.4067428807761655
1559195807.1113794,12.462669256200087,-0.19934283175559867,-1.392613611070643,4.078380047016952,-0.03696432881309517,0.09133063479893039,-2.2832860290404473,6.800278701844445,-0.42976306923526697
1559195807.2113342,12.872549430895553,-0.20896471109989728,-1.4319000735796803,4.120420326933146,-0.08889769223118306,0.08268478976295263,-2.180017683754737,6.931192681100021,-0.4248164114591027
1559195807.3113604,13.283175453075478,-0.2197128417112854,-1.474201029977824,4.151028790609694,-0.08665989081749953,0.05886225864426026,-2.094476488251762,6.975441778616963,-0.43853086142782327
1559195807.4111438,13.69891434609702,-0.23087598252026142,-1.521377734369746,4.192276385723241,-0.06544182825908994,0.023833440015171792,-1.9729536435596162,6.9352836219171525,-0.4656475550540252
1559195807.5111582,14.118904694665904,-0.2382310052554647,-1.5724985915417449,4.249947717390344,-0.02494126830446372,-0.00680590303075701,-1.9997541874300195,6.8824410492454815,-0.48637499128086253
1559195807.6113098,14.544029861282628,-0.24298040607393195,-1.62749484605791,4.299724201856643,-0.010254292284635747,-0.013864516099249546,-2.1017061024029338,6.819140181073255,-0.504733215492541
1559195807.7110765,14.971902360487473,-0.2513513586444572,-1.6802129927658576,4.343726104841396,-0.08190138945791331,0.00094710310565016,-2.0725876745817287,6.750020299155574,-0.5248536452430945
1559195807.8163233,15.425479983141347,-0.2679234252421622,-1.7344313824448196,4.393273606311814,-0.13642099841432176,0.022342324784617895,-1.8543646122327444,6.654455013177013,-0.534258778827544
1559195807.9113853,15.844420307065228,-0.28480149023117396,-1.7800161451037062,4.444389687560448,-0.13020109832260102,0.039904678548855044,-1.5896521365078216,6.610440545697048,-0.5572387300129605
1559195808.0113206,16.293581612634853,-0.3001072052469536,-1.8292622100902662,4.50252630323709,-0.0786879953758914,0.040422657566530185,-1.3361581144582966,6.624959366696903,-0.6042845957282191
1559195808.111354,16.743208540738443,-0.3093855712606769,-1.8782458204626942,4.533194775141558,-0.03153212310997282,0.009194586011752492,-1.3939399740861476,6.606229260745885,-0.6328432725748843
1559195808.2112153,17.201397032243946,-0.3170192472385345,-1.9350524958700424,4.5784676627535985,-0.0282079332843704,-0.01918668325935402,-1.387849776113488,6.510015505385668,-0.6623261216276589
1559195808.3112586,17.656388006640768,-0.32818938267605163,-1.9878752634093289,4.632146320196223,-0.11253747685354147,-0.013315610493882635,-1.3963690520563223,6.423862240349059,-0.67662105120133
1559195808.4114153,18.12528006603283,-0.34565791719935424,-2.0422344478228407,4.71335748455936,-0.1579142985576148,0.02171237785610497,-1.0589337115892559,6.489414962986958,-0.6875688921809506
1559195808.5113108,18.59842307866539,-0.3647385921180741,-2.0917561916231926,4.756347718199016,-0.11651008629027079,0.04509522312377556,-0.7114244712859499,6.622340558327735,-0.7274773304171789
1559195808.611512,19.073053363826098,-0.37751079110874447,-2.1417741259369603,4.775130491804897,-0.0392944614323215,0.04641602606465489,-0.6981984257842322,6.69155304310324,-0.7484027174836573
1559195808.7112534,19.552248914773617,-0.38346738439255873,-2.1951707393193134,4.804014513400686,0.021223034239444587,0.04256362500826627,-0.650781733699322,6.677879550760399,-0.7772451921837737
1559195808.8112614,20.031079954499333,-0.3878809618715975,-2.250917244634981,4.8550136215294755,0.0031787105452891953,0.041180744875032094,-0.616528302028748,6.67240014149731,-0.7894862205872382
1559195808.9113324,20.519997348305548,-0.3961652316593343,-2.308712028785222,4.889335953570858,-0.052349873859934545,0.013024505383805174,-0.5140699644804181,6.645782491638652,-0.7797461019038946
1559195809.0112681,21.018152781507062,-0.4114199475853625,-2.3693120555159606,4.956526427133548,-0.10289702476765826,-0.02144912716437708,-0.33337999654438877,6.580185499456514,-0.7657129879021077
1559195809.1112022,21.506889249344482,-0.4275975529650601,-2.4253433962101445,5.00238693936494,-0.09426183976639148,-0.009228257486480596,-0.4180017825097726,6.522935858225288,-0.7588481029893192
1559195809.211374,22.01381510868478,-0.44145861825347743,-2.482523768874597,5.071700554008128,-0.04246440854923325,0.044420001513129304,-0.3464466178177436,6.574027107196006,-0.7820708137437539
1559195809.3113973,22.522503543832766,-0.4519291721026755,-2.5354037525098914,5.119050977436099,-0.013677284360673194,0.06444994077134236,-0.43057934023689554,6.729117042265135,-0.8102978774332195
1559195809.411251,23.031894872743617,-0.4607233643619485,-2.5896912634631404,5.152883990529991,-0.023980462358311458,0.07300994079778611,-0.5424975035163091,6.878329596301068,-0.8305266842890071
1559195809.5114152,23.553131250437747,-0.46931936780742584,-2.6446187733508535,5.186822687073412,-0.03587037645114233,0.0636046493585023,-0.5358801021287182,7.038761958045755,-0.8586318759466223
1559195809.6115,24.07274378810517,-0.48337106193887786,-2.705871787899074,5.192470974405936,-0.06686397101940778,0.03512525270352618,-0.4930021312855616,7.0162687044668175,-0.890275227437021
1559195809.7113461,24.5839407185849,-0.5028744344076149,-2.766162419518924,5.214867817807544,-0.1162051452581816,0.0082709642726283,-0.23517351718602922,6.883115091853905,-0.9108721958708589
1559195809.8113172,25.10324832574611,-0.5239449368674837,-2.830081581256024,5.25740947553111,-0.12533869993959326,-0.002538400689074183,-0.10215004312921755,6.706408573619129,-0.9238648486618257
1559195809.9112473,25.631663547328415,-0.5412994952826398,-2.8937838730539456,5.317064189628181,-0.072724321571303,-0.005499337538813154,0.08996750553332242,6.616458876082958,-0.9608844880533981
1559195810.0114293,26.16325866787371,-0.554580175301914,-2.957604110163587,5.346420468106241,-0.02190492335833675,-0.020857947599328464,0.03481546022249085,6.556622683918389,-1.000353369572462
1559195810.1112978,26.69746991690686,-0.5674821172345037,-3.0178191398348475,5.388789570961291,-0.03540961694670046,0.026347387969664626,-0.05825354142441072,6.484314183682644,-1.0165028422625688
1559195810.2112803,27.236652215320515,-0.5822614127689235,-3.077798863538124,5.416098564226528,-0.0916812092488318,0.04456393256106139,-0.0904642967318601,6.448444705875968,-1.0322880401853
1559195810.3114192,27.774444081136103,-0.602450690232191,-3.13356646053232,5.441457033127702,-0.10767768420776418,0.037904184835179544,0.163528632068086,6.4081711029769215,-1.0508273547394673
1559195810.4113045,28.32705118736943,-0.6240708016703562,-3.192823815582861,5.47164495166609,-0.07914644026320163,0.008482493575231786,0.10999372468568326,6.291507853400409,-1.0800324210720469
1559195810.5112753,28.871416296476347,-0.6411304009399882,-3.2530166986351983,5.483762801893094,-0.036779153731388736,-0.02059902120933388,0.09023081133245806,6.116106735498297,-1.1094621584198225
1559195810.611379,29.417269919325314,-0.655341670164535,-3.3171148514105138,5.480454131626263,-0.04142608909558986,-0.03157117858683278,-0.1598122947539707,5.857939100796972,-1.1211087893695577
1559195810.7114546,29.971416957241633,-0.6707322091270209,-3.3782786574380954,5.503950918619787,-0.0712158574100347,-0.023219937132155755,-0.005078858947910791,5.560818527342005,-1.1558022295078314
1559195810.8114705,30.513716011495056,-0.6932497393092547,-3.433611504100936,5.534951155554877,-0.08051719769057056,-0.023328020260585225,-0.07289953495206007,5.2770540817645974,-1.160508733114827
1559195810.9119632,31.07038237378747,-0.7114357005992291,-3.489283078397287,5.5997915892522325,-0.0757846373285913,-0.056164478373142424,0.15881058491518316,5.091645622501394,-1.183292850728041
1559195811.0114834,31.640216292958492,-0.7312788851055447,-3.5478547502570636,5.6938254602247325,-0.04994451338909738,-0.05737038848925036,0.1279484417952433,5.041456966252293,-1.212387507815517
1559195811.1113846,32.22226422400503,-0.7484219192730295,-3.6025027660763915,5.805490420624617,-0.060936856213832394,0.013618303891707317,0.23280482251157017,5.214420668027545,-1.2422931568328537
1559195811.21137,32.820733579130895,-0.7739269663717666,-3.6531538045095315,5.870600674295725,-0.08882459054377702,0.07303249996160593,0.26783891775054397,5.618233853833197,-1.2243039187846174
1559195811.3115492,33.41181745659205,-0.7978089793171262,-3.695202451141666,5.904756343549506,-0.09059384706104,0.12880829094026092,0.3384594996526237,5.972617536329138,-1.2349671263504463
1559195811.411395,33.98936265237373,-0.8222891764211265,-3.7431631322449364,5.898609680286595,-0.08373271531158559,0.09840757410324241,0.32806955786552355,6.2510094504654985,-1.2525006629982152
1559195811.5112753,34.59158822398075,-0.8418552218805272,-3.8005588687825953,5.930968607690256,-0.077080400359637,0.03265146927852092,0.4758937688129218,6.2884327474189305,-1.2635354457616317
1559195811.6115031,35.17676156915283,-0.8637488649885068,-3.8675706465741495,5.956245666483626,-0.09090399683410903,-0.041574913144618586,0.4281795659788605,6.209039518817987,-1.2553873881105981
1559195811.7114482,35.79580964251051,-0.88551701578947,-3.936690903847052,6.049922011892466,-0.090443312255794,-0.01729341025484732,0.6890338857386827,6.098002504918524,-1.295171573786564
1559195811.8114033,36.38538086811869,-0.9071501667935005,-4.005419732541521,6.107787657907742,-0.09389098701548379,0.006179968189826357,0.5896386560036551,6.137038198245437,-1.3129788871697905
1559195811.911347,37.02110260919365,-0.9311460926877473,-4.068221707623446,6.182847682562803,-0.10236866828746811,0.04408101812422094,0.8074717308162169,6.2243173928033455,-1.3294235847306863
1559195812.0114386,37.623145092365505,-0.9563981664507231,-4.130458703723111,6.2099501823178045,-0.09961437856197888,0.0625799684245828,0.8422226193919805,6.398833419619761,-1.3593739854958975
1559195812.1114366,38.235965312109236,-0.9830283786282881,-4.189721014438999,6.2357179229346595,-0.10314242819110248,0.06914618023941876,0.8449743935263497,6.484047337787976,-1.3834613155885456
1559195812.2114842,38.85464949076152,-1.0046041667447458,-4.256741917784447,6.268189960243901,-0.09202436445095816,0.04041342931117664,0.8324827789554997,6.537127410877016,-1.3981627564167458
1559195812.3115563,39.49232250282047,-1.0292320343436505,-4.32460822349424,6.305635428022433,-0.09636592429465093,0.016264894020323384,0.8940374938777184,6.469770645752678,-1.41698262103985
1559195812.4114227,40.105883859962276,-1.0524713878226364,-4.401317098970071,6.345909060229979,-0.10122776291788055,-0.0037031917515000234,0.7895381808685344,6.456380195804976,-1.4455641621680002
1559195812.5115697,40.76211745227221,-1.0798892268206655,-4.46946480808397,6.411327717490745,-0.10691322113318943,0.020297802751749416,0.9877748074040056,6.420193048906343,-1.4636045863808433
1559195812.6112955,41.37971315224995,-1.1027888932674583,-4.545109170242991,6.426308781250999,-0.09154429573079402,0.023171076700028603,0.8719649293604083,6.473014094626134,-1.4819409474875032
1559195812.7114487,42.03020785009826,-1.12937843188394,-4.610085463786744,6.469793834607388,-0.09862581678169967,0.04198259418763506,0.9540417073945867,6.4631733909087385,-1.5064653052819756
1559195812.8114471,42.659752262200236,-1.15166485270244,-4.685855380477127,6.481777413831577,-0.0916858796843347,0.02629047511525673,0.8329763935529637,6.524393228398329,-1.5220687265489976
1559195812.9112966,43.31924321633142,-1.1799481924051467,-4.753815697275558,6.5305913496139585,-0.1091554111437977,0.020851624000027158,0.9294817683902398,6.443118797091042,-1.5211271855097583
1559195813.0113876,43.9657112880952,-1.2088200516115502,-4.831961924545831,6.559811167629753,-0.10421864462551632,0.005556209710768534,0.855809495600391,6.4333481098123135,-1.5295348899201344
1559195813.1114893,44.641366668709686,-1.2365460062909375,-4.9015585890117475,6.620997156523373,-0.0896354178353262,0.019605761381430553,0.9939660738381003,6.38855963451178,-1.5417120142428293
1559195813.2114275,45.28511748573802,-1.2632942157515075,-4.980962219702828,6.639428643614589,-0.0786265758898961,0.0006487282639108249,0.7859418329964671,6.391885546466896,-1.5115061918505373
1559195813.3114467,45.98175265168432,-1.2858271799358902,-5.052780177172653,6.70746986109085,-0.09199919925316787,0.02391697422490935,0.8475861589337043,6.358494494255124,-1.51337061124276
1559195813.4115586,46.6278788393419,-1.3152963549560264,-5.131732054346033,6.717158696581366,-0.11772822657099287,0.02013060805417377,0.7553372248604671,6.399180432164144,-1.4933037354404106
1559195813.5114698,47.333467031639756,-1.342536944767439,-5.202301367888832,6.771104106668824,-0.08564282268995203,0.015495933841988663,0.8919718282624728,6.355389428584783,-1.46953680569258
1559195813.6115887,47.97149530848341,-1.3658720310693915,-5.281658297138566,6.777434969508089,-0.07288653691687648,-0.005799889129648128,0.630023211622524,6.353490090170247,-1.4454196445243634
1559195813.7113655,48.67911932648321,-1.3926392466549076,-5.353099629700328,6.850388900772708,-0.0744665371258754,0.023279318440911467,0.7922022169574447,6.333806629085453,-1.4455561132851844
1559195813.8116224,49.33119404978936,-1.4171189949753593,-5.4323507240655085,6.864721941134957,-0.10883442264165324,-0.0022986671104306966,0.553688244961669,6.414733628889311,-1.4162147933245113
1559195813.9114487,50.05172199556624,-1.4460179519962608,-5.5059518459746,6.938108938005081,-0.10532677789930914,0.029244043200136183,0.8255785763971941,6.466318874160318,-1.4190052850560162
1559195814.0115569,50.70617075970286,-1.4683119200329702,-5.584146039314082,6.936872785710586,-0.08078390041566233,0.04585347073998414,0.9506932240273253,6.722116572541775,-1.412770806618007
1559195814.1114094,51.41655903162478,-1.494236595828673,-5.6568723879145075,6.9585415738775085,-0.0440915443886051,0.05464196184797754,0.8018015653102407,6.761501447749085,-1.3687203151625245
1559195814.2114432,52.0681041531499,-1.5058977257566695,-5.738408910752518,6.963345568565255,-0.06500940615815563,0.03379224698192218,0.6875690245715086,6.860968503051574,-1.364894006706009
1559195814.3114328,52.77920261156892,-1.5329896275986132,-5.815472516128286,7.0156172730702,-0.12596185060209986,0.02068606142360696,0.8587123188698944,6.84245715499861,-1.3252954042961982
1559195814.4114242,53.4509658996938,-1.5513555466751567,-5.908096345007055,6.992198910167641,-0.14604425772199703,-0.017040307363241802,1.056349604216708,6.837891850329511,-1.2772431850870591
1559195814.5113513,54.15739957757435,-1.5804572011569367,-5.98453137316962,7.058584967039754,-0.13218001547907957,0.026506613213004293,1.280214919227068,6.758106278870098,-1.231116086655757
1559195814.611449,54.85055627376367,-1.6022880306388667,-6.072150665438319,7.087728236976978,-0.09899566800623473,0.019218326401722163,1.2727541867117773,6.756652193880797,-1.2018480543012726
1559195814.7114403,55.56671487037101,-1.6265036026371673,-6.148046390204755,7.107863271784647,-0.09942385701971672,0.010535118899726803,1.2944843584454677,6.620954007722499,-1.1174512613041716
1559195814.8113801,56.26403455828948,-1.647450178609195,-6.23653264110262,7.141443751878611,-0.07745709866064358,0.013918073926642793,1.2906341984549599,6.5663185758251785,-1.0721648268273591
1559195814.9133344,57.00106303316979,-1.6708322838411613,-6.312417543606334,7.176658104826796,-0.07544298942365864,0.018922081298824556,1.3451984321500559,6.448569871873719,-0.9718492989001353
1559195815.0113442,57.695782308705375,-1.69058628220766,-6.397880902868007,7.237945809934476,-0.054385057982914334,0.01880323538122186,1.1185997435507358,6.464755309740643,-0.8581545460645114
1559195815.1113415,58.43303569905903,-1.7079570594672264,-6.4722863865428675,7.295381329766821,-0.08152377644619638,0.03561558347077787,1.1263960504303938,6.502647330363976,-0.741325145108243
1559195815.2113943,59.146427754476,-1.7296928092256278,-6.5556351941394135,7.3423685743912435,-0.09764387676014663,0.04583815426343907,1.1216405364209796,6.758325784188687,-0.609557870302572
1559195815.311241,59.89367848710297,-1.7492593045111224,-6.628652356786531,7.39771325442064,-0.056344168008766994,0.0932737700841818,1.2089526883194228,7.014763595286907,-0.457457709932046
1559195815.411174,60.62463783152916,-1.7592466235560886,-6.7168875329290705,7.3871339395069695,-0.03502536138572496,0.06898945481905794,0.9719206723402204,7.297827467666552,-0.33501162626102854
1559195815.5112765,61.37800553414323,-1.7694425576071906,-6.79799789444505,7.379980484155159,-0.057445212515431124,0.0492243761254032,0.9187837900155466,7.215508981470445,-0.19394274991747087
1559195815.6112747,62.09218943924023,-1.7830260891233516,-6.893808466655408,7.36137827432453,-0.11852463247751514,-0.0045126560475559074,0.8468666646049678,6.936491042032174,-0.0530905729654702
1559195815.711277,62.83578833424836,-1.7969263700237819,-6.982756000044534,7.385809437895309,-0.14744358574376817,-0.11162050854230599,1.0702995210942692,6.432728009709483,0.06299088978495093
1559195815.8113418,63.56306983519093,-1.8096357865345625,-7.082103523889066,7.444226027682826,-0.11150304448698953,-0.05161841258867894,1.0799539405337322,6.060350571679748,0.17289962085561614
1559195815.9113405,64.29871520823659,-1.8197066232645094,-7.169267672994585,7.516846708881582,-0.07806076965757291,-0.007050051221102582,0.9951791959420219,5.96040899895208,0.2834603835779706
1559195816.011361,65.04911593956287,-1.8258939421860205,-7.244793843228919,7.592852844482042,-0.09499542893313642,0.06456000800449524,0.9247219261955694,6.162501785499155,0.43277644578794183
1559195816.1113007,65.8118637979575,-1.8278200274014464,-7.314977595987328,7.625619621706804,-0.09131902469834766,0.10955411764446954,0.9315632606907971,6.468982867293113,0.5821943767605983
1559195816.2115154,66.56867498637523,-1.8338875829748602,-7.38871715929572,7.6282628949469276,-0.1546622862100275,0.09871494976145367,0.968352455856769,6.738108718785588,0.6786106723316135
1559195816.3113003,67.33681285728474,-1.8435879410652962,-7.466776204719428,7.657269158695947,-0.16366223313531786,0.07275957142932854,1.1949911049345787,6.88319589585158,0.7841905678872572
1559195816.411357,68.08795322511745,-1.8422893748995421,-7.549996399663651,7.655809811533769,-0.10383129876832245,0.03694395694389574,1.2515801608704493,6.973751591878281,0.844745650384896
1559195816.5113642,68.85359190742484,-1.8386932302274517,-7.636953029639613,7.661550164837608,-0.08449091510362947,0.05503543302770997,1.0231808328088625,6.981357358051503,0.912257212001815
1559195816.6113238,69.60403246199071,-1.834148732866218,-7.7237697085518695,7.66304275379667,-0.11285549387340775,0.05026498533961876,0.8180991137339899,6.985021141859285,0.998130555705392
1559195816.7124052,70.38224953691682,-1.837131909342303,-7.811324443369084,7.671712442286783,-0.1603505195263979,0.036175922645446446,0.9685994335920328,6.892005098974364,1.0465578552150527
1559195816.8114185,71.1278403262668,-1.8368074982366134,-7.899617732290855,7.684943614299703,-0.15587640452401202,0.026718650374180974,0.9849987819546295,6.76900596607395,1.0993563859674902
1559195816.9114423,71.90011446846664,-1.839069709186037,-7.987854307106202,7.6974464891612655,-0.12577745600106455,0.009287090257355857,1.0399861585062407,6.5889620953949875,1.146142569785416
1559195817.0113466,72.66238431462497,-1.8319305516689253,-8.073476378180656,7.71874585162085,-0.11049896234194435,0.03784274867558157,0.8514547619609358,6.419552167170326,1.1815204953922127
1559195817.111275,73.44522748092781,-1.8284069795630096,-8.15642775458006,7.75278210132669,-0.14618697881635825,0.021506083135985454,0.7491489434353641,6.261424474637054,1.255000399873973
1559195817.211317,74.21653585806685,-1.8269520637368335,-8.236692559569423,7.793591905328513,-0.19306093684259884,0.037140518797994626,0.8318623431444739,6.174872969340299,1.3264642198486172
1559195817.3114557,75.0228808980965,-1.8293384850564713,-8.313513121095252,7.845352801322947,-0.18767365243613202,0.04629888178307828,1.0398889338997985,6.218160285843663,1.4099025980964637
1559195817.4114993,75.80775377446786,-1.8273203558827347,-8.39062521582209,7.8518194180987875,-0.13428260665317457,0.07447193800953356,1.127959482056652,6.32937687904612,1.4914503524277045
1559195817.5113626,76.58671696840973,-1.819658554531057,-8.466173985474267,7.83924860630299,-0.12850121631480022,0.06730908821776105,0.9634262516213199,6.357839190853077,1.5798264277095573
1559195817.611278,77.33134970806331,-1.81443827584939,-8.538185515148939,7.798682951594067,-0.2592178857134452,0.03802439818407155,1.1093669631309768,6.221021442165072,1.6655181008739448
1559195817.711322,78.13529971831666,-1.8165034700519542,-8.616716144039746,7.834585461121793,-0.2058915892398389,0.004045862677520495,1.3133233404169065,5.967947422806588,1.7741805972592788
1559195817.8114104,78.92355670716725,-1.8088572589169474,-8.698901757042432,7.8743310147360335,-0.15147673863600586,0.026297424597441887,1.4483424778546432,5.827698701156104,1.8707995454438817
1559195817.9115815,79.71323068492673,-1.7940049379389036,-8.774580321390014,7.9208037723586,-0.19524880372255154,0.03345943805040641,1.2722664357638798,5.871967565299973,2.0161629338136176
1559195818.0115516,80.45433463363008,-1.7613859671846084,-8.816791450097018,7.918318333410433,-0.1493243482183066,0.09956318070552472,1.1121578249783255,6.007317161110033,2.195307541013611
1559195818.1114023,81.27061110894815,-1.7492986102089119,-8.87566468932901,7.935838067112788,-0.12324658558018975,0.0890882473676704,1.2456045011163814,6.15299643556566,2.3164440215238815
1559195818.2115982,82.07263795911832,-1.7358591930373963,-8.945725122476226,7.952973722163995,-0.14060451298533738,0.07242928455772846,1.1724687975160317,6.341927109175495,2.454882292579288
1559195818.3114264,82.80932579092048,-1.6995912049415598,-9.006249702256142,7.929809646416522,-0.16365515303108957,0.08896350504906347,0.9189518507565869,6.433427663270343,2.5715780257814083
1559195818.412924,83.63708077399366,-1.69031797884938,-9.089008021304057,7.946115055404469,-0.18947965573877945,0.06625195727847955,1.1351495040958688,6.422091279219948,2.7059648184371285
1559195818.5113497,84.41701789297421,-1.670191126249327,-9.166296722288408,7.950265407689388,-0.19761185447643526,0.03957585368139016,1.1623071411198982,6.3430363904155875,2.8321647532883
1559195818.6113553,85.16007599379749,-1.629952697346555,-9.228781376079343,7.95174645816071,-0.17716141024625856,0.046063419923226934,0.9623830067266512,6.2429021106113565,2.9562781777091485
1559195818.711347,85.96776245189949,-1.6036618860043892,-9.29672776838755,7.988540941190284,-0.16486658336387144,0.06344689602572473,1.0625963725222374,6.141980530886821,3.0837634875828237
1559195818.8112066,86.76795997504243,-1.5748395054033977,-9.373571320273186,8.026929634073197,-0.1522481651404482,0.0773935481876028,0.9932453056840849,6.1628632717642855,3.213105641583289
1559195818.9112303,87.53120621151501,-1.52641752390615,-9.444633642632258,8.014494023392567,-0.15718224052061786,0.08229140382196065,0.7429513000564838,6.188629780301947,3.333338818361952
1559195819.011386,88.34026422542858,-1.4933178558437095,-9.49915149094836,8.040289928443487,-0.16119669665930456,0.08898136797353018,0.7729300374325356,6.102062587926415,3.4647464399372416
1559195819.1113722,89.14826926597254,-1.463743570345784,-9.584406610796838,8.065272336708379,-0.1627498209732673,0.054436378339174474,0.7853493978018631,6.097560614277055,3.5981246506751243
1559195819.2114635,89.9208184369046,-1.4116231508391435,-9.65034714058341,8.066222875490645,-0.16493032519920872,0.06277432351374801,0.5068649584665741,6.067954385539214,3.721583599974707
1559195819.3115735,90.73219829988551,-1.375632484368023,-9.715231463246287,8.094917517820353,-0.17307919056694732,0.07803853863640964,0.5798574727541468,6.031808400810166,3.845253458070226
1559195819.411391,91.51688720521713,-1.3223966122720605,-9.793432329858211,8.10098689621371,-0.16099038377453279,0.06461785192855873,0.4453387397881352,6.014839297618848,3.9719501640489594
1559195819.5111275,92.3300300278796,-1.295122600656944,-9.870656611903728,8.120685423196276,-0.17478679005289405,0.06071168681308903,0.5436464051110352,5.976077922825911,4.095041684363142
1559195819.6112645,93.14919855002864,-1.2605432560811143,-9.957476413519121,8.137156521460739,-0.19451774562072083,0.05211852730764943,0.6291866212408986,5.939407302322162,4.228754453019352
1559195819.71115,93.93953864282429,-1.206850706291405,-10.03333114438348,8.150362257227398,-0.1867525956795688,0.052926402049816246,0.45398757340023355,5.902786028043745,4.361844263798465
1559195819.8111708,94.74650686867042,-1.1543448472667603,-10.088128244582105,8.177544097209402,-0.2066300219842518,0.06969854252530672,0.5266357812537144,5.797330502898407,4.481532600882574
1559195819.9110415,95.5565291941844,-1.1144665296824958,-10.163207862348528,8.191455985066582,-0.21112159488677124,0.06406831436230676,0.556835993459987,5.804289009875697,4.624310050803062
1559195820.0114086,96.37465368967128,-1.0667943720940283,-10.233166816850641,8.204992119449052,-0.20807397575629344,0.07352898938865371,0.5986642450932835,5.806701525352879,4.744244952282164
1559195820.111393,97.16985493671086,-0.9837672046792433,-10.287783033118906,8.209048511248218,-0.18057735549297702,0.0803311252572072,0.3922648321821406,5.7410174925686075,4.863144688013681
1559195820.2116318,97.97748356980608,-0.9416888282147304,-10.35491682897206,8.21998986563474,-0.20001680770139915,0.06618266511160187,0.4705657456020259,5.699134257381273,4.99469594674134
1559195820.3113256,98.79016228438213,-0.8885468514797232,-10.422462083968693,8.22560457181717,-0.2257400315723993,0.05632256680858572,0.5112413007965981,5.650359035776163,5.1224480647699275
1559195820.4112058,99.59114136245539,-0.7906152943209329,-10.46396315916864,8.2463332417776,-0.1792746766634836,0.06910761938548304,0.34814064745510365,5.481078322982337,5.239645730025031
1559195820.5113628,100.39115585776514,-0.7386907030743345,-10.52641080537651,8.240513292434784,-0.18059568444869967,0.05505201805175175,0.3546543588301509,5.431838632580846,5.361256332311828
1559195820.6115398,101.2092199621828,-0.6531920336968932,-10.582145846289993,8.258923130496418,-0.17308597826691652,0.06086824290482318,0.27300706337842384,5.338197064530148,5.421034832027862
1559195820.7115366,102.0056705904427,-0.5926214005019691,-10.633139439796736,8.26975142050869,-0.17477983734395855,0.06710259181633049,0.2709014908731188,5.296741292422129,5.445045977344715
1559195820.8114338,102.81910556373428,-0.5348372513031914,-10.71449712027683,8.274122357741911,-0.19309993685516835,0.05067214154894217,0.29516915665112886,5.3166226319222005,5.460793972557337
1559195820.9115252,103.65267204187342,-0.4609905721011244,-10.784853555333758,8.297347585202465,-0.18976853821836356,0.060280236173636315,0.2812086321132089,5.32212713488695,5.471092419990812
1559195821.0116162,104.45893770862178,-0.4047168720986807,-10.839079911838471,8.289253045082122,-0.19894595014457445,0.06192407834374514,0.2556122235686158,5.260484459854755,5.489400746880286
1559195821.1114466,105.2781689261903,-0.34508757767528087,-10.905751519879878,8.286420015505653,-0.18018257986191452,0.05256777830745962,0.22258034269550947,5.157672722109994,5.517280618302299
1559195821.2112489,106.12183750093295,-0.25932207840234844,-10.966317477620777,8.318736257608915,-0.17657709472879943,0.04312614304529583,0.08235198514037588,4.967357325622902,5.524814693106774
1559195821.3112557,106.92559515562121,-0.19988131613515647,-11.014142055153227,8.334211130942657,-0.19089859938294992,0.03987015210139788,0.09638447992735229,4.8755636600056045,5.550299662317942
1559195821.411412,107.74764188968717,-0.13782496185645599,-11.072559371684214,8.360381665169552,-0.19122388329649617,0.066528073543758,0.06691403168233805,4.900411757135251,5.579901217153402
1559195821.5113134,108.60864169691799,-0.046126536175940425,-11.119551551281706,8.38750457448811,-0.1817177227684929,0.08787965399478936,-0.049446213899215365,4.937360815214578,5.57985119319709
1559195821.6114576,109.42542735478338,0.015200608438963537,-11.16429599413004,8.387377071955413,-0.1949536264097579,0.09450548772725187,-0.07245260107154895,4.962183590277359,5.608576683266307
1559195821.7112553,110.24747197401132,0.07876901026374616,-11.230251898895448,8.388186668835788,-0.205068551998084,0.06246131099336094,-0.056141567695233756,5.007890844378352,5.6282317802295925
1559195821.8113973,111.10822014810765,0.16959360110394162,-11.288613115826966,8.424795886229127,-0.17800775260687857,0.06725440032663854,-0.0634423603046446,5.001120165206781,5.641962976931846
1559195821.9125204,111.92990378435222,0.23727196888877278,-11.33743161142365,8.418276904239894,-0.18531965261115046,0.062143523721146066,-0.10112277046590136,4.973945042205689,5.664883595478758
1559195822.0115385,112.75503190699632,0.3051919129969147,-11.401680895344862,8.432081966635844,-0.18876469303229404,0.055343940549454684,-0.05693196405848531,4.96035486003933,5.687856259983068
1559195822.11144,113.59607772849539,0.36940987209027987,-11.463185909879956,8.45713521306471,-0.19826737011504006,0.05196126188120376,-0.02840333124056032,4.966911824436045,5.704685310406331
1559195822.2113419,114.46510160205949,0.46365644089925684,-11.52381647092077,8.500979693819668,-0.16111760411591547,0.06023867282137285,-0.09165891419429809,5.000941564334454,5.7095747603894305
1559195822.311404,115.28996705861232,0.5362260210569035,-11.568210054846752,8.503745064757794,-0.16468078458169919,0.08063763374278121,-0.11944048613900508,5.023184030227277,5.733465005752023
1559195822.411475,116.13216768175,0.6099555808939364,-11.625598440031546,8.515103754027667,-0.18296824863869993,0.07541432287635186,-0.14024014809886268,5.042318092228927,5.761235032276059
1559195822.511504,117.00892450543435,0.707027309703806,-11.685847686586595,8.533866098141024,-0.17719515258913301,0.05338582372958267,-0.12598253197899215,4.977404807597373,5.800668992203614
1559195822.6115465,117.84241581861033,0.783452196053394,-11.735779109186533,8.548927254677858,-0.15475511709969603,0.048965469269593664,-0.1059191829120501,4.864693868064097,5.87243237575078
1559195822.7115974,118.6921296560895,0.8573151574695894,-11.79884088751517,8.56336151791031,-0.13718808237195634,0.040911049042016256,-0.19410119430574455,4.8253301686630925,5.956858360173261
1559195822.8113384,119.58240259006854,0.9597156404399352,-11.858942199470349,8.619026794922714,-0.1277919259990598,0.05802377027860717,-0.296353238721925,4.794170238033384,6.024335853091629
1559195822.9113657,120.42140121995234,1.0325068252794485,-11.913948030452497,8.637682739718807,-0.14129410517980798,0.059489632523238356,-0.30935886433785853,4.818096536608806,6.11613305204261
1559195823.011323,121.27563966621598,1.1070716639676426,-11.980089228650565,8.661146919495838,-0.1531934182895703,0.0647525583660542,-0.27608037302136496,4.892011783208384,6.191134544387092
1559195823.1112523,122.17662240325747,1.2067198878363306,-12.04621137185756,8.68772825694234,-0.15636289952214463,0.06684000252523126,-0.3280983957458065,4.927789819983856,6.260833513949277
1559195823.2114089,123.02227284993909,1.2875523168449725,-12.096836313895547,8.69215073403087,-0.1316839309963164,0.057087010882389766,-0.3011573947186139,4.838608661678847,6.343052903895208
1559195823.3113675,123.88174122021539,1.368900247626191,-12.162796545000791,8.692107549030512,-0.14364672220356273,0.03146172792723845,-0.31178796419171434,4.744678368786907,6.411251459784444
1559195823.4112365,124.77581265330602,1.4673124800892607,-12.238220714066465,8.72381270442974,-0.14597686257182077,0.02653293088121178,-0.3571568296005525,4.621116232459758,6.481950153461031
1559195823.5112865,125.62827567276989,1.5409208840270856,-12.296991318011298,8.73310546143809,-0.14679003723208747,0.03523703126272171,-0.3434625181536032,4.45862151672772,6.56420572154432
1559195823.6113722,126.50579054194418,1.6246348818564704,-12.360322570485856,8.759457731845142,-0.14390997198856786,0.03152564542645997,-0.3664037772806754,4.330470893409726,6.638041423344566
1559195823.7112916,127.40607325284893,1.7345469706701435,-12.431794951349701,8.795587764851726,-0.13246233326406265,0.033959491410169296,-0.4373305796706637,4.237816797088277,6.716165583152027
1559195823.8134427,128.28331903034714,1.82299838938011,-12.474656921318626,8.814245624439112,-0.1323773189973068,0.055074952635680074,-0.4799716339646796,4.142605954552485,6.795190528115261
1559195823.9114327,129.146570597037,1.914074507823627,-12.527480539251332,8.8440483737118,-0.15472264350419568,0.0578977336200851,-0.5370078701722627,4.139185221726283,6.879695604621497
1559195824.0113244,130.04457370781734,2.0198490912542275,-12.596608086163183,8.874544523319884,-0.13589397103046993,0.05437709975620297,-0.5679127532331726,4.210017038109296,6.947803226741057
1559195824.1114254,130.9234145086947,2.109734331676756,-12.638777471882943,8.900050405656687,-0.12642924149946866,0.07665883629873316,-0.6734070425754394,4.26887800534384,7.035297666220906
1559195824.2113824,131.82530300529098,2.21744330509135,-12.711274193663991,8.932282337626582,-0.13564584492869397,0.0652247353884059,-0.7685347349620988,4.436723762276531,7.107338194202501
1559195824.3114808,132.7002118714452,2.3128347030575194,-12.755306821604204,8.943230287324688,-0.14464972590978287,0.0801399729999297,-0.7297901385789962,4.521945515963084,7.185937871722891
1559195824.4115944,133.60577531110067,2.4176181940775163,-12.827269924757783,8.95920742093766,-0.1486446828657581,0.061422851281510704,-0.7214327530801805,4.6638331743281585,7.282223893199289
1559195824.5120609,134.50141484983274,2.5121437553634274,-12.872200876345321,8.961092950821728,-0.15117237304026182,0.06935709197694373,-0.7423437884719182,4.625035419752306,7.386532696882177
1559195824.612058,135.40830522600606,2.621151799981327,-12.948999698906269,8.984399660796607,-0.12920806415941355,0.039898641568288484,-0.7752143094332942,4.589350744054449,7.509468775693918
1559195824.7114937,136.29658150338986,2.72452058876362,-13.002196775327182,9.004235893064783,-0.1374140272734516,0.05471898073006254,-0.8600807471597391,4.418072417018267,7.638217749050758
1559195824.8114698,137.2024669847909,2.839858812953781,-13.081927512437037,9.036516617534904,-0.14808597021112635,0.0378620889677046,-0.9076805138502976,4.369005787564124,7.77622811328576
1559195824.9115355,138.09541679240036,2.950409616557276,-13.12518891002054,9.057041440185209,-0.1419502513432835,0.07299715791938943,-0.9367419831634289,4.22089573905851,7.900483243180672
1559195825.0115561,138.99268605876838,3.075655997152643,-13.193868216262214,9.092250586522647,-0.1300455193675363,0.06528134519286166,-0.9426437204791769,4.209308101048817,8.011841155167378
1559195825.1115456,139.8865637049496,3.1887558016048625,-13.235079062594808,9.11908396688861,-0.14726660485403625,0.08224190054265867,-0.9207300321843961,4.17583226671843,8.139394534517285
1559195825.2115147,140.78997018949607,3.3105291525950777,-13.306112644418683,9.131597864134068,-0.143300862602673,0.07429132203013045,-0.8613687530556492,4.304645641307869,8.253336168925399
1559195825.311299,141.69538534968893,3.4294073322286094,-13.353706337822482,9.151493715611743,-0.14155145172070221,0.09782060937521087,-0.8862799247741576,4.327660591227682,8.371736873970844
1559195825.4113321,142.6038325410039,3.5567932305544403,-13.421891192644194,9.159324009203909,-0.13046485480918593,0.0678576896485229,-0.9281904194205691,4.375740094376741,8.487968094074319
1559195825.5140092,143.53163200112013,3.6806836201782,-13.468499703340784,9.173715411203748,-0.13508512188917868,0.0731552446558622,-0.9048783980993739,4.274380493111587,8.60904800910181
1559195825.6115928,144.42157458730566,3.8049374568420933,-13.547118148257297,9.185316786586693,-0.1405639071994643,0.04589883190400512,-0.9038433337473472,4.2958416981486724,8.737366981990483
1559195825.711585,145.3295831432957,3.932995780047839,-13.589592504209486,9.21877284019826,-0.14086561417657903,0.07916855279977442,-0.953235465033563,4.1743704455614195,8.84825989304727
1559195825.8114846,146.23860679864848,4.069473642433614,-13.662378296827079,9.257504779742263,-0.15090944499878403,0.06625394241817395,-0.8822776198661546,4.278556530901945,8.949439888079128
1559195825.9114833,147.14907761843327,4.202390805966701,-13.703244813392772,9.281006856231649,-0.13840302438544633,0.10152082042849275,-0.9017865319622105,4.321271804713446,9.05934439300309
1559195826.011461,148.05534914993746,4.351558027588428,-13.771814025443726,9.282480711482066,-0.13513273241710208,0.08813754694341502,-0.8321409983234017,4.4617871470615205,9.14213058172853
1559195826.1114914,148.96795829653885,4.489048960544967,-13.815993526469123,9.293415657449133,-0.13868130087011288,0.09459737225447262,-0.8510081768278035,4.428874689081582,9.234689424022148
1559195826.2115793,149.87833958991737,4.637385371300156,-13.89536401994503,9.291891075099887,-0.1270194730290825,0.04615478066401735,-0.7623161172614984,4.424318076256641,9.315366877366422
1559195826.3114245,150.79169203586173,4.777045735905788,-13.942124920545503,9.297657970176974,-0.1236925629740414,0.048478709523927854,-0.7863014975519276,4.210625577748256,9.399516471109491
1559195826.4116113,151.7079226630372,4.930481903407251,-14.023239411330232,9.312790453109985,-0.09706393367910772,0.02768480114377425,-0.773829589103654,4.1103768409270405,9.484300570633875
1559195826.5114958,152.62553247974537,5.072224137350188,-14.066841959210356,9.337810447943838,-0.10572257043156413,0.05147210277356751,-0.8525532235064186,3.920958591540029,9.5767717377462
1559195826.6116529,153.5532277833581,5.22390561014107,-14.14744902346265,9.35288140734375,-0.10774686017786936,0.04380547494957554,-0.8427612793183877,3.953783479111533,9.659039826102497
1559195826.711602,154.47637891067822,5.3679086709364405,-14.183142207953846,9.365744639125126,-0.12974218706614218,0.08607235407784741,-0.8707373773389426,3.914190707277253,9.745986112863354
1559195826.8116722,155.4159765303133,5.51634100600368,-14.265380418708816,9.401782349859648,-0.13890263640641298,0.061497037447787894,-0.7769001764614295,4.118830495629792,9.819909007144599
1559195826.9117157,156.34521435571355,5.661352120437543,-14.305454721723894,9.401364905916509,-0.1274930451652192,0.09438468000842659,-0.7961658768659549,4.218567533944343,9.896991940319182
1559195827.0118241,157.2805922941281,5.814702068823753,-14.385242507585144,9.396518863886897,-0.10113005339186261,0.06393777229182962,-0.845679742144945,4.421797221204524,9.981353757186788
1559195827.1116562,158.19319293918537,5.967028823130087,-14.427579850158194,9.341561305875235,-0.10592520237647697,0.061420469879931106,-0.9200675024978283,4.255525543144549,10.081731565013277
1559195827.2114162,159.10897719221515,6.11514292477006,-14.513955553205072,9.33155156057755,-0.14225490018082332,-0.03798897965672965,-0.9570092670642422,4.041902275851541,10.197330145295886
1559195827.312506,160.03545097942273,6.266859591395217,-14.561961361011798,9.36829031470199,-0.1648318055260992,0.00832203287526645,-0.9656380759113236,3.683169487463176,10.286694976746883
1559195827.4116192,160.95408538891158,6.417704323611048,-14.639631677878182,9.408796952310396,-0.11167751501940532,0.04306207059263434,-0.8080974208137288,3.780375806782009,10.391811775526097
1559195827.5115814,161.88327086887222,6.5784808641676245,-14.667104064695502,9.456146420462202,-0.17226326292072208,0.10859708470634044,-0.9197168794028213,3.9019027331914673,10.462126975291365
1559195827.611696,162.818122290704,6.73988414734154,-14.732842052676146,9.48105959276336,-0.20630895685573727,0.039210635556383266,-0.8329663147584252,4.233009497219225,10.558119997838297
1559195827.7115877,163.7497203228374,6.888065000575603,-14.771427978587289,9.423747672284243,-0.22034050094510346,0.061963886297286774,-0.5128471698543526,4.163562617520709,10.694324283202686
1559195827.8116024,164.68269991454966,7.045580043954969,-14.853902107015942,9.455036705594004,-0.28095616893494185,-0.025423501381541813,-0.2527101230190018,4.1915686486125665,10.825721402335114
1559195827.9115093,165.61742902081016,7.207895131697773,-14.90267523008236,9.506975821490276,-0.1802675107822143,-0.032064992436889095,-0.5324785292725172,4.047810075796332,11.034039390843873
1559195828.0115838,166.56822362747957,7.385005123028528,-14.98524695153846,9.549042073137315,-0.16682865012880282,-0.06795818873143733,-0.5328594580854075,4.327049455090228,11.230447223610337
1559195828.1115932,167.51942973384695,7.558463928796375,-15.030444620734857,9.561108141572443,-0.10747081657181752,-0.017786029707564266,-0.7482622231486261,4.464698851519104,11.414375597829197
1559195828.2116368,168.4771912947039,7.751418999481035,-15.115102761768066,9.558022824851122,-0.12078735556817653,-0.05580058027679735,-1.2001676390134985,4.638198814093634,11.60460991313722
1559195828.3115807,169.43536814006387,7.940558599029056,-15.206901564175316,9.577502639858624,-0.1997512695394244,-0.07529514497321421,-1.2995930693594853,4.609512047196441,11.798276184296926
1559195828.4117873,170.38263195096184,8.117856599801232,-15.259194024471142,9.611842043729547,-0.20842665820823414,-0.03851802620619549,-1.1504154498322796,4.347077377461848,11.965857280462044
1559195828.5116677,171.33723087813573,8.307179693770179,-15.352161053602186,9.628222508971051,-0.19161636927528283,-0.055380710522497156,-1.1909914679060272,4.337823179079534,12.106787624174197
1559195828.6116168,172.28228929135506,8.488958391899704,-15.400900805971391,9.64097731312495,-0.184263494234066,-0.006228928522319599,-1.1596364477997614,4.065019351081182,12.269334384489959
1559195828.7114632,173.24572592823364,8.688053746782384,-15.487887823960342,9.66787485961029,-0.17231757274383555,-0.06384888837224445,-1.3506418359018362,4.029252410028687,12.43153402019887
1559195828.8117058,174.20577827941312,8.881469072578387,-15.524068349118965,9.73272716403174,-0.19373523367330708,0.01567410751332221,-1.431308889807431,3.835917410185437,12.576658959305188
1559195828.9117193,175.1850366790624,9.091121226153815,-15.598843866952448,9.793358978050572,-0.1923371767097248,0.0036176134396558313,-1.5533739446439154,4.143147271302395,12.696341891310796
1559195829.0116403,176.12685811262722,9.290721271586616,-15.62263392984598,9.768689835550099,-0.19869715102950194,0.08824211603511956,-1.4991001263107742,4.117786535575343,12.815427102662976
1559195829.1117954,177.06911054704025,9.497418760188637,-15.689479993680905,9.73189675898227,-0.19251814618296945,0.025567863751581932,-1.4172151967980362,4.168292244227625,12.928141514463546
1559195829.214062,178.0252367707786,9.69577354352848,-15.724898493471201,9.692945907771756,-0.20610588815169048,0.023005926698648316,-1.2263623534596748,3.739971083195674,13.06736073907261
1559195829.3116655,178.92047032146442,9.895279079309761,-15.800103516519174,9.675361959728082,-0.18836082033799695,-0.018294000707111735,-1.117662397525169,3.5106061408662663,13.195030782913504
1559195829.4118161,179.8689333409797,10.100588622809859,-15.819041293984485,9.717456088871309,-0.1738362030612599,0.049914417954528445,-1.1080066086479672,3.1116074143264494,13.328637071508483
1559195829.5116546,180.7902267560327,10.312660135891782,-15.851407350705983,9.76155879703157,-0.18091828674883695,0.07211316658944511,-1.0057697041333418,3.119362098609782,13.438017971248954
1559195829.611642,181.7471538308994,10.518952099588969,-15.856347667907114,9.803788103042358,-0.22556185534326503,0.14725472206451018,-0.999308116141366,3.312752395495329,13.571486465674282
1559195829.7114773,182.6827326258286,10.728144087874881,-15.919099290445478,9.782602766944136,-0.24486412107850875,0.12277649860313838,-0.6603946416142894,3.844371539903327,13.669005195195846
1559195829.8115814,183.6118780891121,10.942400951466821,-15.989569451492029,9.720164307374988,-0.23967178099470662,0.08351932133502427,-0.2745203074015275,4.147011289131842,13.751862022034697
1559195829.911462,184.53909816096757,11.153285056143558,-16.07224724334622,9.66870696062108,-0.23911773770934944,0.04354187221790484,0.07695360963588387,4.209357492896223,13.859666417037369
1559195830.0116935,185.4897426739283,11.3632434346747,-16.110318995956987,9.670365980707052,-0.2174694871434413,0.06925138763547589,0.23595551472609488,3.8889667757668676,13.997538766586699
1559195830.111562,186.41868165616557,11.580413284618638,-16.197513702288212,9.677283625910956,-0.19024168044740472,0.014621382988038834,0.37527672417223895,3.7943748156731205,14.106772504071609
1559195830.2117565,187.3467933929264,11.798474980027319,-16.277375808432147,9.70118503052395,-0.2237695806762589,0.039928648332886785,0.5168665933615261,3.7903000539067375,14.228061264648055
1559195830.3115058,188.27899070965253,12.016567245188229,-16.345330666793693,9.771609512263094,-0.2909725527969954,0.11177597054780475,0.866128341920881,4.061909231053128,14.337930965144439
1559195830.4116447,189.24167077020212,12.234908114386036,-16.38151188837927,9.753859218412247,-0.2437941194285526,0.13758561733374441,1.22340176426678,4.318543973086192,14.423732877924502
1559195830.5117102,190.17040647871502,12.462425328744766,-16.449712795996486,9.71472624543225,-0.1244343525708175,0.11432933085812291,1.3047079871972111,4.535762688251267,14.510698653605335
1559195830.6116793,191.09379754670184,12.700054859567528,-16.515009869968143,9.628555540012021,-0.13741129684735787,0.019934644378112543,1.0351445915571622,4.3347924524916595,14.591224938172715
1559195830.7116258,192.03032781684905,12.93153218851127,-16.565756459820726,9.637508118747544,-0.1535298858217412,0.05465212104604755,0.8864305197195947,3.851184445160326,14.708736806443232
1559195830.8117323,192.944501012913,13.165714818981128,-16.62559098862023,9.619170052693782,-0.09925678159460169,0.028953339734959616,0.7406132092733368,3.4477101957308607,14.794453854208246
1559195830.9116478,193.8849840963605,13.403028387517786,-16.664704466518565,9.649758032610745,-0.060528743812298336,0.03452731014222743,0.35687788299153617,2.9607480139006728,14.842936947014733
1559195831.0131752,194.81664096473114,13.645625356588752,-16.735812197512153,9.695777878393923,-0.10140160679375732,0.03051381971189715,0.10282942397033885,2.940854198190152,14.944448768953702
1559195831.1115534,195.75741865506163,13.883141938012635,-16.757440070790206,9.745022437765627,-0.1475288959843342,0.12719087820231417,-0.06377426259153725,2.9938228183892113,15.042938516337198
1559195831.2115753,196.7024662213975,14.128105471422673,-16.79702617299067,9.74536638597952,-0.1859854601491353,0.12376958701938062,-0.08141204863768726,3.229932341825935,15.114307365250468
1559195831.3116605,197.6569961202992,14.368026067412952,-16.80119182697004,9.728982988721093,-0.19242739561480712,0.12128390690155538,-0.028280061669109086,3.2043829545677203,15.19315192492187
1559195831.4114263,198.58685504196058,14.608288360388434,-16.840232793132753,9.717618881290099,-0.1679131417412584,0.0783078466640037,0.07489367448031774,3.237825817312423,15.249513204037946
1559195831.5115588,199.5435372115038,14.854139915090181,-16.8493368698402,9.727688198610961,-0.17447383693329802,0.10757750888051748,0.02085702513290241,3.0962718424826723,15.310560017144356
1559195831.6116574,200.4733899009668,15.095582303849646,-16.92450508565506,9.724465868358354,-0.1646163520989079,0.05640100132541387,0.05833427313585476,3.275099040292106,15.383969042356965
1559195831.7115915,201.43247806840665,15.34206822382103,-16.93703301106075,9.745494188554783,-0.1640869353166656,0.11056871433788767,-0.06612793141692445,3.1305482495205674,15.446123401532681
1559195831.8115072,202.37881734540534,15.594886150930604,-16.980349287243804,9.768881753100072,-0.1543281256161865,0.09305851761769818,-0.13534011601892942,3.1862818746635315,15.49890075470608
1559195831.9116473,203.34721791338674,15.853142597198653,-16.979918687857467,9.806824812272898,-0.16095216153008773,0.14293873943906982,-0.284294885145442,3.161123001179608,15.532811189038178
1559195832.0115294,204.27872963787715,16.10335577778758,-17.06011444156553,9.812449322476407,-0.16793398932729967,0.10062662553007684,-0.22444961807540947,3.5553054118032326,15.563644999611938
1559195832.1115117,205.2387772468464,16.352343493851865,-17.065310737725486,9.804545348840778,-0.17244531695366985,0.1699433129286929,-0.23831890187498014,3.651093448589216,15.592297074414404
1559195832.2116532,206.1597896206551,16.599103764809087,-17.15011118264747,9.778910629285846,-0.168650000198734,0.09484526089486212,-0.1371268829405295,4.002843571015227,15.605720678863873
1559195832.311684,207.11683835764703,16.851519690381974,-17.161500270754807,9.776149557065528,-0.15141808389194944,0.1373798842087246,-0.12950546024009615,3.9308430656438964,15.602980832990973
1559195832.4115572,208.03711391399779,17.098318309732793,-17.255742097775126,9.739604778921164,-0.14898941110076172,0.06616396772923361,-0.10833846358500099,4.06458603676023,15.620006724908054
1559195832.5114603,208.94738732332598,17.34647359010709,-17.3511197661897,9.700911908647528,-0.14779096019515034,0.04577960937543346,-0.04862516540387884,4.065453253338062,15.613479637396432
1559195832.6114602,209.8987141000223,17.598025895371183,-17.37556700405912,9.698523900145352,-0.13949352815410182,0.09330129643915808,-0.08979404871715312,3.68980613004806,15.5840803103303
1559195832.7117622,210.8119170085066,17.849246137932166,-17.466074224268574,9.691515064886433,-0.14318165992319853,0.04776222445489342,-0.08770702523127301,3.609352909780917,15.553079418091164
1559195832.8117764,211.75867966429664,18.09654930647355,-17.480587336583188,9.706635328990993,-0.14229458382151797,0.07237206511018235,-0.05639229359360556,3.33392570083221,15.509002169278446
1559195832.9118323,212.66967112030207,18.341586208271952,-17.562232092285,9.686058232933895,-0.13983946543645373,0.08444869022377544,-0.008728743488427015,3.4319198418903385,15.474303888130535
1559195833.011827,213.63410730618932,18.59380374254843,-17.574742995741452,9.686672709895422,-0.13812024056983915,0.1363884538299992,-0.09600011195644273,3.211909477885743,15.431184616299815
1559195833.1116407,214.56027071200162,18.838248111244393,-17.654991009058527,9.660291660548125,-0.12494633335230791,0.07714162014262332,-0.12403793383978767,3.3032338404854227,15.3915255149764
1559195833.2117348,215.50487287469312,19.08491238955986,-17.665214648522078,9.643392603992396,-0.1276362058436431,0.12355076944839516,-0.22475066325562024,3.057295830995559,15.364013871021404
1559195833.311712,216.429777924738,19.326388907167633,-17.748328412282277,9.611700342686584,-0.13198351601403,0.0664978524157207,-0.263955462591575,3.1661594715398236,15.334425757040423
1559195833.4117436,217.3800046452839,19.576597430857163,-17.756090520409295,9.60703531160612,-0.12640116195545992,0.12782641542479106,-0.3693205347105409,2.950663661110272,15.301900949099545
1559195833.511689,218.2946008630209,19.820015779714225,-17.83781857123828,9.578048088519116,-0.1240233904363862,0.07212002489847064,-0.43255154004436985,3.093207549006866,15.262208812158933
1559195833.611787,219.2361759956555,20.066138262454647,-17.839775528816524,9.566598209409454,-0.1459308356246578,0.13014691534440148,-0.4888842455476762,2.937260007586458,15.220960684250944
1559195833.7117438,220.1665569419028,20.31055395431071,-17.88508245589196,9.533666065325898,-0.14466091865625377,0.08909828840567047,-0.4195040020326488,2.9225595860325218,15.179336789668259
1559195833.8116965,221.10922215716406,20.552824439134756,-17.880058198331184,9.506392726632464,-0.13973933455319001,0.11721613796168229,-0.44162152593067316,2.6750497772452473,15.137178456309602
1559195833.911657,222.02596449269365,20.798407909215864,-17.95988445510764,9.485549563561076,-0.12774700882446952,0.04595735402316198,-0.3905670424472954,2.7387175376305333,15.100797187377928
1559195834.0116625,222.92366888844197,21.03841186589266,-18.036740317057053,9.458577841133195,-0.11782412535545585,0.04582362016502867,-0.31934897031983855,2.8633796455455527,15.059950746393863
1559195834.1116633,223.8466074500271,21.276633856824933,-18.036111218945454,9.433276036070405,-0.09867017332809155,0.11153024788641835,-0.326485614040931,2.710842310483008,15.00966839796809
1559195834.2116244,224.7251190459629,21.50994923157603,-18.10814309641065,9.381529317870145,-0.08686166375356794,0.07604060955522918,-0.3044361463640808,2.9099880470255592,14.929689813413722
1559195834.311528,225.63783388313843,21.738354507423253,-18.1049923253856,9.338367761727671,-0.07229202626079247,0.11656933469407138,-0.29350651066941175,2.7534790898590074,14.855744045210082
1559195834.4116724,226.513991975843,21.968520218168415,-18.177114948775664,9.290823330696542,-0.08316709280498755,0.06117801503235637,-0.37699579680244033,2.893121321112197,14.780546780975685
1559195834.5119653,227.43704725831685,22.20180065292362,-18.179803967391628,9.272526300138466,-0.12217047775781857,0.10351708091364809,-0.3339383207333389,2.7138832322843442,14.68544359393595
1559195834.611845,228.3049414875067,22.421115217648683,-18.253725940101432,9.214214390088141,-0.11920043587095375,0.06133453440836689,-0.16551607946671618,2.8183363932065206,14.59214729333635
