timestamp,x,y,z,vx,vy,vz,roll,pitch,yaw
1560500326.9934127,0.010122690705495237,0.1513875108764242,-0.0002766271646802283,0.0029719409450569925,0.39273240667552783,-0.008615569758343185,-3.0522614395861902,-6.852213621889221,2.297682296994848
1560500327.0594544,0.016557607518788514,0.1783654720008191,-0.010546339851396292,0.005429883740010546,0.4287499736133179,-0.03924346830450594,-6.65478942346072,-6.306678716913343,2.688672942531833
1560500327.1249166,0.03288855351730761,0.20551077520564284,-0.03616583359619752,0.0423332852274079,0.45311429484215837,-0.044090444718953396,-13.54691141259053,-3.831071242832064,3.1093598277027508
1560500327.1911345,0.04942758879339875,0.23713199249182737,-0.044058035521832135,0.07258513195819152,0.4949413114543916,0.0032986025145693293,-15.467412505522885,-8.400420833391749,3.6131771558394674
1560500327.8467202,0.00026452023791413704,0.5577815206225862,-0.08849886462641116,-0.09899075431202978,0.6787402334743917,0.0587567804963568,-7.319024056273945,5.936928544970842,8.58159330214588
1560500328.4398844,-0.0023987810022160225,0.8701927341322062,-0.053991964691295545,0.09582054024125,0.5857306419277589,-0.07196602135960242,-2.8182884562748676,-3.915024153118937,13.230017002432348
1560500329.0993319,-0.024344256934144208,1.2213571851190006,0.01681701084483153,0.04718250922928037,0.5915537637982796,0.14947789378192092,4.887124248399385,-2.656671027346727,18.59353769976634
1560500329.7554386,-0.05011679161817911,1.4967948689896187,0.11576792968756967,0.08208650526088182,0.4289505484404195,0.16493305302286604,19.031937243562407,-4.130601696827151,22.57800190642487
1560500330.4023728,0.13544936382459094,1.6534721666369727,-0.013127889438186179,0.6262228709782693,0.06887603900379997,-0.11865546993702242,2.4852467719828573,0.852159503817276,23.805999956784156
1560500330.4678633,0.5922425847169104,1.8216211205355728,-0.0790767464282705,1.661116566224206,-0.06950865621062634,-0.1456188875403035,2.991632520689857,5.157712498383069,23.77485995020617
1560500330.5342314,0.9026913123486525,1.9477683088603117,-0.13499725526370435,2.2690275005673426,-0.07423674212350573,-0.012664172860019002,4.537118416311617,6.5556107429452055,23.72672241027589
1560500330.6006885,0.909520764250588,1.940466148795271,-0.09351122638936057,2.1330692894868726,-0.0350174800342271,0.21169454902227758,5.612014967747368,3.676729751870412,23.638810570403678
1560500330.6670048,1.0380755392888679,2.0204001601551216,-0.14596456881680317,2.240021647340414,0.01679173516979317,0.03891545803780447,5.236516187888939,5.282757364923936,23.55271788558443
1560500330.7335172,1.2630813162041599,2.118156639576167,-0.11659559518697879,2.5225292591465207,-0.03636599526908949,0.2078747914615371,4.502616966964723,2.73386577701708,23.409357563960782
1560500330.7996633,1.4170442004610375,2.180965791078913,-0.1629306451593441,2.656418022748216,-0.10654375845232672,-0.025491995247567817,4.520837877434944,4.43980690591901,23.336690068143472
1560500330.865392,1.5935985660878151,2.250318842062561,-0.18640086637432887,2.8214773150915584,-0.12586765695645094,0.0005616708594900488,4.538187794443336,4.820283038878314,23.211310526637295
1560500330.9318485,1.8186952954752014,2.340219515000723,-0.19656262762367793,3.036343818643557,-0.09908327586320219,-0.01186041377011851,5.273107884510834,4.4157827813561985,23.026888212422595
1560500330.9975915,2.051627733413339,2.436600447790773,-0.20012364170443142,3.2473594034346016,-0.09726045755800045,0.009238398087609262,6.578310218577391,3.744793335905236,22.721114031431963
1560500331.0634627,2.305444203909353,2.5307570502931283,-0.23826249023965032,3.478383227616383,-0.1388599067276276,-0.042158932352520995,6.326742223654179,3.9657137537144815,22.36103660493395
1560500331.1289663,2.562340121926764,2.616431825639256,-0.26645186617839894,3.691113161096118,-0.22802362249350402,-0.04015754042947456,7.464382324467714,4.17601317471249,22.0402136154063
1560500331.1946058,2.6095252624392815,2.627442996756624,-0.21942201495809902,3.453315577441426,-0.1810016475886046,0.10526264639311622,1.9475347195135775,2.928860650233748,21.778737427542016
1560500331.2600324,2.6716505402778497,2.656393766367354,-0.21959236556305461,3.281470453559264,-0.14670754367169406,0.037964110167117204,0.5475075602160749,3.4442445241181545,21.429465906154476
1560500331.3262532,2.8964266945929147,2.721805813041021,-0.22744696552366744,3.4294116971313318,-0.16056529466394318,0.053015061601724395,1.656648545223109,3.295206735022915,20.96185741483392
1560500331.391253,3.0414072698405508,2.7725671865543813,-0.24132136400029675,3.4332494099651316,-0.13622814259873234,0.012334209297507753,1.1585500498406358,3.725115085236282,20.461692413924876
1560500331.4558313,3.280218555383581,2.8534438841111003,-0.24574998657563182,3.607756322243837,-0.16715643247942025,0.04979860274909512,0.8855046501313707,3.50609741920568,19.91511094606846
1560500331.520875,3.5542959098284292,2.940355286319914,-0.24624331760134782,3.8266133011372783,-0.2005623460025433,0.043993643255257786,0.21156721432787987,3.1242504966696343,19.377392741010684
1560500331.583191,3.7703266893901244,3.000337334635301,-0.2661554340851178,3.9212866637425514,-0.240179094400275,-0.013382521915372703,0.7991008159744305,3.2063613223085037,18.832859667448215
1560500331.6475158,4.025327084001875,3.067830316820404,-0.2742553294278149,4.055560334824345,-0.2501236631929531,0.017833882093458264,1.1018581719516414,2.993602791334038,18.30604818133418
1560500331.711075,4.2806467058472615,3.1341862975075463,-0.28204753240022024,4.174620303825857,-0.23444603143662243,0.03148368475974067,1.3514199339630237,2.849063170346322,17.72481645097468
1560500331.7759893,4.526151079699908,3.189393056904658,-0.294865337201821,4.252182059792155,-0.2425352835669999,0.03633095332623407,1.980195788418669,2.8793751778270824,17.085040403569792
1560500331.841574,4.756853686094887,3.235555462066925,-0.32155096944395434,4.298557842893074,-0.26703204913167394,0.028364471440717465,2.8575513903555985,3.218854937021582,16.381677364733957
1560500331.9068964,4.999371632199484,3.2769219193371066,-0.3381642430101217,4.349726287677025,-0.30515595146514024,0.04473405627573787,2.773981812596845,3.3145467519335385,15.728839180665627
1560500331.9725192,5.214852405996199,3.3004518359770825,-0.3639838861774216,4.340760857309676,-0.34940041226032587,0.02869593818820021,3.0528400810706686,3.572940921277851,15.079825688595344
1560500332.0372884,5.253362449889661,3.2280205863042855,-0.41142414316094567,3.9962212463641213,-0.39045363216960016,0.037878586985839846,3.5388030753212,4.6276541821425745,14.392563911515179
1560500332.102914,5.5115899746693495,3.262090273257636,-0.4374051437823605,4.098582274810011,-0.39285422678313225,0.027773860405519157,4.716670015472529,4.809254950796497,13.648447734372358
1560500332.168952,5.74737800910861,3.2807000453625665,-0.46990056171319255,4.144080174931111,-0.4150616657141343,0.024456249451920653,5.649383769082355,5.118359939318265,12.86943260211579
1560500332.2352867,5.980184158103577,3.2911097355025007,-0.5043194229051767,4.176087706939425,-0.5183535342706473,0.0010031151235198599,6.354484165681943,5.426565878587215,12.082761612525646
1560500332.301356,6.2723007408409615,3.32180090532154,-0.5308917784845536,4.330328148373225,-0.5334653880445306,0.03353723838754119,7.09411695593336,5.420527840905283,11.30782234503535
1560500332.366946,6.550313755404827,3.339813590158796,-0.5578654827809997,4.439127923639539,-0.5446616948043733,0.047145130912837285,8.104733390651964,5.5315652634782175,10.533939479304184
1560500332.4328966,6.840412690374491,3.3573527386716644,-0.582611546021417,4.552357310498873,-0.49056335299058634,0.04230463070110496,7.395060304219844,5.4770859243428065,9.723207837379007
1560500332.4985728,7.134872106041765,3.3685684544958496,-0.6139723126781034,4.664975392460064,-0.5024211380103087,0.06626812116373798,8.137015585811964,5.654942375841903,8.90311454621271
1560500332.5639143,7.447077508237362,3.383270043781913,-0.6424361571885431,4.783114353388643,-0.5560233468829013,0.07976941189825759,7.705854939974854,5.670730125058906,8.083294832480808
1560500332.629385,7.7666893216548205,3.3936075821100045,-0.6705431281300588,4.9274000721861695,-0.4954748962271956,0.024042543706628727,7.640574499551109,5.659425685778677,7.2376956286469945
1560500332.6955884,8.093877691397251,3.3979045086079918,-0.7101741927882685,5.051010982665021,-0.5968252784349123,0.022434379040991992,7.891889432004703,5.830588514451417,6.411485615872089
1560500332.7610085,8.429997167139561,3.3978739538888827,-0.7381737499964862,5.173583334369724,-0.58482027203151,0.07047583200380236,7.647663508960722,5.784400410320551,5.573926940229615
1560500332.8266714,8.816531501441105,3.412327184936655,-0.7764808104424599,5.3731584800333545,-0.5783886174986436,0.06286739086926552,7.804342923519053,5.89797079229699,4.751879395899253
1560500332.8926592,9.13385773356775,3.388254246428512,-0.804063407520292,5.44057072424322,-0.6163170122432471,0.08533264600249557,7.537271922660068,5.838200353675111,3.970041818993432
1560500332.9593673,9.455455497991668,3.3531027226195143,-0.8204012761061488,5.493413406013755,-0.5813813824740064,0.07110141022144989,7.035606735327241,5.598492330918132,3.218036568085852
1560500333.0261316,9.849244979246231,3.3424759443192564,-0.8665970503039507,5.659192833998706,-0.6491569338884442,0.06619533159723001,7.163242481241052,5.776617164204986,2.4748999792739976
1560500333.0919056,10.231895640430807,3.3209401390504096,-0.9064828189670749,5.79390789700418,-0.6451794437686473,0.0762171277160193,7.359817698845153,5.9178226997088075,1.7780426877367639
1560500333.1579077,10.67021867314316,3.3133752649417256,-0.9656495007416769,6.0226978771618445,-0.6310455046861857,0.05311645970449952,7.976735848128209,6.3176176217436595,1.111266305484961
1560500333.2232008,11.138257648389244,3.309234788856815,-1.0258153845546465,6.296027140818313,-0.5874204410856817,0.06556573569157986,8.392753490177965,6.612495594100267,0.4807109414232809
1560500333.2898831,11.586493541773804,3.288226573489747,-1.0812333867570316,6.479920357534885,-0.562219424638063,0.08671603532703431,8.410582144265968,6.759942376869247,-0.13792972804400386
1560500333.3560977,12.013824951969305,3.2516192659215815,-1.1205644518923121,6.597450771108,-0.5550139930705198,0.12588142212012232,7.832786521464039,6.524244627252011,-0.7219882969167268
1560500333.4228997,12.480019823974068,3.2211775066169412,-1.1808838237343124,6.78275986178902,-0.48336251796879065,0.09273292427236302,7.954732855012041,6.729138265428573,-1.2763384777883735
1560500333.4864805,12.964280719322938,3.1977252322815795,-1.241598412402277,7.018938249248874,-0.5118631595189248,0.08927663309977085,8.007085277532365,6.8967182828114915,-1.7724519086585957
1560500333.5531695,13.464195665053104,3.167996384056311,-1.3057156309461615,7.22098687100951,-0.4724092992646414,0.07841152326869483,7.745040724246128,7.015976358716438,-2.251593634430091
1560500333.6175246,13.867877012111503,3.117368937902545,-1.3617213725262682,7.231864891243436,-0.42833099015766574,0.07037453027249696,7.024939140294249,7.102285553111204,-2.6504926556929758
1560500333.683631,14.35307990291755,3.0687055882229504,-1.4248087967153915,7.379034501353181,-0.47704200098011573,0.07304700713152501,7.138583167303432,7.190187744886073,-2.997352176516213
1560500333.7473247,14.84328580201193,3.019248564109816,-1.4909113525698783,7.558163896732114,-0.47310790763723687,0.07499766662085616,7.466357625962362,7.341450754974001,-3.302270493310787
1560500333.8133574,15.416848749976685,2.9739000017783486,-1.5635410076448524,7.8583545707114855,-0.39406599349219784,0.08994821806262432,7.929088451804124,7.407452405259848,-3.6283974410739184
1560500333.8813586,15.97053726463021,2.9223678193042124,-1.6466857095553185,8.05021280352621,-0.40661084487435084,0.04858659101265195,8.09267025619407,7.625489743553037,-3.9563964312625153
1560500333.9462936,16.48895685322895,2.868546907256507,-1.7362931730114675,8.197403780585267,-0.38640573349547097,0.010580117789902976,8.448812635968762,7.989451791449906,-4.228450244928849
1560500334.0135398,17.11848059103852,2.8184851070291566,-1.832197091113811,8.517176630765576,-0.34906224488872156,0.03577832711156681,9.110539633356069,8.125265659052564,-4.500997211241247
1560500334.078884,17.685831599954472,2.76723772467875,-1.9254515421105878,8.688068433485874,-0.27294128455512245,0.0787396381490888,9.050305450074855,8.29523637435742,-4.748220411301006
1560500334.1482224,18.276397652252776,2.714223760897119,-2.0302300328762986,8.822908860362885,-0.27053207337288065,0.05376611802184006,8.86567080003362,8.568934406651238,-4.977253649171375
1560500334.2169313,18.833554592559103,2.6585203374153092,-2.134280025827688,8.877992868552795,-0.19817119866165162,0.10229843862706978,8.434795280325757,8.834846790513469,-5.162242205768566
1560500334.2903256,19.47271399682053,2.600654807949637,-2.251008493523007,9.020021025169239,-0.18562298005668912,0.0588413371577301,8.288148536598033,9.120118779479538,-5.340170916520983
1560500334.3591065,20.1315797174887,2.542506784693617,-2.3584420328863143,9.25311448938932,-0.12735562231594277,0.08922437576307418,8.501313990413074,9.272899472054961,-5.500924893429406
1560500334.4273312,20.66838088417439,2.483423190102956,-2.468109442900685,9.225554314309699,-0.09514080952240841,0.06849563847880646,8.05321057537206,9.660368536241423,-5.6771697203714835
1560500334.495012,21.28897953410042,2.420189499932464,-2.573568391960144,9.372531093252295,-0.066671337054063,0.12309321932021655,8.129898742774069,9.821711103430685,-5.874871001554081
1560500334.5629275,21.925344446486022,2.3566888339662952,-2.6870593587104956,9.534777349984285,-0.003273382317761059,0.16173219491183555,8.320534030583419,10.064692314054888,-6.0877018655395885
1560500334.6296813,22.63165310462167,2.291858348762133,-2.8005050569501173,9.835906979290291,0.03936283863460252,0.16991466843264447,8.787036092983136,10.15318431278596,-6.296901188993787
1560500334.6955912,23.25082204988919,2.232090720897676,-2.919040779964821,9.949810656347871,0.03464798849158046,0.12160387172710596,8.758359547041016,10.393145150322637,-6.510887813777099
1560500334.7615917,23.863518615648154,2.171921653733791,-3.0394325967132922,10.02956500713285,0.11909543445404117,0.14496401548628168,8.609402523314394,10.579034940649573,-6.728432390977032
1560500334.8274896,24.48551052768683,2.1121316677396256,-3.164316399957884,10.120029345245825,0.1629367842496524,0.12310984754750609,8.478969485633103,10.77516856610906,-6.95496865191014
1560500334.8942895,25.083110064203904,2.0502439611072147,-3.2921914583263194,10.138897055580157,0.15415580549476077,0.06310236402913372,8.307453858706722,11.033423185454755,-7.159558160395415
1560500334.960959,25.701641868825646,1.984508160459535,-3.4181094673619086,10.189967293523065,0.19184680769466061,0.07505908661584826,8.183882146019515,11.134617078125473,-7.33585664759057
1560500335.0280933,26.424425620359862,1.911333111945448,-3.548586269591287,10.430509538656972,0.23035566696450682,0.1235880041005959,8.432646596778715,11.080533065086128,-7.517597499617746
1560500335.0937924,27.070811371610276,1.843510151984571,-3.6741646641724874,10.511874555099798,0.2521023988196822,0.12250768822753244,8.36007377429885,11.147276632042702,-7.6743952315084
1560500335.1604884,27.770068816904953,1.774348050148303,-3.809313430702661,10.674515390092292,0.2826737265638124,0.13198005651182432,8.384951152548384,11.210175248499286,-7.828521466744342
1560500335.2283518,28.361037729247244,1.712934481156032,-3.9398645649638344,10.602470659477687,0.3453251382039616,0.10224146490539998,7.8019495118709115,11.32710980286161,-7.962069450390897
1560500335.2944324,28.963895977018034,1.6468273587135198,-4.061572870508623,10.58239977501861,0.35118899117808483,0.07384187946203102,7.382557089646368,11.297704269746077,-8.06977035907412
1560500335.3592558,29.5946573020419,1.5777495856370458,-4.1835727666935645,10.616802829952972,0.37060555959612146,0.10393696195902291,7.280068222780715,11.338781140860242,-8.15309283057545
1560500335.4251168,30.310382673075,1.5036851805375258,-4.317198115829961,10.784430296404517,0.3781394750622099,0.14360205401919113,7.438915181218689,11.45907630256647,-8.200984111165294
1560500335.4885979,30.979353343213905,1.430652185603193,-4.4391343211912755,10.886123970399755,0.41208706349452096,0.16997079377173008,7.364831307119694,11.523368100289062,-8.251590012803097
1560500335.5533228,31.665726401534844,1.3563050598542867,-4.565010705089815,10.991378135878527,0.4434571150010874,0.14174379848882324,7.25586416653354,11.498654265147186,-8.32085508351112
1560500335.6183088,32.354999696810594,1.284945138985006,-4.698074577138178,11.085238030085982,0.4621771712348508,0.09485521335507263,7.161655828841843,11.49649692165804,-8.401392500546887
1560500335.6813183,33.03552996932361,1.2132485302510108,-4.828411976207208,11.187980375015881,0.485043192801735,0.06001001379631665,7.107607958613183,11.4115971031673,-8.475902954575105
1560500335.7463534,33.76652994930867,1.1361013597908578,-4.964592710239102,11.329573389724466,0.4942976397516172,0.08656322113527404,7.252787631574225,11.339131444316907,-8.52087302407436
1560500335.8124356,34.51810463473906,1.0565771680315832,-5.104089309368847,11.477011167812163,0.5145561296584771,0.09066580223848497,7.342154736134745,11.292398949132336,-8.556850051803314
1560500335.8766792,35.27782163935521,0.9761750619472976,-5.241236403542842,11.657708360201578,0.5316663124035936,0.12998919800450404,7.488836513722015,11.261107819885313,-8.57692209159312
1560500335.9428284,36.048785193920686,0.8930947740662918,-5.377378559948037,11.782948077064159,0.551021465212451,0.17114308236230036,7.485840335976295,11.260417990206424,-8.574566290799224
1560500336.008303,36.86261247172013,0.807985890964974,-5.519598428891933,12.00190193325227,0.5684443940731213,0.18317571630671425,7.647723181004836,11.286085951784727,-8.584686304731097
1560500336.0746076,37.65409912643628,0.7240822341981029,-5.658755296455066,12.128536203411368,0.5839665083661079,0.1803548350625217,7.611826533598931,11.280628862105097,-8.60277485202241
1560500336.1406507,38.44773824414303,0.6400044656969863,-5.798508478113731,12.254572463482218,0.5969608045860544,0.16709588628593997,7.55905811057407,11.213433565182976,-8.626354877424102
1560500336.2073362,39.21976816439032,0.5559447551034911,-5.931947702750704,12.30583084160594,0.5978565723104092,0.1384888679375016,7.364567285941383,11.06456337725708,-8.640970689018813
1560500336.274565,40.02393295700657,0.4709965363718275,-6.0732425678827715,12.403472032810736,0.6097013484849721,0.1258263500702541,7.349951223965333,10.997819281577032,-8.646573098326071
1560500336.341371,40.86913422035303,0.3838898050387456,-6.222384384088575,12.578689688660006,0.6325335623966535,0.1240058273580047,7.499120604128391,10.958848564103386,-8.654518220263054
1560500336.4076583,41.69920459978651,0.2973482030480725,-6.367702271423713,12.709740782162037,0.6416128676530694,0.12216011795727377,7.568035838353382,10.880451077979988,-8.65603100144736
1560500336.4743326,42.55922978987105,0.20691522624796377,-6.516115265579786,12.86876455027562,0.650328825749938,0.14099500727955272,7.641880824250638,10.808659075568135,-8.647043711078194
1560500336.540843,43.41984190155458,0.11825350646948696,-6.663338712237394,13.008122883804553,0.6696806608880418,0.15018741458393015,7.646945975731887,10.760214675065212,-8.649761179385925
1560500336.6069121,44.27558013203932,0.028668574790149837,-6.805784564384153,13.132145390401188,0.6788318738915239,0.17555945278873208,7.622443174763949,10.72011330268892,-8.638345004681975
1560500336.6742284,45.1617879303758,-0.06571723616375003,-6.9510401444500305,13.271026635071934,0.6713585582805992,0.17215703420864648,7.619096468688699,10.690756274211807,-8.606853161076833
1560500336.740569,46.059976073295154,-0.16166509742108193,-7.097588665557693,13.440329102889454,0.6762350889787732,0.1841867182748662,7.683904305677512,10.66201232909338,-8.583163487847255
1560500336.807294,47.02071237737932,-0.26418450794319304,-7.255015454810845,13.712832312400032,0.6782682846797763,0.18363751629780056,7.906950463818484,10.639706046765296,-8.565684923699157
1560500336.8735127,47.95642098581442,-0.36383816631564236,-7.409210552941883,13.910437235700243,0.6876814886733642,0.18764830977977187,8.029187433129708,10.623218039515324,-8.557691231700204
1560500336.9401393,48.9243132055863,-0.4664469089940567,-7.570201338514768,14.133189261259732,0.6901303877827314,0.17287458196295713,8.188213346984302,10.588165244268213,-8.551854913539842
1560500337.0068338,49.89447561058756,-0.5695496888048599,-7.732290623535659,14.323752877587566,0.6913670366834834,0.16978783386405905,8.29410447742415,10.547701459989145,-8.537392903754277
1560500337.0730767,50.86225930660364,-0.675212243724419,-7.892640042950644,14.500380201355316,0.6885825999509034,0.15143540928783672,8.319429171854802,10.481678745912891,-8.521329990465203
1560500337.139218,51.82558369979382,-0.7791854213255304,-8.05043837077772,14.646423353248741,0.6954292931101305,0.1840542451237206,8.323591992561347,10.435673091751063,-8.507346587654036
1560500337.2062926,52.82943826877268,-0.8898811370409123,-8.212151760945098,14.833159976959434,0.6794504670411334,0.1924395048150691,8.484665377057388,10.40405807403756,-8.49210998059035
1560500337.2718081,53.81841167389784,-1.0001872503071696,-8.371048484719019,15.007229809479306,0.6659431544532237,0.20605803356890373,8.560497449738191,10.366547062496778,-8.46357329595274
1560500337.3380985,54.83893955986848,-1.1118613678196358,-8.537996419225568,15.202950555090705,0.6668128162220028,0.19165478076715736,8.704419188883655,10.355138919705253,-8.443390469857395
1560500337.4047806,55.87997007689766,-1.227149552116127,-8.709010157524126,15.402984875904965,0.6721650828489596,0.1733976740968961,8.804113781086905,10.314677931878327,-8.427039309340612
1560500337.4707625,56.94234532910758,-1.3445288772367696,-8.885632595612563,15.641338635367454,0.6626260841915443,0.13958759771233087,8.994265870614113,10.262000095017559,-8.414280854165565
1560500337.5375218,58.027597812134154,-1.4644921628917436,-9.065071377773137,15.865629293723172,0.656947385013615,0.1674580729523636,9.15535893568437,10.211059256661894,-8.398667840996085
1560500337.603931,59.10288566297132,-1.5834133027526809,-9.240844058938295,16.049243801503504,0.6568858957708996,0.19012224993887106,9.227335999604334,10.181165784768305,-8.398254960655152
1560500337.6705961,60.169097116201,-1.7010708674156256,-9.412369104303162,16.17695752919506,0.6613022279832903,0.2129375089857084,9.209267751796272,10.166347278054916,-8.38730987431172
1560500337.7366667,61.21627742316948,-1.8169596267914971,-9.57789057323846,16.264205157304552,0.6671950477463889,0.24202336784231093,9.155489517378129,10.181229538570278,-8.364612733287728
1560500337.8032668,62.28021392331593,-1.9333808513631094,-9.746406907054638,16.364297521544316,0.6682429768779594,0.22865108510338006,9.109093360599859,10.197041847119317,-8.35158605670776
1560500337.8687606,63.36441428717866,-2.0525947219989247,-9.920777923391702,16.52324841593535,0.6689747093319325,0.2188574578937299,9.197836097375324,10.223093474391929,-8.333604812442331
1560500337.9349785,64.46707817358707,-2.173603166594246,-10.097698050211939,16.665249307318355,0.6670186184764431,0.2457970965835652,9.244373831106888,10.223352536822741,-8.323733291263268
1560500338.0011168,65.5766411623416,-2.2955305789904132,-10.274532372589979,16.800142451909558,0.6682052814741404,0.2613124861166938,9.281462218356156,10.22690025473171,-8.304942570585752
1560500338.067012,66.67187455677478,-2.4141484141783556,-10.448403396604585,16.89288080160662,0.6763183791267224,0.25867828895512046,9.205916146622313,10.19029545449785,-8.29355800406117
1560500338.1333213,67.7774152913691,-2.532866167525285,-10.62440840955086,16.98446596809431,0.6846554440494179,0.23587883226303985,9.18831537841039,10.165607166755978,-8.283664782014213
1560500338.1983397,68.88104547069325,-2.6506496179440533,-10.80132827284432,17.09538859032062,0.6834873496415632,0.23255606788349859,9.244491094059574,10.161210789546603,-8.264111961516589
1560500338.264792,70.0112061971844,-2.7727541376657707,-10.980652255280056,17.19447500738558,0.6813916954935972,0.2572260985408028,9.276763122540816,10.133147337748643,-8.234972123513483
1560500338.3330274,71.16668788192995,-2.8975279539504233,-11.163281038687092,17.26451463087253,0.6819323721714103,0.25780605831539427,9.26201014864982,10.139173688073319,-8.190835338998909
1560500338.4008043,72.33349841286126,-3.022387221302372,-11.347105026131382,17.35561643770813,0.6857706397973129,0.26549272487914743,9.254648686746135,10.134966443578493,-8.166570140727025
1560500338.4682493,73.50258606096129,-3.1470453480530454,-11.530743003913724,17.45113993161486,0.6864694297617473,0.26514453058957876,9.272441630693391,10.13297420998489,-8.13885676897459
1560500338.535478,74.6570712485517,-3.2683827107982513,-11.713795544424274,17.519376362654377,0.687815613951152,0.2504394129171663,9.260931002006906,10.115923435776395,-8.112110511319075
1560500338.6028311,75.82988996790878,-3.3906979592588327,-11.90051746677044,17.615206179674004,0.6875836267341835,0.23684084259501725,9.314086607537226,10.075315902695497,-8.089871456668595
1560500338.6702197,76.98556264944042,-3.5120974176359336,-12.08421370260754,17.656155809769125,0.6724835013777167,0.2457539698367346,9.30330340594985,10.035496834740641,-8.058605276421853
1560500338.7368443,78.1703572829449,-3.6375026175506067,-12.270844011135939,17.76963339855441,0.6998415534346335,0.2389827111474263,9.299076647563528,10.025675339039307,-8.009460226028661
1560500338.8019,79.3402389986127,-3.757717919323926,-12.454598495590192,17.886581121543035,0.7032057510710008,0.25671819120038064,9.400532054867705,10.041218807617085,-7.986343950803555
1560500338.868527,80.54803938263862,-3.882976110610042,-12.642638442354288,18.006193203965466,0.7000876468526143,0.28478648170043597,9.513989502222943,10.092386925613715,-7.9499572350392045
1560500338.9340758,81.7140016833459,-4.004238115209331,-12.82143357749117,18.06722828423292,0.6855226262194394,0.33606193565524567,9.580142613195248,10.130046777949712,-7.90609095191452
1560500339.0008512,82.92729965218142,-4.131030454950566,-13.008582554109617,18.17374372811143,0.6962390127701329,0.324902432503404,9.65753773482497,10.177257794102738,-7.852741378606119
1560500339.0670536,84.15060698371263,-4.256196663074608,-13.199108524241378,18.305247055870122,0.7183685842431575,0.3107002179697025,9.65383991990906,10.179155211782625,-7.831324958818375
1560500339.1336384,85.38397863859707,-4.380776265341025,-13.393355809791323,18.423878616839236,0.7107831954793652,0.2723714670402697,9.744713834638288,10.108309520120985,-7.818139896481124
1560500339.1997197,86.6447058824184,-4.508702535115623,-13.590557938081819,18.58596620008346,0.7115081748920169,0.2892547867781152,9.871360794011265,10.06418348669348,-7.791546293453555
1560500339.2649615,87.89588251478389,-4.6340582536706645,-13.78507723326361,18.748939679064506,0.7149269271001457,0.2861535425434103,10.011631574146728,10.028382521829993,-7.772290890819139
1560500339.33082,89.16202243368016,-4.760325073606857,-13.981129265665063,18.894875229951737,0.7221348013579763,0.30006017405288965,10.14520360043829,10.019731807973395,-7.750941075749122
1560500339.395933,90.38016799395595,-4.881713029302019,-14.1684474106106,18.965050080654382,0.7333479643920819,0.31261930491118095,10.179891489293386,10.01706963937817,-7.736484546260879
1560500339.4629939,91.58086118045992,-5.001011146317094,-14.352915843937925,18.917402340393064,0.7492291104635407,0.3013125494068527,10.068932719557155,9.995501266921906,-7.717236871622128
1560500339.5290558,92.78984711683927,-5.120359051084998,-14.539121438408058,18.92970509990166,0.739343520894804,0.30073505742892204,10.032411048472309,9.972359707860198,-7.7120093767041915
1560500339.5929065,93.94233692670235,-5.233711736845761,-14.716912715430064,18.90858670179218,0.7359780687029511,0.28997579649862715,9.956913430439252,9.945707364916188,-7.715123373232395
1560500339.6557949,95.0099832183179,-5.34025437551865,-14.880509612207,18.747768655769203,0.7218191996648085,0.2908876892589549,9.744517349557375,9.898986077057755,-7.694030613305183
1560500339.7212577,96.2010691195675,-5.45864734154859,-15.06200746701093,18.762993125801227,0.7267440574191839,0.27860335874630193,9.687464618853232,9.87123517791587,-7.675608786789982
1560500339.785655,97.3882481762356,-5.576317257025167,-15.243287795924351,18.809444943011567,0.7385487158787662,0.2650595917608243,9.632777092778383,9.836924419097897,-7.661091348873289
1560500339.8522093,98.65560090412549,-5.700242730020388,-15.438561094029442,18.93283467159705,0.7289949391990258,0.2504447258588658,9.685702490071298,9.806878707478951,-7.643020029669112
1560500339.9197657,99.96089590199504,-5.827870728597214,-15.63911811905441,19.07550887853142,0.7363216198957163,0.2590711647533528,9.769514425683257,9.792564673502264,-7.616813291702035
1560500339.9876049,101.25186308488692,-5.954082326929058,-15.83717587117535,19.16040048159183,0.7396151211498164,0.2516094211316653,9.820346639247589,9.740546269751263,-7.592649776935846
1560500340.0550318,102.55398657957323,-6.081547687512226,-16.03647620125864,19.271941573565176,0.7319333217177961,0.23740366309839622,9.900018922374844,9.657128060082217,-7.586695810057722
1560500340.1229603,103.88861394586448,-6.2109074328776925,-16.239221011811388,19.407858668371016,0.7457437680700818,0.2388666670968047,9.961793338912928,9.60051360029381,-7.573999209411207
1560500340.188632,105.1377118171137,-6.334156895834594,-16.426630986347348,19.438980765321755,0.7447627454432895,0.2541086340086687,9.90960565497395,9.57154771183447,-7.541212643969945
1560500340.2527926,106.40501103273061,-6.457236523031715,-16.615006634485482,19.560546951005833,0.7451213902495467,0.26568803322636736,9.922522631459449,9.570941338848893,-7.512023558396127
1560500340.3213139,107.7659693845962,-6.587642788802831,-16.81752717789906,19.694197656194508,0.7507146385967036,0.2582497772900627,9.953622424774679,9.607966595329856,-7.483657983988279
1560500340.3880594,109.04666051167237,-6.708968222575794,-17.008417741141947,19.718445216733233,0.7477321162208963,0.2828363321107221,9.94125238822723,9.609983847462164,-7.4643452647340345
1560500340.45345,110.28699180878324,-6.827376271349501,-17.192503457210126,19.73529217021965,0.7466525694041903,0.2629054030019877,9.862556892540958,9.60906425447231,-7.437396919175679
1560500340.5179384,111.51991357482972,-6.9450838501065775,-17.378080430169714,19.770112745639146,0.7539112624219269,0.24481857013642028,9.808805107931235,9.57600857849763,-7.412387680423482
1560500340.5845466,112.839801033136,-7.069246204592871,-17.576283349290456,19.8814849017645,0.7564757524895307,0.2436738553862261,9.86695687471306,9.54594095116203,-7.403204920725103
1560500340.6513588,114.1557057572901,-7.192960745285874,-17.77388331722716,19.952949610950736,0.7528454158262889,0.24888577698327463,9.847763978817845,9.52540228846771,-7.391282471205631
1560500340.7198706,115.51750423905385,-7.321465202630122,-17.976753664313634,20.057969393746728,0.7609885957669607,0.2386550566836374,9.865171147685379,9.517731727579058,-7.3645412125822824
1560500340.7890928,116.91067011534724,-7.451932374145243,-18.184040499851367,20.182064918136568,0.7629169440905255,0.24051229654250417,9.923112683997358,9.499777421119768,-7.347938437493114
1560500340.8577976,118.28311950612226,-7.57909083215415,-18.390038878793632,20.262955582229697,0.7685694479518264,0.24140825761853302,9.949985050028046,9.491835007268909,-7.343936481136427
1560500340.9266465,119.67925481064152,-7.709424248855893,-18.59832743048643,20.37000415961451,0.7714086338210387,0.2482287903632363,10.011780618461403,9.491481250138033,-7.3315604129846
1560500340.9943187,121.13217881980047,-7.84474420337005,-18.811623208090758,20.62317925919256,0.7804208872456821,0.2759931057832863,10.188605855834005,9.51697200368787,-7.30930309080961
1560500341.0646465,122.54777449026145,-7.978102707480343,-19.01971520178918,20.67099316503234,0.781721310764057,0.30593348273109466,10.141035690285303,9.543989834223572,-7.285388562567779
1560500341.1314542,123.94417594147207,-8.108185007102612,-19.225092682728267,20.80918083675283,0.7910141974280833,0.30260986838264436,10.175210610850508,9.546007065419019,-7.273913125405594
1560500341.1975267,125.31994064012211,-8.236021162283386,-19.4276049006883,20.91469846570825,0.7939608890145382,0.2988149020465798,10.202252992908237,9.532481146212596,-7.2800037001237685
1560500341.261255,126.5992949403337,-8.358633167964978,-19.61396902132732,20.91503501448916,0.7879806431550207,0.2956646207949736,10.165503596041185,9.46673509000003,-7.265202078820025
1560500341.325372,127.92748753794358,-8.484953531507536,-19.80758433489061,20.995468728581542,0.7694569985005963,0.25835401311422057,10.174509404829639,9.395775937447404,-7.250039735069392
1560500341.3914602,129.38647989503139,-8.620319170150301,-20.020456238474694,21.242217822910632,0.7836456702081015,0.24244357110200054,10.299172316748997,9.355855208591874,-7.248609173250152
1560500341.4546506,130.70612579482145,-8.74397532625827,-20.21272077351975,21.296858101808297,0.7893486007499961,0.2690268105652174,10.278721575840322,9.326860496190433,-7.237900243234567
1560500341.5212708,132.13543772195305,-8.876837370122903,-20.419431611526164,21.421112560094418,0.7925511965222672,0.2962644423837091,10.300536386101092,9.329900780120647,-7.219334227953094
1560500341.5849326,133.5169441319528,-9.004541180570815,-20.617619577990006,21.56260730787641,0.7959398420642148,0.30822393580770635,10.33087282801119,9.367912754827715,-7.203519985517146
1560500341.6517048,134.98324472996325,-9.138032958643528,-20.829128731106735,21.7279618556253,0.8021572637353327,0.31442544723048815,10.389335368124888,9.424940342973818,-7.1850310768125025
1560500341.7203283,136.4434058640812,-9.27284783127326,-21.039454999549733,21.777544331091352,0.808300823570486,0.35147157084373815,10.351804506724324,9.45803159715132,-7.156702602213585
1560500341.7882104,137.9080154832649,-9.40753186654935,-21.249265085304362,21.86403690300543,0.8035382991804315,0.39306074360816723,10.360104769662785,9.506176299653138,-7.1226117133604685
1560500341.8543408,139.37819724735505,-9.541373299428807,-21.459697806896358,22.028448564708984,0.8082030178792837,0.40011675127074486,10.450113713924823,9.555290191598573,-7.0941373025872885
1560500341.92038,140.80651320794948,-9.672289660798567,-21.666799857245106,22.09684630503078,0.794717365640212,0.37068418565172623,10.441182346098316,9.541902524105327,-7.069643392367324
1560500341.986025,142.26345275584634,-9.804067731882743,-21.877711313828254,22.221517429934853,0.8055313136920406,0.3561571324837409,10.466456995261945,9.492053642860059,-7.0614554667064
1560500342.0533092,143.70108852180329,-9.935341121666971,-22.085419576811702,22.22546394565865,0.807861918544566,0.3473046028125899,10.44272344627246,9.444066123234952,-7.053856318300604
1560500342.1182451,145.1333649840621,-10.064848620613464,-22.293572476999852,22.31887073741878,0.8007470172364886,0.33292186951411873,10.457104025943657,9.40126373672528,-7.0487603396898395
1560500342.184228,146.58846214826858,-10.197257046316203,-22.505618364949388,22.40423917974488,0.8002189856033968,0.28400941238155664,10.430154013723081,9.359592017296531,-7.037503953973174
1560500342.250551,148.06523145758499,-10.328752964125025,-22.72146327001562,22.505265971203197,0.8162764332229221,0.2783880902853699,10.43019504986215,9.294794143220573,-7.043887934592037
1560500342.3167698,149.58750757927814,-10.464165255005922,-22.942272857337183,22.66323750137046,0.8226411617739404,0.30615549680652565,10.495492841746405,9.283038841064334,-7.036579921965354
1560500342.3837485,151.08551049293195,-10.59859651475092,-23.158235079243514,22.736223945730302,0.8267033504118845,0.35128245196578023,10.524483289287163,9.2801294585152,-7.015472150527645
1560500342.4508038,152.58719955365373,-10.733742247001487,-23.373741035614497,22.806791023029053,0.8235733223298941,0.35063728698286845,10.554428498971653,9.299328826253168,-6.986661302033462
1560500342.518605,154.12940017671824,-10.871534954013287,-23.5954878992014,22.908589836244023,0.8235996797199607,0.34285195714902716,10.523060424251968,9.280913083117815,-6.975165120213228
1560500342.5855668,155.63346252367091,-11.005477784134133,-23.81266520892083,22.962362241276224,0.8325293452637846,0.34374436296711774,10.436119647220684,9.2578009124375,-6.970434366498245
1560500342.654578,157.18670517009747,-11.145239919041025,-24.035632793319333,23.027292956902613,0.8270975425989856,0.31849627348619913,10.396845133497845,9.244111517832987,-6.946875750032446
1560500342.7255425,158.8190751376042,-11.29068863240017,-24.272367823567222,23.150390448023803,0.805691304998024,0.29244809355666934,10.37201413868317,9.206801282832563,-6.923405584531348
1560500342.792418,160.33460270501251,-11.428522083696068,-24.49285761650809,23.204208217699698,0.7829173472304499,0.28882264438507255,10.317433365823193,9.17251153534568,-6.890123382581971
1560500342.8560245,161.81671374896598,-11.562971699754511,-24.706527139940206,23.328365305320016,0.7792303324895001,0.3139328311872185,10.333242439233379,9.184189088057659,-6.863346989112377
1560500342.9216151,163.36379551039226,-11.70247231000877,-24.928577427313954,23.493438246936567,0.774287161703726,0.3293670116034182,10.367906028129694,9.222432252900818,-6.8389997349911384
1560500342.9893456,164.96316900103832,-11.846271644997314,-25.1576637073422,23.638991465787356,0.780693416639928,0.33006219446346563,10.367815331653844,9.234914408462965,-6.808696854635336
1560500343.0539198,166.5425509092871,-11.987012479275286,-25.383768202887953,23.867320802185063,0.7765164664257151,0.33457794542461095,10.442914774914822,9.217475844051148,-6.784257287672245
1560500343.1199057,168.12165338084523,-12.128975754505827,-25.60997703730564,24.00303429797763,0.7687004089294065,0.32154627809727465,10.415561342847234,9.188842514800871,-6.772181686990503
1560500343.1872103,169.74228306527476,-12.27374603981915,-25.843889456162287,24.146137934047985,0.7700723083077466,0.3130830068547765,10.387558471653131,9.130014532588232,-6.755484514293538
1560500343.252712,171.3324926130396,-12.41480636122819,-26.072346660148614,24.293638660353352,0.7609726599160804,0.273188399125468,10.404561332618364,9.064382241765445,-6.75731003114301
1560500343.3189554,172.90984383997153,-12.557328248775036,-26.298089903891555,24.368076261826175,0.762065135607413,0.2715272383203602,10.380013611699658,9.017823266127577,-6.744200056675788
1560500343.3849273,174.4837367718969,-12.698656097426014,-26.522561002991548,24.43968229492437,0.7561618437721485,0.2677817299514391,10.363213544306774,8.993343172007817,-6.734097828949079
1560500343.45102,176.06005220706294,-12.843228394251936,-26.745980592953664,24.50438188910939,0.7502472831389718,0.2777812270716753,10.327135317072733,9.014939702491981,-6.712242957320694
1560500343.517932,177.70943921911186,-12.988378096780785,-26.98016637044882,24.659101976733066,0.7591518274320291,0.29669066109798736,10.369873418300678,9.018530245614581,-6.705322109776343
1560500343.585315,179.35809454265186,-13.137822981153722,-27.212192349938775,24.776024232883866,0.7517644493851928,0.3021629023575998,10.402063881219332,9.031909756036566,-6.692644568148325
1560500343.6519394,181.0376168299962,-13.288633866667082,-27.45096441209667,24.968607246049274,0.7425307294544563,0.2984386773370771,10.450085215298174,9.026681920780913,-6.670787577581254
1560500343.718146,182.70486448349502,-13.43822068901613,-27.68788948357229,25.133865699102863,0.756605242652956,0.28951685034041397,10.472216653703354,8.989557008962986,-6.6616726642405535
1560500343.7841887,184.38525946960596,-13.588043317345779,-27.927731375395773,25.308330112306912,0.7548453865671177,0.2814069242078392,10.505686601595007,8.939702551942808,-6.656947525332459
1560500343.8502645,186.0659224200455,-13.73759584672661,-28.166980170375005,25.462648762351453,0.7626323249245526,0.244044477013464,10.49851563472422,8.893187871903779,-6.654345249529616
1560500343.916357,187.6733256457827,-13.885819312481647,-28.396842792379914,25.46592778183166,0.7477587793479024,0.2379022374712374,10.435302499923973,8.835843632781534,-6.632142093983608
1560500343.982587,189.37693854772212,-14.037404202409984,-28.63796836271083,25.63271029572047,0.7392940431482399,0.25842756754886276,10.461599190693663,8.806206532488307,-6.61867204241925
1560500344.049159,191.0594575354494,-14.188896620715102,-28.873963516875182,25.72774125716261,0.7404015889378607,0.2623476602965584,10.429223157776287,8.81812519282858,-6.601164678539746
1560500344.1160033,192.7922018369273,-14.342001437708252,-29.118408661172406,25.89885198068686,0.7416037522872687,0.25331068346465946,10.426705597288054,8.836878423485947,-6.594125777885595
1560500344.1827683,194.49132204845097,-14.494517629582752,-29.359127230716375,25.984482295405837,0.7393374708513711,0.25484126256711814,10.335040269862846,8.822917419495273,-6.58708952837612
1560500344.2494915,196.22517932565543,-14.647286538280007,-29.603898475621623,26.126263892647906,0.7549973555604477,0.25562515109125483,10.293753917660732,8.8409459422689,-6.596214102339149
1560500344.316225,197.9814844311764,-14.800343284362429,-29.852646969181343,26.29604411496762,0.7685754021539177,0.2518247069480464,10.299044012313946,8.854022765067548,-6.611989391364377
1560500344.383006,199.73819041017973,-14.952728569777276,-30.101756654712457,26.441745069319563,0.7867582990125489,0.2412356361304071,10.316692419992052,8.818941931066215,-6.626564136163591
1560500344.4497583,201.48459091162735,-15.106077486023217,-30.348522286246315,26.543481664743535,0.8043454814201236,0.23793387767693952,10.304789228918452,8.758500671024398,-6.629854938172931
1560500344.5165763,203.25945117156436,-15.259592340816317,-30.59867910184957,26.687767189372362,0.8170364103392883,0.21913720739324072,10.326843930346401,8.693231218281491,-6.653541285154089
1560500344.5827212,205.03011880826173,-15.41319666777937,-30.84745632738602,26.834740127628574,0.8293289736041207,0.2040253575239852,10.322729072137765,8.631492334565898,-6.669978456821074
1560500344.6482487,206.77039882219256,-15.5652556837849,-31.09157524899715,26.93615158156045,0.8431018161597568,0.19353522998657624,10.23595733327863,8.60572720061592,-6.686144470970611
1560500344.7146878,208.56987219411474,-15.719781195813242,-31.341800446844925,27.08966893407821,0.8852494818834132,0.19805253451629534,10.219462594718056,8.652952823307094,-6.688640656681385
1560500344.780893,210.3243601468464,-15.871492567726992,-31.587190272815548,27.14982802850734,0.8746941395544351,0.2239537109275238,10.326034364597561,8.750712944908386,-6.689650340317578
1560500344.846465,212.13179350497467,-16.026266346659956,-31.835865642664018,27.336781569108734,0.8754615433457307,0.29680735994363205,10.480321359898822,8.857234642099684,-6.682453023976803
1560500344.9126315,213.94008157000601,-16.18282515999029,-32.085917397229,27.471168550851434,0.8897924919709822,0.3654443306094848,10.559912855416545,8.97191521192295,-6.671290111288121
1560500344.9793117,215.77646128791523,-16.340675842846014,-32.33726927937245,27.62136988240923,0.9148702469147502,0.40433322854701714,10.597161937624847,9.122745568054293,-6.672355568628423
1560500345.0448468,217.5565494460588,-16.4941044551556,-32.58573536932863,27.717574441176275,0.9499258742605361,0.3601609351913635,10.519046385535445,9.204713349706704,-6.695869006091588
1560500345.1110215,219.3475772258166,-16.64771233696158,-32.841367571717285,27.776984788408807,0.9416144665891232,0.34757786424488746,10.595990479157567,9.116683302312714,-6.723243471544416
1560500345.1771326,221.14910014662735,-16.80481764645552,-33.09884957962292,27.836548394579644,0.9086335908022378,0.33685966134175027,10.674378124505099,8.977806969077218,-6.728582297789951
1560500345.2436676,222.92201827106067,-16.96381248464307,-33.35037278635548,27.814147142126043,0.8998358584839884,0.32523543594718785,10.66524444987224,8.872286491839345,-6.737173990154273
1560500345.3087573,224.66716062817906,-17.120254468891414,-33.59860968972238,27.827295870916448,0.8973576103274374,0.23618718974020414,10.637565936406508,8.778144658017897,-6.75892969880137
1560500345.3747776,226.45291544892243,-17.279268828997136,-33.85586353106809,27.863207842551933,0.9043173798806661,0.16927309310099314,10.562525002758363,8.597384932788408,-6.805966025825063
1560500345.4421964,228.35963094459177,-17.445988631439004,-34.12695990227874,28.038470182399966,0.9187001392037613,0.13463685491871225,10.570564613888482,8.500435951451063,-6.846916447048696
1560500345.5093687,230.4051347920611,-17.61598421293169,-34.41072129143102,28.467144200343885,0.9283012446840123,0.17676313945524846,10.716193738004053,8.52430561554036,-6.867012553323841
1560500345.5767865,232.26720332100967,-17.78227441504636,-34.66457955868957,28.485548609382867,0.9401661236976622,0.23481807767858065,10.623597859215202,8.643520575222439,-6.839127976545409
1560500345.6447194,234.1957069877626,-17.95057066130144,-34.92688169511314,28.61267283835601,0.9610118489507111,0.2623973523468792,10.591285335802377,8.825686465431849,-6.8485661375958635
1560500345.7133262,236.02314794891356,-18.115676333992678,-35.179422280402086,28.52038618443511,0.9632964676162311,0.326873390643144,10.46621162103139,8.957887146239539,-6.874886205411701
1560500345.7817943,238.00431227849947,-18.289174118710775,-35.453082349241875,28.71320555031537,0.9830151336192606,0.3569252134311842,10.509662821392325,9.000565621964753,-6.89824955519487
1560500345.849417,239.95696119679693,-18.46029798529874,-35.72611886066997,28.89047644056036,0.9854656249806,0.29074873637856147,10.577679342815205,8.90658104256696,-6.9239541463665555
1560500345.9173474,241.93125950285275,-18.632621366219986,-36.00878880860783,29.05823650403008,0.9920182970490031,0.21736003941863213,10.591907356352975,8.759387975191093,-6.974768475405718
1560500345.9853566,243.84398672445428,-18.803855559142143,-36.28407621423681,29.104044074044527,1.0022220619490503,0.16408205513163665,10.531975965577335,8.615642133136747,-7.005809116670549
1560500346.0550227,245.90020283478046,-18.98344719720518,-36.57474304052703,29.279150966840646,1.007260786772556,0.17411909325545416,10.517094585917775,8.528655740034223,-7.0222565842283595
1560500346.1231215,247.8376150755364,-19.15855199222278,-36.84153876117957,29.321865519597775,1.0205203199272062,0.253682570428615,10.345738146236954,8.601111412789912,-7.001738850878732
1560500346.1903596,249.78459785496517,-19.33267148625676,-37.10486720586907,29.41672637918751,1.0432601815086309,0.2834762942595046,10.364317332058839,8.782574896936001,-6.974821926206954
1560500346.2560115,251.68849017680503,-19.502327696192502,-37.364943346242,29.516855857037037,1.0259933608923095,0.35375320050144765,10.429341032826837,8.933892702042202,-6.950135764989729
1560500346.322116,253.5446907621628,-19.673222900490032,-37.626159065067895,29.525566211530602,1.0093832753448768,0.3609027008718604,10.362793545239814,9.035441407534687,-6.913245451218703
1560500346.3880785,255.53447746524256,-19.84673975516805,-37.9075286841352,29.74477201291487,1.0187536782014117,0.31962015314601633,10.38576065349347,8.983866622030568,-6.925674212120619
1560500346.454679,257.4680039985186,-20.017795137437105,-38.18917118816029,29.81343204843399,1.033003489583734,0.2656438452267631,10.248286961285068,8.801546506383492,-6.964442832896745
1560500346.4547687,257.4775752666448,-19.99162480363901,-38.20528302029969,29.81345525099677,1.0843312678688388,0.1405193619984315,10.430771376788574,8.911424416348535,-6.937631423127364
1560500346.5203402,259.4092569005038,-20.159082030680548,-38.49752444238007,29.912748470932982,1.084168169123524,0.20024565014235307,10.636408972785759,8.769438337043931,-6.967004160931898
1560500346.5872693,261.38727225588906,-20.331529911246808,-38.79344207060108,30.006879113674575,1.0739469809406073,0.15607690947863695,10.805094166350276,8.66449206905288,-6.966406584745473
1560500346.6533601,263.34644198341203,-20.504983314158817,-39.08203649802074,30.094213576019435,1.0632880832791467,0.1538930678365853,10.923590902602502,8.658862263786652,-6.948593396201627
1560500346.7211962,265.3640751333869,-20.68179918502491,-39.37416227222007,30.18616539188615,1.0765111574181763,0.16089996574341558,10.980650374005016,8.71136412338745,-6.930994666097454
1560500346.7881024,267.36047789278643,-20.856401915010007,-39.663340169171455,30.285076055354665,1.079752937864191,0.15676804529970045,11.014611089828271,8.765292162462421,-6.916631184489881
1560500346.8557675,269.38592515437216,-21.031849996893914,-39.95788292081109,30.377803426124625,1.0804218106033607,0.17873027300453082,10.990517384019155,8.786387786139002,-6.918415344744759
1560500346.9233902,271.4164822837647,-21.20584323357938,-40.251642079813365,30.47364886666692,1.099947653086582,0.18863969791790058,10.891013955218302,8.803421161410125,-6.931184795050643
1560500346.9917455,273.4758423578857,-21.38331896869743,-40.55079046281092,30.580378609647298,1.1248863493595058,0.17396509989330422,10.785524285039605,8.85052843281832,-6.9146932166020765
1560500347.0598955,275.1801974039304,-21.596825536728012,-40.67644763170529,30.07856831285281,1.0305537085337355,0.40650668785517885,9.461572611948501,8.461511997916185,-6.921020779439988
1560500347.12771,277.1432586017276,-21.78149810673798,-40.92980617281383,30.097104177387696,0.9893022847339217,0.25297916765085837,9.331340429386064,8.410863979800284,-6.913255212251221
1560500347.1951454,279.14085403274777,-21.949325215371605,-41.2395220846161,30.194876956293733,0.9936918994116788,0.16861969757755135,9.386550256101703,8.577456508737544,-6.904280123719323
1560500347.2619667,281.1331548605234,-22.137420421392076,-41.48407094151477,30.29815013917883,1.0074740826827069,0.2699997550398199,9.297019991388701,8.54862496588953,-6.903223090973459
1560500347.3278463,283.1043124392647,-22.29286653425244,-41.81092256629434,30.40741656069204,1.0326607040565614,0.16123654714619917,9.368847394960163,8.696962715229619,-6.905398483640204
1560500347.393205,285.06765869301665,-22.4445281339327,-42.14494632351103,30.520963716815785,1.0710949248903012,0.14918816358882658,9.420760791081202,8.840463653052785,-6.911967212216453
1560500347.4572124,286.9951397729993,-22.596477235036726,-42.45979363468275,30.62407689623024,1.115198590111091,0.16254827960386464,9.451128279358038,8.919868720841885,-6.919337141980446
1560500347.5225523,288.9675491080919,-22.75624116870497,-42.77103667835993,30.723007447581686,1.1486091049605545,0.16978006236601395,9.492489722688175,8.979286052889385,-6.91435788688634
1560500347.5867753,290.9114878381363,-22.913838113888964,-43.07266585199797,30.815597407821556,1.1688620544702026,0.1803229356768803,9.5314727096727,9.038639238207994,-6.912834194553224
1560500347.6533496,292.93517758375606,-23.080014725395635,-43.377077598964625,30.909961494952945,1.1929534413392044,0.2123469285864763,9.54649337228302,9.06726673687743,-6.91112057500756
1560500347.719916,294.9705092858035,-23.25145571947466,-43.66878219763322,31.01057522650378,1.2088767176020607,0.23239083525187443,9.54787969677216,9.047038752036165,-6.912965241323551
1560500347.7865174,297.0091209496948,-23.415777562922084,-43.97753017579406,31.105946690908517,1.2323841899194632,0.2101266746077899,9.567220297758613,9.072411388687453,-6.913323535594119
1560500347.8532114,299.05766024846395,-23.581832979321618,-44.28484873438004,31.19919158739371,1.2524344929338955,0.20130867517773687,9.575042843965942,9.108845384215536,-6.901915095548868
1560500347.9194114,301.0974573388748,-23.74754303536523,-44.590075078275106,31.291821888926883,1.2592485577032049,0.22387551172049136,9.608241505231458,9.164610032369847,-6.878324456066734
1560500347.984363,303.1054874110712,-23.91147693445759,-44.88795125101476,31.387101940487625,1.257700286103557,0.25448134789960086,9.629668310193384,9.219796079802917,-6.854951231745499
1560500348.0460994,305.01973051369276,-24.066398123767648,-45.17205383407543,31.48028889506434,1.265815463259667,0.27723756420083756,9.627479180069042,9.246131768895761,-6.841561855356225
1560500348.1056232,306.8708293419531,-24.21601865558403,-45.44853040848911,31.573617286020276,1.2764376974502054,0.26307085788396023,9.619277867992414,9.251105592106265,-6.833502592384785
1560500348.1546826,308.3988272737207,-24.33965967374811,-45.679584115379406,31.650970192625174,1.283940996616062,0.22138068935155797,9.629590849094253,9.233677162339527,-6.823313742987151
1560500348.2141242,310.25636561869874,-24.492047683693336,-45.958164861515556,31.740939690519006,1.2750026924926874,0.12618204716330705,9.644445510251524,9.126484278408197,-6.833144364304435
1560500348.2718015,312.06398822678995,-24.637463866565362,-46.22982408483082,31.81701712789057,1.2832064793222067,0.14666438219041744,9.633560702250122,9.018140882892583,-6.85106130807902
1560500348.3196325,313.5661909445608,-24.759293817362234,-46.45368704593172,31.877825567725925,1.2851942446861278,0.1037152367799079,9.648516078221684,8.972447879541724,-6.843297836729106
1560500348.3782644,315.4127604645666,-24.90850925502555,-46.72528019706538,31.953214478919733,1.2956075265657678,0.13312808815102084,9.702864993092794,8.957064167440691,-6.845329763604921
1560500348.4329548,317.13927184548254,-25.04864500115214,-46.976991117192,32.02440477457902,1.302198239389395,0.17291371756532747,9.726794919893491,8.974923820145792,-6.844020031029331
1560500348.48494,318.7837274685633,-25.181328546756856,-47.213411559722786,32.09507845115763,1.314963885923802,0.18642705360594292,9.73232510931349,8.990452230491403,-6.8523155847911585
1560500348.544735,320.68148872182536,-25.334189047340875,-47.493885149364864,32.18959263325761,1.33217292097115,0.1538409959924003,9.680504534675658,9.029228819119968,-6.877244450922883
1560500348.6052845,322.6084287660145,-25.48908865904056,-47.779499533416455,32.28434274301189,1.3493535262504008,0.13919163719598338,9.66965577488427,9.028436483493559,-6.900275145342528
1560500348.6547594,324.18657027768813,-25.614776007532633,-48.01218565129047,32.354097181434305,1.3598096343493231,0.14061257496053337,9.693336639220153,8.999501718195448,-6.918409795056457
1560500348.7182915,326.218404484516,-25.77725997962044,-48.31325446707049,32.44860820659334,1.3599030872793398,0.11812016800683,9.741533177562749,8.940657133020338,-6.9468262537299745
1560500348.78373,328.31748896153533,-25.949629831934914,-48.625492142079054,32.54558317825298,1.373476341681148,0.04068376728734169,9.792771569580449,8.88051525803986,-6.961328504051304
1560500348.8506768,330.47110432940315,-26.125607627937942,-48.94433932692617,32.640589678281174,1.3759912413164914,0.05084591605467459,9.85941439461154,8.792896470346232,-6.982836886410491
1560500348.9171903,332.61697418388087,-26.302865496094288,-49.261324956888295,32.72577042387725,1.3732892578591227,0.033375558889639834,9.880573425101723,8.763648804256727,-6.993373881551086
1560500348.9841127,334.7817542428462,-26.482479351684244,-49.578639006600355,32.81005175386913,1.3689442482075462,0.05743860169733139,9.862610388007754,8.80611279867257,-6.975872566922056
1560500349.0501583,336.92236338928655,-26.659083477151253,-49.88337442991166,32.89038595486534,1.3801362520303304,0.12494929264796184,9.896811731230198,8.897894954631854,-6.937936731542282
1560500349.1169672,339.0960257626275,-26.841261059200594,-50.20448750083101,32.98980540999745,1.3572226969679941,0.1687008424029086,9.889903563079827,9.034415730878132,-6.894282128832788
1560500349.1835623,341.26904868604885,-27.02139393670651,-50.525629048602774,33.101290526999044,1.345727890851753,0.1701919746709386,9.906815343717529,9.09961655852707,-6.850706507730309
1560500349.2516234,343.49621365396644,-27.204464462067314,-50.85887946170113,33.216744838928065,1.3284984954255243,0.10873686657705939,9.909380953552924,8.991472976464218,-6.830965103970353
1560500349.3189363,345.7051641596579,-27.387355296301937,-51.19461738804675,33.31777699198386,1.3139077990770227,0.03162512774509629,9.843896905419424,8.755737685169946,-6.821611383108802
1560500349.3851995,347.88561188103733,-27.56753462615852,-51.52339144617318,33.40237340780617,1.2942298297823847,-0.047948827890905044,9.821661108697752,8.510873075771048,-6.81006991527986
1560500349.4518669,350.08562561222186,-27.749830589480176,-51.85037332351714,33.481048598643945,1.274663670837423,-0.10917403019468974,9.78068523846415,8.364068331632637,-6.7705397153616405
1560500349.5192845,352.31690946959634,-27.934383513998128,-52.1751708319647,33.56101236736721,1.2523312051524709,-0.10054820547168664,9.756393556368833,8.342227412539453,-6.703140968369214
1560500349.586499,354.547308285396,-28.11832305504532,-52.49605219469075,33.648482425640914,1.1766725803498064,-0.05027400221216727,9.739244105907149,8.388619001181056,-6.616431986000588
1560500349.652726,356.7507973155821,-28.298798215356975,-52.812533392068,33.73810025242522,1.2012516556612842,-0.07171863933564726,9.715542202021643,8.44194712529539,-6.528096941052572
1560500349.7192953,358.97042669730143,-28.478665083778232,-53.12653774403215,33.820116240364776,1.1763160935160992,-0.016269601492601815,9.695771323847454,8.480479318553035,-6.4471219110906555
1560500349.7856324,361.18946487344454,-28.655722164540816,-53.44902124306453,33.91528463940683,1.1561337381954258,-0.015914338507273307,9.651508186014908,8.503389361906416,-6.38093046006451
1560500349.852198,363.4218153568164,-28.83039478230626,-53.77057299802318,34.00842967740373,1.1483543669454939,-0.007116814530138349,9.642505921506896,8.489242774780518,-6.323617329179163
1560500349.9184906,365.6509165795534,-29.004530711095544,-54.093199329387446,34.096955098449534,1.1373504770297411,-0.024147271528415004,9.594264931827771,8.446796719313802,-6.271855826333945
1560500349.9852397,367.9012821436461,-29.179423964392267,-54.418642184855564,34.18597003500583,1.1233179494771148,-0.04223485457548115,9.554248125642898,8.389743946190347,-6.211463225945859
1560500350.05187,370.1537404208288,-29.352012407201194,-54.741777685417894,34.26949631638734,1.1112379619561414,-0.029242477853113513,9.48225266811286,8.395285496921842,-6.150693768521683
1560500350.118714,372.4197442581092,-29.523951682429793,-55.06289560580953,34.35464325913441,1.1121027493916753,0.028015891494686862,9.364004729379316,8.49691168154286,-6.092259863059761
1560500350.1863859,374.7191377961918,-29.6971535844773,-55.38635118196041,34.44902921750262,1.1197591581353765,0.0993107941787077,9.267310937497577,8.596319775126805,-6.021452921442505
1560500350.2545762,377.0430398137673,-29.868944546145023,-55.714500262416635,34.54853881058372,1.120883240226278,0.18610960373601504,9.197756732829971,8.695922014702617,-5.976212525235898
1560500350.3235748,379.40156798004034,-30.042092591856402,-56.0516160250051,34.657790179684255,1.133525385941506,0.12360951605865189,9.191840951344584,8.728957904731146,-5.946804525543686
1560500350.4014149,382.0709724336647,-30.23654029129836,-56.437527531863985,34.77939814318661,1.1164993548961806,0.11173328384077763,9.149358967137454,8.70555226607795,-5.919333201674226
1560500350.4819767,384.84545855434254,-30.435565402370372,-56.8461374227574,34.90215567160114,1.1474595303546766,0.11119472628451277,9.067651407661065,8.68595539973095,-5.87591490710897
1560500350.55346,387.3156162438703,-30.610435955907292,-57.203938893454506,35.015989447158944,1.1558670763489154,0.11868925996756996,9.085196820570035,8.685829663903373,-5.833937459195761
