timestamp,x,y,z,vx,vy,vz,roll,pitch,yaw
1544582653.235619,-0.07610341979813173,0.008270745056707333,0.0020724938095791207,-0.24049967295033547,0.010897586699323017,-0.0010370621301967363,2.507382530725201,0.3156943736020193,-0.3255838409414427
1544582653.3355758,-0.13562766232196583,0.014041499121724529,-0.004827592799180735,-0.3390457133631504,-0.003868723461588324,0.009630444664816759,1.9115800924055235,-3.3411044516131487,-0.4388709937050259
1544582653.4355476,-0.1314896051462596,0.008465387135730303,0.0037448344485353745,-0.3163309582780152,-0.0012161289814366927,0.006558729819021356,0.661037193672043,0.5147030242026281,-0.37332258897554965
1544582653.5355966,-0.11115885910608611,0.0161549365307682,0.007991608917036892,-0.24021039879619271,0.00971428860273573,0.024103308095323857,2.9783829769363326,0.4742424915015217,-0.4136626604689163
1544582653.6366844,-0.174418195288031,0.011304102303034977,0.007159973682731531,-0.33003730066124715,0.014324805868618803,-0.015344633202655505,1.038563441978994,1.4296659378862693,-0.42435615492635115
1544582653.7357612,-0.24786764289034646,0.01758875585188561,0.0025031818189057958,-0.4381126300698759,0.011710311662088337,-0.043344486321899064,-2.100762826588182,0.4333892595872,-0.48549227883429896
1544582653.8356953,-0.2582191641712975,0.015701841180660182,0.012706186959690124,-0.39901186105354725,0.015750725050783777,-0.01204866983382426,1.1280575806277116,2.62379941575125,-0.4696285180985049
1544582653.935691,-0.3213319387210902,0.013413233639542815,-0.0047485058098771255,-0.43830505640005446,-0.02073969804089053,0.007871406614201916,2.630611363620546,-1.2595680161841605,-0.4611609858775821
1544582654.0357778,-0.35072463087435435,0.01173452583742722,-0.009049327442469165,-0.4525152254233817,0.007848696736000084,0.007238758556215679,2.504887402537709,-0.411059200901179,-0.4520831074539102
1544582654.1357608,-0.3757162590223523,0.013951181593454532,0.019425610018682832,-0.45509676975513574,0.027568598119622624,0.000862988234615971,-0.07742602534724773,2.6806883669328765,-0.4768837282618094
1544582654.2357063,-0.39363422843287804,0.001163311746193601,0.03343923002285943,-0.4470526906208646,-0.019817719770769016,0.010290076999559198,-0.571114350050151,3.567235215677012,-0.45274844525475466
1544582654.3357112,-0.4854382175429717,0.013006312097265594,0.006905706477100869,-0.5142737347919605,0.011061531439043261,-0.020101071775228373,0.9934407799511534,1.5861701595700566,-0.4638053088292557
1544582654.4357257,-0.47318608049604494,0.0014344064111307961,0.048923895709421836,-0.46907382820383003,-0.016498533180240138,0.03869556820588545,-0.5394073857109596,3.9152116810296134,-0.4536143278752146
1544582654.535738,-0.5399793812840004,0.004103088313581696,0.008528247552745564,-0.510439027173113,0.02217316803949947,-0.02098985418658248,0.16744609659790552,1.8151436300562318,-0.471382163471963
1544582654.6357143,-0.5444208488244552,0.034363433306181315,0.05468032847287493,-0.4478942569380376,0.06058478244516721,0.037858699652581713,-1.4624549785597194,3.4268711700894916,-0.49745729667773764
1544582654.7357004,-0.7702469479674038,0.014732894305555065,0.021651678914125512,-0.645254506878307,0.018454769190715856,0.008416680638376937,-0.4032130068565161,1.7871347174386136,-0.4829624648745004
1544582654.8358204,-0.6080586277969295,0.053823371513153626,0.05886239493884563,-0.444121090041437,0.09779110378107886,0.06285129746444237,-3.56695507601007,1.7801223968387518,-0.5068446998186635
1544582654.9357076,-0.8252508188779529,0.00649687171576228,0.04969271794110838,-0.6439568982655105,-0.014996726321975823,0.032628801641720405,-1.0477652430319782,2.274154641916332,-0.4486927527115765
1544582655.035595,-0.6951229319463736,0.07288398941957942,0.07285907232241819,-0.4779475556057841,0.08988482504080424,0.05196898348546819,-3.633752848087024,1.6840660343930016,-0.501245882184768
1544582655.1357186,-0.9636678702057918,0.009649207874357017,0.03949412108276744,-0.7248210676106973,0.00637391496952298,-0.03319421852391569,-0.39002715836272345,2.207175656843389,-0.46333316095077615
1544582655.235788,-0.8009856268714571,0.09700292155096389,0.07938791431382893,-0.5180189915388381,0.12516467189995176,0.006772267639553683,-3.611921186635971,1.5954941804652358,-0.49911793074821525
1544582655.3357348,-1.1681368704943051,0.024178631387251924,0.09106891624884182,-0.8339535404494121,0.0282201226587642,0.02718325101013536,0.1557481284134434,4.90471876830225,-0.4760126642894326
1544582655.4355114,-0.9671337673071716,0.08982807095602843,0.08442836610079442,-0.6119000522231349,0.08952471867121607,0.009918166440603227,-2.8149861879815474,2.266725263279334,-0.5405509183159038
1544582655.5357096,-0.9628798520569067,0.12381630981513417,0.09548059742570222,-0.5596246878157479,0.12449931988402521,0.07072242696490974,-3.3988170377193043,1.7503847713474836,-0.5734144215608449
1544582655.6357563,-1.2861244971993089,0.039064466613629854,0.07902856629258888,-0.7934983227348457,0.009488630435561834,0.01781924253852733,-1.5723015793249027,2.2190463423443885,-0.5045835123311069
1544582655.73579,-1.1570070556745948,0.11431459562053473,0.11008710681727872,-0.6701017755793568,0.09942567063873914,0.049687754864118486,-2.632759231985376,2.511298783675654,-0.5872602299034861
1544582655.8356662,-1.2720269852860915,0.042807348101455506,0.08226628998016439,-0.724971597130899,0.015871395559320198,0.019378038986170833,1.3031043219645326,4.797648822275515,-0.5187643672453799
1544582655.9357355,-1.2539234195116364,0.11303469840464685,0.1119198987344096,-0.6523621687252902,0.08632027982395835,0.01673567538313634,-1.4364817273115058,3.5493514665515975,-0.580131936985489
1544582656.0357258,-1.2505431090143615,0.04151570434096302,0.08817117833350804,-0.6175959119426787,0.0023026085386580507,0.01608637513377425,0.26117968918790857,3.94632701536071,-0.6006573415936559
1544582656.135624,-1.3038989212612369,0.2067905728661288,0.1414517366252164,-0.6232596585246819,0.1745646969733859,0.05289001626544945,-3.542713405308699,1.8313204619244945,-0.6715438612687125
1544582656.235593,-1.4800458834214216,0.12054432661999015,0.06994898145426576,-0.7387758378658206,0.07988766228565644,0.007368534850327121,-1.272242740308571,1.7749566237250125,-0.6128278213568202
1544582656.3356786,-1.4171196969348334,0.277451553059587,0.18611773465701714,-0.6357177152580736,0.2267580109664295,0.0756863071319335,-5.158323018233578,0.22024435660871147,-0.7122432865215689
1544582656.4353125,-1.6881698398115428,0.08759750369364705,0.12088503645721976,-0.8286553324530525,-0.00011403560642308814,0.041678319683683344,1.4793101598506726,5.483101561947313,-0.7123721863475784
1544582656.535715,-1.7489659528751325,0.10994040532827101,0.1321080490949944,-0.8122345206700754,0.028013467702776556,-0.012497194068539122,0.8694969946362844,5.094342499389969,-0.7163454121436941
1544582656.63568,-1.721625050769023,0.08942292356176795,0.10738657884428292,-0.7589113823726529,-0.014345524895228542,-0.0045370997588534134,-0.009578981235051897,3.413453984806976,-0.7263259466627792
1544582656.7357273,-1.7395474187763273,0.3181843091527599,0.18472619031676507,-0.7183945059875186,0.22590150776790807,0.08043637599745149,-3.922215016524788,1.2505932120354086,-0.7846376810461402
1544582656.8356993,-1.9982348119739517,0.12769115364715583,0.12728770361144975,-0.8526972493574018,0.01310635678900839,0.07839515230487841,-0.39241125156117235,3.266708249028269,-0.7639820226716847
1544582656.9355953,-1.8524712131563523,0.38023972343935936,0.20020301387087486,-0.7164567188583518,0.2668625997299189,0.0886388190115501,-3.3121817215362963,2.3519636294117583,-0.8251061442350198
1544582657.0355458,-1.6465847905241855,0.3494051461019753,0.18983406751609982,-0.5112112675026212,0.23103140650472817,0.0669351774273563,-1.9889937380019507,3.5022610366814,-0.7987713284015076
1544582657.1356158,-1.7862636362001023,0.46622290312572856,0.21566389205842365,-0.5645042609486549,0.3299783642687255,0.07574454140335393,-2.998883505241934,2.9978103562798473,-0.8543347819854832
1544582657.2373056,-1.3595692381375188,0.490178863596473,0.22279421203284155,-0.15509541760475518,0.3716841202510649,0.11871589352218198,-2.835826106966299,3.870455843666545,-0.868991445323044
1544582657.3357885,-0.4172587789908565,0.1555300254611543,0.1016347418627964,0.592194734357383,0.08433814991007438,0.05017283619832078,-1.703669443281762,1.5616135154809079,-0.9042142287353577
1544582657.435715,-0.47763024799836395,0.13919150412049655,0.10230418837577934,0.47782218636856705,0.012014423223717405,0.03526212312989562,-0.9250937112821664,1.2699044037159586,-0.8903675434056502
1544582657.5356808,-0.4398036395683811,0.13308771667464736,0.10649562684602587,0.450421401388685,0.01939005602022489,0.022912818471010666,-2.029256883303287,-0.09023292986263728,-0.8851212929810611
1544582657.6356847,-0.29925239062307696,0.1305111251643079,0.07410426522690405,0.5138312400330761,-0.0346985194329867,-0.07090239349510405,-0.06911903167924373,2.5982583150915017,-0.9237448277147822
1544582657.7355678,-0.18303510212521845,0.12333011985843051,0.05328941704071209,0.5912465156915063,-0.025934111453085565,-0.054852867002661926,0.6444977556362914,3.1131223504865715,-0.9162434867132885
1544582657.8357515,-0.024833145917555255,0.11983430329794276,0.028043276293248473,0.6979056299852806,0.027676995378999595,-0.023357724063352008,1.3499099045724674,3.7695908754602985,-0.9359651287022331
1544582657.9356396,0.10290028006901952,0.12069234764386216,0.06285488743952197,0.7662090276460001,0.05290923035673276,0.07756671831957057,-0.7522200611163956,1.3776952447099124,-0.9778890189491106
1544582658.035675,0.29494670587058325,0.11829489905231647,0.025106576330406416,0.8565711704427784,0.01738712013014709,0.007257121089919693,0.9811854722735086,3.5663537648455903,-1.007834220270437
1544582658.1359465,0.39557960782412915,0.11352655361225666,0.04068890254345595,0.8758105540737502,-0.04603761663722412,0.04537819058695193,0.3962151598963334,2.7775665543993266,-0.9965680343479482
1544582658.235704,0.5634844317892481,0.10468742258964557,0.04639018075583824,0.925927805236323,-0.05116749326160779,-0.0020019253944811924,-0.03711061258848082,2.2411938282044472,-0.9856674013982603
1544582658.3356647,0.6780747256196634,0.1031060361181387,0.019808012822545226,0.9047589885616938,0.009741344267708296,-0.054981725296587944,0.7448968412380299,2.9559026063494094,-1.0597656063697238
1544582658.435798,0.7497055743885812,0.10720143865150852,0.011610304710552563,0.9161657220374825,0.03204300012638569,-0.03527407298198283,0.5472891664188348,2.906714542305143,-1.1080454261359336
1544582658.535781,0.8593305458678255,0.10475275636318371,0.01897287656385721,0.9577469701756508,0.015094129225670017,-0.004718480674062157,-0.41407374888631143,2.2273762232023926,-1.1328273774652737
1544582658.6358778,0.960154249201102,0.10230493439186684,0.019222285746242435,0.9884191805095917,0.01660228549525341,0.01192825018089171,0.1054081635514854,2.2368091679814204,-1.1635557303954958
1544582658.7357347,1.0635098036855513,0.10031404563113745,0.021270825589489742,0.9954332277355491,0.0016089233958142186,0.049724473690104035,-0.10560620526263151,2.312367784681104,-1.1791727208509377
1544582658.835737,1.17782357216671,0.09734424736692134,0.02880028743557904,1.0187275330806411,-0.008829235363686157,0.061316974230522694,-0.17322382494214436,2.2361244863230385,-1.21546173413779
1544582658.938186,1.2851257743153792,0.09535910071986067,0.02941650824490502,0.9988292559796763,0.014731726361170767,0.009751667652756289,-0.23175039475028814,2.1912234470926424,-1.230600829757132
1544582659.0357723,1.3875949496274216,0.0928317563593649,0.03954166890359945,1.0249651306151477,0.02549825787538294,-0.011479860318047048,-1.0190339790690737,1.5424877921432711,-1.2557844026217617
1544582659.1357327,1.4977407817373856,0.09032907502417313,0.033239613282451695,1.032387138441583,0.006590641615215177,-0.03186862156410545,-0.9406142292479619,1.617403130604131,-1.262188612894467
1544582659.2359083,1.636080606340017,0.08346270629701869,0.036301809767399884,1.0742604726056701,0.0008592476331267422,-0.009148312637716875,-1.0653371620758132,1.2801972055790982,-1.279945493960317
1544582659.3359237,1.7527280393924922,0.08092675666128378,0.033149435651981196,1.0952000311697,0.02265098254865853,0.025446828483775358,-0.9515313312414788,1.3876429534847001,-1.2802962940794385
1544582659.435963,1.8428257118870182,0.07986672717371712,0.05044330537691549,1.0967612629323846,0.017812209600179568,0.0363183185087996,-1.412087554985212,0.830161884920419,-1.3167884126515195
1544582659.5358238,1.959088915479971,0.07546556339475329,0.04941688216858441,1.084841154481906,-0.010655155991420468,0.0009138454355802298,-2.0783915089373983,0.7868356063629602,-1.3142519061419478
1544582659.6358306,2.1590667116354703,0.06396637953670824,-0.006577437541603823,1.1700682571831293,-0.010311708374598823,-0.057456902374348154,1.4208625984686534,2.696252070559561,-1.29175045841036
1544582659.735659,2.2925149701885035,0.056868230785006614,-0.028604121753502465,1.1863323389426876,-0.016803787796618057,-0.019658182613959393,2.4073658862656777,3.1681912288882197,-1.2943762070063458
1544582659.8356783,2.4612279177269825,0.0511671208591523,-0.03663047269819468,1.2337210845642401,-0.000835396254975391,-0.00556521299019401,2.3879042950696165,3.0723236318013645,-1.321379673647865
1544582659.9356947,2.592491186138085,0.04936779228133146,-0.04134477685638978,1.2603924318020479,0.016822079040947395,0.024986925067595103,2.133978508009326,3.012439610702212,-1.3240407635003044
1544582660.0357757,2.7520578358736865,0.04541366211489724,-0.04053581457749457,1.3214044879859934,0.00931235402396597,0.04950909177451765,1.7672061812548727,2.9136052038556897,-1.3423435792327465
1544582660.1355948,2.8890346128838473,0.04069058427186843,-0.04440614701066693,1.2875112674292033,-0.005911746602082786,0.006911511113529105,1.5479406438068182,2.8389431887650844,-1.3405975201077296
1544582660.2356532,3.0441327122294948,0.03357452378643548,-0.05059433663601345,1.3257960247889695,-0.017373141342214248,0.008393163664117409,1.3974596709376035,2.7011102799930855,-1.3364648907029724
1544582660.3356743,3.177251300692376,0.029433777302590933,-0.05812540820688087,1.3412314500695057,-0.012779140733463043,-0.017453369642503685,1.3796882651217592,2.688898778810604,-1.3477000421284637
1544582660.435724,3.31321366330879,0.02524726737399484,-0.06788582469868995,1.3456079970317523,0.023981594288409517,-0.02749142892410291,1.3058747056467206,2.658997406750057,-1.3548074157246741
1544582660.5357103,3.445676175610445,0.02330652603390662,-0.07362270641687792,1.3599913937985284,0.02587961079386533,0.02002784929888541,1.221285560923275,2.655077825602607,-1.3695078490981807
1544582660.6356778,3.5914517396733614,0.017714473070907816,-0.08050899920583088,1.330954796200192,0.0006175328544996824,-0.01017356750401309,1.0520902542872583,2.5987593576817103,-1.3685376716622515
1544582660.7357788,3.7261576375363106,0.012213637717304146,-0.08921222515320515,1.3541555594757735,-0.019813165060258084,-0.014887433240184697,1.0216282298823447,2.470816295259818,-1.3659866168713264
1544582660.835814,3.8521457991843304,0.0077831360793697985,-0.09903356880022904,1.360992355921294,-0.02152593221610591,-0.013958766353605254,1.0010644605362944,2.3975501263998753,-1.381458586254451
1544582660.9356647,3.9908650024495635,0.0033341510340884895,-0.1082645411660382,1.3776571166720122,-0.005401220317682922,-0.007210073944603157,1.023045678073026,2.4151750225495694,-1.4053474253959415
1544582661.0356498,4.1596391787553495,-0.0022711447995735212,-0.11580114069580635,1.420982555520887,-0.008475086408591997,0.028429993075633025,0.9050695111943167,2.3366349833677327,-1.4009366848048606
1544582661.1355772,4.300034953748826,-0.006803129864675406,-0.11922046958475657,1.4385982617076603,-0.023390660964460595,0.04227560922819583,0.9086599042163453,2.4372541365891767,-1.4105552890926867
1544582661.2356775,4.470472103948783,-0.015822565450301182,-0.12165917861330791,1.4361647857334565,-0.025785513832433205,0.0028168036830812995,0.9551352962307144,2.3974888831647174,-1.4159558635197964
1544582661.3357217,4.615806185825168,-0.020267028938476914,-0.12767046583303668,1.4521545650203782,0.002280984351948197,-0.0005154735387144643,0.9394257353806569,2.390434722352018,-1.422950526102089
1544582661.435803,4.740309370205569,-0.022985468076152732,-0.1355370306264604,1.4580575917822918,-0.0039314469696233745,-0.006074138130186445,1.0110699014564237,2.528549249714598,-1.4362075661356175
1544582661.5356042,4.887262049906848,-0.026489948737095856,-0.1428089642064515,1.4557982567215093,-0.00663201040524155,-0.009296438502224252,0.9998041604529345,2.556950055025502,-1.4449987543219824
1544582661.6357388,5.040419794777729,-0.030053322847593107,-0.14878378348408772,1.4615917825462856,-0.007806240879908823,-0.0025457647707604614,0.9943971448990052,2.518112107759338,-1.4583472809770317
1544582661.7358994,5.182919097357823,-0.03269142646490363,-0.1550424010580019,1.4495932076209348,-0.004711017099451667,-0.03407858719545241,1.04818105052635,2.48767079160505,-1.4907838930163342
1544582661.8358622,5.362605491329876,-0.0376230612891683,-0.16257286214993305,1.476516316752378,0.03781689423044689,-0.024096703255926277,1.0205727916490843,2.1911933975439,-1.5163960153075495
1544582661.935875,5.515414015330247,-0.04016911820577419,-0.1680520481187105,1.5422101908426282,0.022076721528748074,-0.007402165250810985,0.8902906678396544,2.169082356549984,-1.5299002337865248
1544582662.0358903,5.667323054455373,-0.044105944060927396,-0.17274619169726296,1.537463882024111,-0.006182826423969763,0.015803052751867643,0.9179011255587761,2.2253273807609473,-1.5607426052255298
1544582662.1358967,5.8309022852555525,-0.05136966926007412,-0.17786221047992867,1.5586918778705687,-0.017426697338667793,0.07454676907318057,0.8787095511676417,2.2651407019718395,-1.5599500004779485
1544582662.2358663,6.041670314308236,-0.06267330410626941,-0.17777660095054115,1.5883747459683604,-0.01397061945375319,0.011042753378623711,0.9363333708252788,2.2402653545908082,-1.5953472344987045
1544582662.335787,6.197430710691562,-0.06652641897475946,-0.18595008518735792,1.5633853790392354,0.014276743505973275,-0.03636885647662369,0.8560818004316594,2.14103376941195,-1.616115134734586
1544582662.4399226,6.384430454357988,-0.07269872365078527,-0.19410376293104836,1.633108701060271,-0.005118767422665393,0.0032100910338064906,0.792055948325269,2.011709098230883,-1.6506824338196113
1544582662.5360396,6.542610405565519,-0.07446159339711877,-0.19593511816932613,1.6728290919327575,0.047054527340854954,0.030647187511383883,0.6133473519439269,2.205866421626174,-1.6522658880397694
1544582662.6359193,6.743738296128258,-0.07932987678169096,-0.19673268248521025,1.6922189023962912,-0.011530865624352404,-0.011145325130669972,0.4932585175459909,2.32809846830598,-1.6572022742494978
1544582662.7359393,6.9245265495832635,-0.08664836334990461,-0.20011737481517675,1.6686244828161565,-0.010319089630438047,-0.03166783381712805,0.7340618410253387,2.395440309858639,-1.6789697876047576
1544582662.8358507,7.124799085712301,-0.10074294179470585,-0.20537403026050835,1.6488665195724008,-0.03126889386864547,-0.12513885745670894,1.279704153588458,2.179110723698035,-1.6884870913571983
1544582662.9360175,7.279192770708791,-0.1012625618479548,-0.22610843893867785,1.6504041720525566,0.060486543668636414,-0.22524472176531496,1.5642822213877978,1.8789704325304872,-1.75164452742041
1544582663.035855,7.4646858976924415,-0.10740967220036257,-0.24094056028930214,1.6960749704459692,0.02032805153489766,-0.1781993283724455,2.3696429157361254,1.7085652462742427,-1.8190073007185896
1544582663.135884,7.630149701435528,-0.11308221685847819,-0.25939138432594205,1.7039114577211876,-0.014071278753571009,-0.16575529712284537,3.222836978222132,1.6867731859000674,-1.8391719234917843
1544582663.23595,7.80354442206454,-0.12286681592727954,-0.2669918715448594,1.7054799441710973,-0.03435777056432696,-0.1065806192565809,5.818712488558269,2.0873708656897216,-1.8597830445452612
1544582663.335767,7.937612082012994,-0.12918044695160766,-0.2792623298054732,1.6606827225541998,-0.04583428854272206,-0.11606209243253737,6.496640543949862,2.134147355321132,-1.8687048389479792
1544582663.43584,8.04832670952295,-0.1351988419008604,-0.27923743949131075,1.6046413640778008,-0.039603064876836694,-0.07094972409446143,8.392969040706934,2.2802984778585027,-1.9306774312146233
1544582663.5358484,8.200879964427063,-0.14419012116071306,-0.29179482864812367,1.604114636543078,-0.025160284387778554,-0.07531556428877803,8.371377572377515,2.0639544084166346,-1.9678947048190392
1544582663.6360788,8.351550485486866,-0.15191564139479097,-0.29811941652760465,1.6297494677801825,0.004487014061856084,-0.03334331414223441,9.597213124770324,2.5432534475261646,-2.0238389055626014
1544582663.7357163,8.510446676474062,-0.160236390785791,-0.3022336439836598,1.6449450806931727,-0.003928597184959277,0.05548134012012777,9.426333970779604,2.5508765854108293,-2.0356756585781883
1544582663.8356192,8.663729780366957,-0.167382172456292,-0.3029438873913327,1.6626728415111771,-0.01427732444799064,0.0802345438950225,9.566369990011157,2.883873930968709,-2.0474723715826735
1544582663.9356012,8.8305139593714,-0.17663352993024473,-0.30653445077907493,1.620726173599527,-0.011193231952304431,0.057398770845244466,9.364434906823588,2.8618855807611907,-2.061712173334351
1544582664.0356448,8.96641391631551,-0.18274042099257481,-0.31235854006989927,1.621675068504702,-0.012434142740483265,0.022901258678910644,9.2110289559172,2.90399663163143,-2.1095558791320004
1544582664.1357665,9.128139883479177,-0.18654786220885933,-0.3201302381543327,1.6221248978735843,0.01727162749121609,0.031198227295537798,8.920071918227904,2.8502605977060815,-2.16407708414974
1544582664.2383618,9.306810237157366,-0.19256237826918776,-0.32625356515970205,1.6494427337875865,-0.014722509223011045,0.07507161522310644,8.760340208151227,2.8479736666826327,-2.2318488342440954
1544582664.3357165,9.472375730589885,-0.2036490094877007,-0.3264182199208528,1.6296048944564216,-0.03082628677858114,0.08195143228372213,8.821766755840427,2.8411952669611513,-2.307071285590102
1544582664.4357886,9.650622870792848,-0.21491960440478758,-0.33585583523237256,1.656848506429016,-0.01929468142946841,0.03857909763858847,8.618401681919602,2.7073345563510665,-2.3976449857492734
1544582664.5357459,9.817549098720454,-0.2220879976770516,-0.33816723997273945,1.6800434392289485,-0.020807936898227162,0.07163814554433386,8.581130318636786,2.7068008015325487,-2.4917810460249643
1544582664.635618,9.992160366789847,-0.23237668946132228,-0.350679025341448,1.710559679779092,-0.023276903390784066,0.0954959792546801,8.268664842197426,2.781209831242962,-2.53284031592564
1544582664.7359014,10.158182636641865,-0.24291517074555374,-0.35176471397874387,1.7318640652907198,-0.01960762449383921,0.13564299556079654,8.175011830572357,2.9827432071853623,-2.5811586169249736
1544582664.8358662,10.340733443875516,-0.24707454259296335,-0.3624881616558512,1.699513005331154,-0.027768771928539285,0.05920317026623005,7.863957708747011,3.085659957809309,-2.639055813338078
1544582664.9360437,10.52148724952659,-0.2565384920294599,-0.373053757750856,1.6901164018978427,-0.029951766834582737,-0.00876097900525516,7.804413977306484,2.969278729542705,-2.7289940882692814
1544582665.0359514,10.670725757396985,-0.26411857690611146,-0.3851942873251635,1.6762799599309663,-0.02550329343898463,-0.005400483690768551,7.717603079590667,2.867587807637058,-2.827536797499951
1544582665.135691,10.836420872808148,-0.2730457373842645,-0.39442592662725356,1.7018334702568285,-0.020948244343256033,0.034833979274405825,7.7160221261793875,2.7851853135219504,-2.931704467165481
1544582665.2357693,11.008895979574884,-0.28487674296351095,-0.4004410667326496,1.7267259799839554,-0.03921402511986104,0.0720117411732926,7.594486885200104,2.776518733975013,-2.9945972912826964
1544582665.3358452,11.166341673217275,-0.29390310427428556,-0.4080868293947189,1.738510241342495,-0.04255183226666146,0.0864885282993457,7.587296564452607,2.933350060472628,-3.0613197786486572
1544582665.4356196,11.343436546378094,-0.30613629836543277,-0.41140306074368665,1.7481037571945235,-0.022365528017278497,0.07710580871385811,7.459361941676728,3.0248002530983324,-3.1160682012555534
1544582665.5356417,11.507447345689757,-0.3100695304112846,-0.4280068647796269,1.7509534438578078,-0.03552432313442017,0.05244159394830294,7.3334693628999394,3.092391771709521,-3.2103552754007754
1544582665.6356263,11.674338123783372,-0.32012209925055457,-0.4350555964828496,1.7512254826660614,-0.004832514833850745,0.03575292738303538,7.264453431816966,3.183294868605999,-3.2692566819090767
1544582665.735629,11.860897728530416,-0.3307692675802957,-0.4456178715682821,1.7628182800890113,-0.019221442062287986,0.017946987349748617,7.187165612627244,3.221812092426596,-3.3267468648990643
1544582665.8357658,12.033705765942518,-0.3419910516800584,-0.4531632328559543,1.7675864530840153,0.0023134612934214756,0.026125911760498277,7.173762629331254,3.2474050558272967,-3.3744916085582917
1544582665.9356928,12.227595175784542,-0.35119298322022796,-0.4640177274015616,1.7930221674335938,0.0011850589435201918,0.026276668467017678,6.994315786805267,3.161155810264147,-3.4392667723074957
1544582666.0358925,12.402664031390618,-0.3614184243180261,-0.474062857956711,1.801615830493752,-0.00784741957612313,0.01882469779537896,7.005661229250121,3.0952501743216936,-3.519861697898341
1544582666.1356893,12.589260813589176,-0.37141052752794074,-0.48650997736604246,1.825401906265513,-0.007140648261156374,0.02750235885601339,6.839340305058438,2.9853956777755415,-3.569312926841671
1544582666.2359111,12.766046407209286,-0.38190595660144505,-0.49362496546922974,1.8437276630671704,0.00046034155794010163,0.043692927201981,6.872930519279172,3.0206960268466516,-3.6465639390561497
1544582666.3357983,12.965815383731547,-0.3951197583913505,-0.5019964525296572,1.8587084763479775,-0.015752961084220196,0.05542530598982186,6.77287878219837,3.0266288322190835,-3.681240474606164
1544582666.4357991,13.154951918856929,-0.409421416744336,-0.5061689902404202,1.8702868543086089,-0.008093233041852508,0.05944777221879706,6.810535932129296,3.0530144559758283,-3.735045010627149
1544582666.5358825,13.346214614801617,-0.4221304522273765,-0.5111826663577315,1.8841853668722697,-0.0016386435466606893,0.048222731901715964,6.737695442468393,3.063308920857436,-3.784918225046661
1544582666.6357315,13.537176797438828,-0.43632355500533304,-0.5305727954927304,1.8935838154276188,-0.014232081990667741,0.036133377451793236,6.628410009444254,3.038482568674859,-3.839120436432686
1544582666.7357147,13.719812693850228,-0.44748244245560426,-0.5387403147342473,1.891251718878634,-0.004333894217204081,0.030727079784101802,6.559760139026597,3.0942278325020722,-3.879051353058934
1544582666.8357499,13.909119964844738,-0.4586312243208517,-0.5510934739572007,1.8912942325368653,0.0022401022115804293,0.020295074554985124,6.526699994359681,3.0823926794692835,-3.9498453894256675
1544582666.9357157,14.101214554915062,-0.4735964857045455,-0.5593859038939679,1.8867830577588545,-0.003368229131358834,0.018217148396242763,6.491405512554993,3.0394208888431593,-4.005458755758964
1544582667.035709,14.310480851197033,-0.4850140865487085,-0.5727762381542387,1.9177653919764532,0.006519857147483968,0.013499445338362143,6.476094187424924,2.9942102736564022,-4.084808391790014
1544582667.135769,14.498136176613002,-0.49862964450118413,-0.5819215741555614,1.9298307560779029,0.007175231647266142,0.02154910451840833,6.389076684966641,2.994535218468637,-4.139055279273633
1544582667.2357304,14.710608346798143,-0.5137915138374995,-0.5941706204223123,1.9577680315659476,0.0004781596107127162,0.049028549418490455,6.370603755124817,3.010824426948197,-4.201251511362818
1544582667.3357618,14.903423472666113,-0.52945711982977,-0.6017903891860028,1.9519867083533764,-0.012820879673604044,0.03864659708288137,6.378394444628272,3.054799618419776,-4.256570654679913
1544582667.4357018,15.106556855832602,-0.5455026542131827,-0.6130479400926415,1.960114011753727,-0.007543241813590552,0.023117697932692027,6.401283958370396,3.0379771971036194,-4.3342911444014875
1544582667.5357873,15.299543012001672,-0.5607271890628249,-0.6222966908997654,1.9710062441863643,0.013852293466817578,0.012136252065469769,6.396978697242826,3.048579549786314,-4.399832766146344
1544582667.6357486,15.503100635434503,-0.5775087109219534,-0.6341815095272365,1.9780748969274917,-0.005302061329556644,0.014633258320809042,6.372948858457529,3.0719934497616643,-4.455018127146213
1544582667.7357776,15.69993721190766,-0.5951082601806315,-0.6413317352442232,1.980408167140512,-0.017804611793075728,0.029514729698118955,6.456459143862498,3.095501562375083,-4.503514270152994
1544582667.837492,15.906320969374663,-0.6145261191034654,-0.6523122882385132,1.9857768303298142,-0.033154554383150146,0.015009364073437462,6.517188236260715,3.0652828016424496,-4.5416991782230145
1544582667.9380264,16.10279885938295,-0.6318663358769628,-0.6625084713554562,2.0053571122396336,-0.00258828461623516,0.014511267369083397,6.611779064179574,3.04277870196967,-4.556887126722582
1544582668.0356805,16.290911763890662,-0.6472525826573516,-0.6714198077071165,2.028606865928262,0.014542114321628132,0.03414221184296608,6.574787302002872,3.1241348066924997,-4.5487177106382575
1544582668.1354861,16.495260186226876,-0.6630835405914814,-0.6768542935493094,2.0395546406081277,0.03471491006990696,0.05398981410689216,6.5605343885695815,3.250088805772762,-4.552601754515212
1544582668.235938,16.707182813541205,-0.6814484360385756,-0.6839804386784721,2.0343943573646492,0.02832429939379922,0.037238973123580765,6.47044690329206,3.2867552995376936,-4.541753177510488
1544582668.3359675,16.92247896192712,-0.6996672688843991,-0.6946055727356247,2.028431954246773,0.0030435909270155413,0.00038873314044875207,6.481390836827211,3.1930693928168314,-4.556240978135524
1544582668.436107,17.11726188286112,-0.716912427903631,-0.7090291545867653,2.0339947897705026,0.004739911731414963,-0.006182580694436418,6.461331843918904,3.0255296501906432,-4.559881162236555
1544582668.535791,17.317287613039394,-0.7331708930890946,-0.7209214283903219,2.0522527647234847,0.0005248721262220164,0.006753993671596098,6.531526423622095,2.979225829721973,-4.593795500248479
1544582668.635766,17.52379456699989,-0.7493780763910587,-0.7288049249360137,2.074115608804944,0.01844826189635779,0.06222350212356663,6.542713248490991,3.00756093278832,-4.599115958514936
1544582668.7359607,17.752143189856394,-0.7731161870390194,-0.7347062523813006,2.0814569596002674,0.03149178409288335,0.0555288622738244,6.5197860077161165,2.99906131683413,-4.598912189584207
1544582668.8358636,17.966087361842433,-0.7876954459297794,-0.742674254599769,2.068072741687359,0.02991752385298925,0.026263639796313673,6.442317568718897,2.9773253028443216,-4.613135857821128
1544582668.9357808,18.196644001456015,-0.8127890603846464,-0.756494748275721,2.0893987149857463,-0.012065805788143166,0.002657129854233886,6.4630924712247655,2.818623152322637,-4.599651821410961
1544582669.03585,18.394601176837863,-0.8311094810859907,-0.7676707984582362,2.0902147617034132,0.015546951215752839,0.01036879845253437,6.492126159755523,2.725498220907035,-4.589624302661806
1544582669.1357868,18.616163312936173,-0.8513272716448286,-0.7779598743863283,2.1163030691953577,0.030772762427286653,0.03088273080084794,6.402303355026037,2.618389133673416,-4.565042419690888
1544582669.235866,18.846567846749632,-0.8680655887531125,-0.7864215813808201,2.1452178822405332,0.029890150382555363,0.04121700112442216,6.40765014381739,2.6520246046062224,-4.54861847665941
1544582669.3359237,19.091121576594848,-0.8909385297483812,-0.7932755889355414,2.1728428105287105,0.03194485473370718,0.046846083099163,6.316682426645776,2.6107564128055696,-4.507030918526554
1544582669.4356267,19.32847220504878,-0.9131876150290466,-0.7993554317754246,2.1899937785351518,0.016736649662043006,0.04480828334809125,6.308473003374523,2.6393025905582506,-4.4868369840248725
1544582669.5358222,19.561182083396552,-0.9365785347149818,-0.8083719859282813,2.2093133358723938,0.0021166369932097747,0.02092157056572934,6.335229896630312,2.6087269407557576,-4.448437617189687
1544582669.6367192,19.783833093821283,-0.9551104944771118,-0.8171786106579962,2.225556870672435,0.004601975860668862,0.02122388497785216,6.360660904529397,2.6274571857810654,-4.422411538357146
1544582669.735859,20.004405451612037,-0.981636092335558,-0.829752637745428,2.2465364330853834,0.011565700963932836,0.02110121676024221,6.408295031717603,2.6611400023974903,-4.3843085465147285
1544582669.8359072,20.223586810079997,-1.0026075235679501,-0.8386932599107133,2.258488944838182,0.028164108332151862,0.024089677436161167,6.315674023449569,2.7847395598262987,-4.342637257223255
1544582669.935697,20.46370953699072,-1.0203876331952315,-0.8464953817736485,2.2495980142460126,0.030449712646449918,0.01596257556626031,6.2188064802935195,2.7972847083879753,-4.314962710688386
1544582670.0358934,20.6780748604495,-1.041494869961611,-0.8570523309948197,2.2321170627721707,-0.013994067488106646,-0.0183547693527569,6.231286542172619,2.6963618577409227,-4.302622981264887
1544582670.1359317,20.89871422290456,-1.0578961034836158,-0.8712743961795164,2.2638414022487403,0.005479719473016134,-0.02101327169720374,6.253169255603252,2.5898948800350587,-4.295722129415772
1544582670.235874,21.120046421619932,-1.081569961981267,-0.8793962684287201,2.2910559975724225,0.025985635618358115,0.032121707930762716,6.192230837544261,2.602130576455623,-4.270706104178837
1544582670.3360133,21.3564166171668,-1.0999192518664933,-0.8861670401609265,2.3320747465098073,0.050885543333584415,0.06455270593046743,6.081423728573097,2.7311795212230683,-4.242178463475749
1544582670.4358804,21.597824415843426,-1.1231294697269707,-0.8913601743574524,2.3196472604269305,-0.047990847112784556,0.03070911530725784,5.993043035518992,2.836444919017745,-4.234504496966871
1544582670.5358446,21.825104242046507,-1.1451736185558221,-0.903074249411446,2.3127905320825786,-0.07230081883025914,0.002300397015531891,6.1746486524760575,2.80407279522036,-4.2320809891678195
1544582670.635757,22.05526425882949,-1.1681495563197473,-0.9140444714435116,2.303332123812328,-0.01444665577580312,0.0009567637656861944,6.232592005268367,2.8218763154804223,-4.228527416892306
1544582670.735843,22.28245893473011,-1.1870302192225792,-0.9221670973088578,2.2614520239543814,-0.03177928293160436,0.05540864500695661,6.287494176985282,2.9147265822565958,-4.240755215035847
1544582670.835904,22.549124767577293,-1.2111556763841267,-0.9303198200995729,2.2404222635073694,-0.045048915798288,0.04037589390222686,6.336169183495993,2.931888611813086,-4.213933818351293
1544582670.935928,22.787036472499935,-1.2319286826490288,-0.9417834627340995,2.200986468620883,-0.020860793653499216,0.00290349105961403,6.358877913296869,2.8712604910976256,-4.221247829523385
1544582671.0358882,23.046090202724983,-1.2535709731572622,-0.9538187697265467,2.2026143747532223,-0.013855937481711546,0.01908582998879954,6.354986723632273,2.8111532457649417,-4.218892740148415
1544582671.1357293,23.295284347980665,-1.2748905253438876,-0.964708770040059,2.205911197297825,-0.009901876172841828,0.04670221165464267,6.310410766005766,2.837808014515774,-4.205108533395019
1544582671.235884,23.545249327848662,-1.2973151929934619,-0.9725046956457036,2.168086994851136,-0.009358175792730626,0.050673709858336254,6.3044005162263295,2.886924321588677,-4.200664627588941
1544582671.3357322,23.803712651476523,-1.3202539439647825,-0.9808512151848304,2.1589022734902024,-0.026067266520740914,0.0353098414216477,6.312663928523633,2.847899952383474,-4.212547372715924
1544582671.4369621,24.069046078128427,-1.3427563504774507,-0.9896146343241408,2.1617695853946186,-0.022602979385812898,0.026496242027891553,6.304328164429389,2.7142829024975845,-4.230148483182856
1544582671.535912,24.286723500225712,-1.3625564056221642,-0.9975727269230097,2.1300464335360627,-0.044317771968882466,0.04058551795590523,6.308561658472607,2.664133623102994,-4.250245309657237
1544582671.6359186,24.52269328252554,-1.3845982064287088,-1.003744903385401,2.1097243678751014,-0.03481433515474452,0.05821906673867605,6.328402055055502,2.6252892195110897,-4.266255874511663
1544582671.7359295,24.864626448523076,-1.4143112381470568,-1.0071470440909565,2.1922953736390505,-0.03806794472256723,0.06570488205280083,6.310063204185784,2.447065386001479,-4.294025639231814
1544582671.8359323,25.061562913363623,-1.4331852616380043,-1.0102764187122575,2.1377854737589783,-0.03501456571231854,0.05822967913147412,6.287792335352257,2.4989503395380606,-4.321863803671754
1544582671.9360237,25.35906010331554,-1.4572821577379846,-1.0221100062635549,2.160895727616665,-0.04502803183420688,0.04492572375469495,6.213525709345044,2.39513967173522,-4.360642199871116
1544582672.0359256,25.57557733815405,-1.4787657538762327,-1.0277572815474494,2.10739358821481,-0.06832445693955247,0.043051674584937305,6.28088439411736,2.344043298249448,-4.419795170362934
1544582672.1358385,25.88720610174518,-1.5014350685604052,-1.0409971012971346,2.145964773940967,-0.038961996607550876,0.023751055380624053,6.276272927430705,2.1946154977924097,-4.483738793723889
1544582672.2357972,26.09692859466653,-1.5191289570512903,-1.0470229197402503,2.1092797756711823,-0.03412372184466324,0.0360332745951317,6.245576670939418,2.1754598320551715,-4.564819713060241
1544582672.335849,26.398003664819385,-1.5374713859237286,-1.0621166882543749,2.1297621341627657,-0.03617511286396481,0.043465275043615414,6.180535087873383,2.178132455134091,-4.6446700387677815
1544582672.4359035,26.618030891707555,-1.5624222709546434,-1.0672890801753414,2.079808203421882,-0.05729953276703182,0.0457115850491956,6.220508276636249,2.153321032866303,-4.722791933862763
1544582672.5358052,26.92526546378395,-1.5886987416469773,-1.080330433845691,2.103367376145629,-0.059138000820109685,0.014324311521327085,6.280274479569835,2.0620075247225165,-4.805519823968628
1544582672.6360703,27.149472205086067,-1.6144263827692515,-1.086688835343722,2.0776770475260697,-0.08060835519756882,0.028984926747594765,6.350466842648166,1.963745422142519,-4.898435778944037
1544582672.7357612,27.497611940002955,-1.6441347495549374,-1.1008260126318559,2.1580875116313907,-0.07425781052320923,0.05464011185091029,6.440790576540616,1.9412838145914706,-4.9730456320900664
1544582672.8359013,27.723337296670643,-1.669410257183936,-1.104177028580747,2.132963618691729,-0.03517303065034089,0.055646874668427555,6.391835362129419,2.044958281636731,-5.037081622953471
1544582672.9359128,28.045192239565434,-1.6917148363266477,-1.1142805820342032,2.168736240352615,-0.05365776465753819,0.05822496462628485,6.374962579217521,2.1325122578919378,-5.09769813608872
1544582673.035913,28.276679712828518,-1.718780122403193,-1.1179772501630438,2.1355617635043256,-0.06295610457655297,0.04763267131563202,6.38418722646594,2.2171070550828107,-5.1457576101493325
1544582673.1367152,28.601992493108146,-1.7371117924993318,-1.131600414350826,2.1623235787790107,-0.04476813266824426,0.0020152644853079354,6.425817684539657,2.268289281443729,-5.236786923491913
1544582673.2358963,28.812376641116167,-1.7588454632029138,-1.1391627452387063,2.114716738749714,-0.019151334283491563,0.0015359967042763434,6.409675082687978,2.256714944543646,-5.316060385258198
1544582673.3359463,29.123927042294717,-1.7783751446274285,-1.1536331315802801,2.14106050667076,-0.012461882960580822,0.011911009630724348,6.341091620826203,2.215077568723562,-5.422558852569301
1544582673.4358852,29.34081262353304,-1.7993677966886827,-1.16255193827091,2.096500781117406,-0.023389131750367966,0.001315862081815028,6.312694208751572,2.1260060208542133,-5.5036585773967905
1544582673.535905,29.663427566872805,-1.8272859456192934,-1.1740746926804846,2.155048867925721,-0.012145621344792624,0.016021270549878952,6.3385109797305805,2.0742886563113707,-5.593849926191661
1544582673.6359231,29.877842066146037,-1.8499831167576244,-1.1803838276147807,2.112676311407923,-0.031207192667551332,0.03166706398490168,6.355215810613543,2.127717847512092,-5.667993122241993
1544582673.7359366,30.20124025656211,-1.8806857777498185,-1.18972201820223,2.1545991377162563,-0.015226197155923287,0.05646139442749931,6.423221842656291,2.2082306536934397,-5.733263235588669
1544582673.8359184,30.4170664887283,-1.9036720939897198,-1.1929664655837178,2.1042699406277086,-0.03778495919596613,0.05180400619546938,6.453681867333843,2.3333882497533787,-5.796398829946272
1544582673.9358187,30.74948093033808,-1.9381191414000307,-1.2027167726595973,2.1012727840539047,-0.019585747973767886,0.023127016396329844,6.585752204828433,2.4232612939711364,-5.863730601108336
1544582674.0359392,30.960118234231448,-1.9594896372286417,-1.2106955631115601,2.027508964332674,0.006864376604386671,0.015393883306777267,6.516889122834809,2.3323160628859116,-5.943369670765127
1544582674.1357296,31.274688331166413,-1.9904782972671913,-1.2227443842292205,2.0600261321435083,0.00880774092336291,0.009959370144168408,6.54169074900223,2.263232462117652,-6.037298550704323
1544582674.2358491,31.490286629820805,-2.014219664039929,-1.2322794636445311,2.016829026118327,-0.03115505964901163,0.0032025166949756906,6.60985881156915,2.18977558606281,-6.110162400599583
1544582674.335826,31.711779278377556,-2.0403186447399815,-1.239422082232539,2.00053747066639,-0.03828528659272171,0.07089138480756106,6.757798302140311,2.244348671632429,-6.1793343911161305
1544582674.435793,32.052903273642286,-2.0789078472294755,-1.248037391549535,2.0467807419388673,0.015067515782696394,0.08425174121209401,6.828239187104517,2.39610512532491,-6.242719579061521
1544582674.5357752,32.250175880616126,-2.0987322252822205,-1.248974365606535,1.9803355176816908,0.04994807873182898,0.06243518890842404,6.692235219627982,2.529950417288455,-6.2958330613645765
1544582674.635817,32.57913405916381,-2.1332318245555677,-1.2575272005424363,1.9990550894255283,0.030809417417257047,0.034661753381404745,6.542241159988662,2.613257035473633,-6.350262849388928
1544582674.7358375,32.77990008498996,-2.1581640180324513,-1.26236093667436,1.920629478800219,-0.010338340047620055,0.01732158130043722,6.5283923626583045,2.628033240466277,-6.388009411753373
1544582674.8357215,33.105423004713295,-2.1977441587564464,-1.2751102616849008,1.9415219302820121,-0.02754656338390224,0.0012575988405978539,6.611426458511756,2.523841810001928,-6.450773666921252
1544582674.9384043,33.296858891153114,-2.2220596493100273,-1.282763965516999,1.8602446876771936,-0.01602144998446064,-0.0012149571120431413,6.709805159590947,2.46541394097374,-6.535066995258042
1544582675.0357656,33.61994577188757,-2.258334604237013,-1.2957312814189708,1.9020914990877809,0.019718784631747796,0.019532181565671533,6.7267849960778054,2.4222574695183967,-6.598405126273291
1544582675.1356852,33.81483647834409,-2.2786814822716392,-1.3005180596058776,1.826758888371097,0.027234989960296156,0.03961652380857734,6.597568362954242,2.452650333358013,-6.668421163225336
1544582675.235919,34.10664172946359,-2.313820883084611,-1.3079361028797536,1.8125288630278182,-0.012439474483813334,0.05088580541157478,6.617241566319921,2.4669246475906164,-6.722118018400486
1544582675.3358085,34.29051819582926,-2.3398438916668804,-1.3121328268498438,1.7155141729114083,-0.04557121062965755,0.04807693232619661,6.682986054907454,2.509489558309201,-6.7486932219179305
1544582675.4358885,34.57975322589168,-2.378208384107354,-1.3232410054594588,1.7038319421114425,-0.045925240638789916,0.03010761369855914,6.8782745139356205,2.536226688784404,-6.769409084242293
1544582675.5357041,34.77068825752073,-2.4027562021652975,-1.3293261834942776,1.6139061558220529,-0.0008685695585785823,0.02310732306389167,6.985642683363949,2.568222144882045,-6.760290594561344
1544582675.635752,35.06087140289356,-2.4338601770064794,-1.3392773496251074,1.6151413221880582,0.04255052741751872,0.029812244365352764,6.957819002107346,2.614922878638277,-6.735575961921301
1544582675.7358074,35.23226358806545,-2.450880638765089,-1.342748120836728,1.5263178974046485,0.032706463839695075,0.03922294739295523,6.885132595731318,2.7042757689826917,-6.74090915041871
1544582675.8359559,35.528767762475994,-2.4878785813892614,-1.3514369191097249,1.524558358537841,0.02212269030862752,0.027922070062280535,6.952873467236942,2.7657217973418544,-6.710498721957191
1544582675.9359527,35.67455336939181,-2.5051310652406085,-1.3544592687203216,1.4181390890597314,0.03051614057724233,0.019831545720486676,6.950236202312752,2.792160618001046,-6.685029516843492
1544582676.0359352,35.83690798404767,-2.524041481803196,-1.358448846938814,1.3367344045288627,0.030796120257653384,0.021960100560491115,7.010340208162013,2.8188165187122656,-6.691664003883682
1544582676.1359496,36.16399831150233,-2.566399219469342,-1.3705322149700911,1.3752974912756322,0.01993630094370874,0.014497351175400817,7.127291706173689,2.8411822191708116,-6.700767867444647
1544582676.2358367,36.27414935443678,-2.5740952148508462,-1.373885341413564,1.2519447251445195,0.038704582773577814,0.018296127312987805,7.152348295683566,2.842638286842093,-6.735360713367869
1544582676.3358238,36.4022081544268,-2.582805368394095,-1.37767906260127,1.154002448920188,0.06149832870227601,0.01358915370789187,7.064885060887367,2.8222553033685185,-6.7840104796755165
1544582676.4357507,36.75178467574684,-2.6419589215398482,-1.3914357924887535,1.2196162227960825,0.007190886461756916,0.026403766742284458,7.216441589912444,2.761171159642985,-6.798562646200251
1544582676.5357287,36.8475061035307,-2.6520080364462526,-1.393959474452066,1.0936745486296404,0.011994885883937585,0.01606821943953976,7.158185197087756,2.710464646264675,-6.81404568185787
1544582676.6357906,36.97015566750403,-2.6643293303783886,-1.4002749133691366,1.0045714401092016,0.01919923960839379,0.013228614300267089,7.237031848976724,2.6410291624228126,-6.8667680642393245
1544582676.737014,37.25746572530144,-2.700673024065036,-1.4138946478020704,1.0351214244525793,0.01756402472133305,0.02778840280039208,7.315850050900497,2.566502718188247,-6.897353272513625
1544582676.8358924,37.345739536575465,-2.7107151945933716,-1.4143685534420782,0.9345852105750186,0.019338676402485728,0.03188502803078304,7.376519314710805,2.570718889996491,-6.931090676490358
1544582676.9358745,37.44411882851263,-2.719519561380323,-1.414575497603904,0.8334680977714923,0.04332912661438178,0.0343775324477627,7.359778126795173,2.563466210811907,-6.968266834715182
1544582677.035986,37.75743287396482,-2.7624342794459285,-1.4346288403376979,0.8715456595891974,0.038578072799702885,0.027319953825390795,7.377451855117571,2.485156067540191,-6.986400683273778
1544582677.135872,37.85336737032318,-2.7705414576344407,-1.434292266053859,0.7930608808265114,0.03564204486437112,0.04125742292013701,7.333414005696618,2.4917833176669015,-7.018712039919018
1544582677.2359324,37.96601831584564,-2.783174573555747,-1.4340625326117507,0.712738923310724,0.016464383705004138,0.047144303062248115,7.377791507129944,2.547491545024895,-7.041308206545241
1544582677.3357863,38.304697928076116,-2.8367769424360985,-1.455080825874079,0.7662370145969684,0.0025043399913494803,0.03456076766966989,7.5141048565252415,2.5458969818133474,-7.023641548892947
1544582677.4360175,38.367432523455896,-2.8420488475938352,-1.4531907571098048,0.6472059015402554,0.022429463248888802,0.02478441824903655,7.5335531014139905,2.5236203759826124,-7.056707160514592
1544582677.5359876,38.423560731408905,-2.8458575517849365,-1.451158521529459,0.5424723104108716,0.03985948377307722,0.028185508918015044,7.473917595452397,2.4764225214157074,-7.085348631286228
1544582677.6359527,38.50646138458647,-2.8527319236932045,-1.4497362433927288,0.4756158107753588,0.04248297695378775,0.04678267663057796,7.435371876177592,2.4879182187560147,-7.109185290091494
1544582677.7359092,38.795344440049035,-2.8979414650786257,-1.4748249416625454,0.49539047002026854,0.019645178523410543,0.019342683609176698,7.455624927998382,2.5156235280331707,-7.11585008235925
1544582677.835987,38.86662080824679,-2.9057280797626035,-1.4747756118599793,0.41440424482108956,0.01213951073492231,0.01581504507414741,7.475623008085607,2.5345413790131963,-7.1198558162675845
1544582677.935905,38.93077141576222,-2.9115495415658676,-1.4746859078773413,0.3304104720750601,0.045721900720848245,0.017683066923700447,7.410819177020198,2.5644293075384623,-7.135640402910146
1544582678.0359716,39.19784999311625,-2.949409979257293,-1.4915517593227574,0.3662190695814664,0.01803906480641252,0.013328937210782842,7.465805961474703,2.5779146917038545,-7.145861263483431
1544582678.1359842,39.22295532782939,-2.952309999415683,-1.491589414312279,0.27612587765686264,-0.0039928909451904925,0.02509781334982719,7.402350519005986,2.646762398070688,-7.146031319533842
1544582678.236006,39.241171924962686,-2.955373282014665,-1.4899928463119574,0.17569788018971863,-0.0027505743150735822,0.030097982109871864,7.452947983821149,2.725427793479297,-7.164092640322304
1544582678.3359838,39.280150912090704,-2.960527731290465,-1.4867562781138695,0.0913585070192341,0.008903844145049893,0.02595266863266284,7.495344577109513,2.7952278023217936,-7.183106692890582
1544582678.4359925,39.6330612907137,-3.007674230898134,-1.4978842753638588,0.17520954628560667,0.027429129386460003,0.017488846170466074,7.646209461161659,2.8107617774036844,-7.1660064467317195
1544582678.5386708,39.66247546872324,-3.008219674136884,-1.4970537583755879,0.09330117980297813,0.03302238981202494,0.016022215253416867,7.574037332174575,2.845272050176397,-7.179114075326964
1544582678.635974,39.70290178647059,-3.0119693681764357,-1.4982395095219998,0.024149741671937047,0.02585924578615128,-0.006004519174292652,7.554071049089772,2.8578993180417918,-7.202391152061175
1544582678.7359753,39.735707051743375,-3.0153676168144257,-1.4995727978761342,-0.03915124928737716,0.01829904409641945,-0.0010909954728210336,7.529428378441734,2.8436804016850132,-7.217972703938312
1544582678.8362045,40.14655818728433,-3.06918334610429,-1.5166408593329275,0.09740713519783355,0.010059386966921444,0.012700127050513967,7.7332190670181395,2.8390404455577647,-7.198878824559474
1544582678.9359531,40.181750721654595,-3.0723599826477757,-1.515381740787777,0.022905915265666155,0.00917960658969189,0.014474046644281516,7.771860690581111,2.874833194547276,-7.212435885780843
1544582679.0361125,40.19838535894033,-3.0735016233425063,-1.515290640721258,-0.05792947092541422,0.02885999053143649,0.004871249240448476,7.799818447060123,2.8791088330645933,-7.227697002577368
1544582679.1358237,40.21734415275101,-3.0740016154105665,-1.5155702595768517,-0.11466038848369325,0.021333627268847213,0.005416725000403095,7.770262118815324,2.8687202986429052,-7.245009204968577
1544582679.235854,40.69791438266674,-3.1414702773310643,-1.5375244676829993,0.06278175459937525,0.007070161466433415,0.009649261822099495,8.075335786250331,2.851780754678915,-7.218168869029689
1544582679.335908,40.71801793079278,-3.143182576208685,-1.5359905135339587,0.009922232790868938,0.007703149685164454,0.010835270067048633,8.103761837406177,2.813815302636946,-7.2439272862587725
1544582679.4359457,40.74940134464706,-3.1466243853288813,-1.538239128999565,-0.024585042576278002,0.009938504469901695,0.01124164809727111,8.158709015919216,2.7814645655206793,-7.265785730900288
1544582679.5357697,40.79318163393665,-3.151485459277087,-1.5397495138324973,-0.04260624806691373,0.020144976514735017,0.009645797773599247,8.179518354268767,2.7545845465844514,-7.28336482761479
1544582679.6357844,41.22968446407792,-3.2116159029308826,-1.564298756206708,0.14321206347912774,0.014603140199886044,0.005213675443424078,8.441929914935523,2.716281168766005,-7.277596056952005
1544582679.7359703,41.25919410781433,-3.2149027129857197,-1.5663723681610318,0.1313962022749223,0.007525047607346979,0.005948665384172168,8.44100400530505,2.703687246261473,-7.287269106413341
1544582679.8359308,41.30168224422622,-3.2206277586616574,-1.5689425338079537,0.1275599761981098,0.014293747475752827,0.0036614500623185424,8.481952448293866,2.7022038570679334,-7.303251763766234
1544582679.9358974,41.338271715743026,-3.224616756135016,-1.571276124700647,0.10867873340755742,0.012348080921771297,0.0032425325905170626,8.470050256822336,2.6829901138918864,-7.319504357572593
1544582680.0353818,41.34893486186761,-3.2255686264036836,-1.5717855071451048,0.06932207131666625,0.011321902849522288,0.0070546218496883445,8.488040496434369,2.62040649607199,-7.341493728840956
1544582680.1357777,41.36031985267516,-3.2258619309792183,-1.5703941130294023,0.043826451759979075,0.01013095896618202,0.0140969174044948,8.486243634946135,2.587416182930721,-7.368862131574355
1544582680.2359908,41.7397878851169,-3.279854189287274,-1.59214687666835,0.19557027650471334,0.004399651661944627,0.002174352524805542,8.735445667797867,2.567482603794262,-7.34831787507008
1544582680.3380306,41.80327024355827,-3.2883887197559747,-1.5955766404592557,0.1908439106832177,0.014315055703686906,-0.002719158553144493,8.760900395628704,2.554868258170769,-7.340330016308412
1544582680.4360054,41.87554225231041,-3.296688776653303,-1.5986230856981105,0.1894781590700815,0.019797764358522606,0.0019527898748689593,8.79817916729266,2.5328102903833165,-7.368807943578189
1544582680.53587,41.94043534073859,-3.3061643103633367,-1.6010568818552124,0.1875165448465267,-0.0032408366338558016,0.005599430771866894,8.823491096253736,2.513796065772973,-7.368062000480063
1544582680.6355743,42.00015157715601,-3.3144237309402516,-1.6028752195431877,0.17937609830750564,0.01068600826949901,0.014826707928107499,8.858875623831517,2.504343132982566,-7.372005475948929
1544582680.736038,42.04893154266784,-3.3181286340229663,-1.6041098413289046,0.16563990574209145,0.011521279328588402,0.012951592897573687,8.851682704643105,2.495883767783739,-7.391235356677201
1544582680.836014,42.09970266468614,-3.3234524336368034,-1.6054466385397872,0.1535341959563463,9.206035472639689e-05,0.008462263798522173,8.883485933301484,2.4767227018081353,-7.391002031089942
1544582680.9359574,42.169639128539615,-3.3336357005103605,-1.6083073285213703,0.15514571749620343,-0.004639997089690137,0.010166662352302229,8.962367305121921,2.4618421371920594,-7.398177001688583
1544582681.0359461,42.48238635943019,-3.3796949198473376,-1.6302171515586947,0.25461115075675395,-0.006695075911928073,0.005804017339411978,9.163162174883217,2.435076809449221,-7.3933505012870375
1544582681.1360157,42.496292229340135,-3.3810757540273966,-1.6311518374181073,0.22540301282593467,0.004809229873459888,0.009929001533082503,9.15590057800719,2.43375513622309,-7.390793525981388
1544582681.2355773,42.53469934642937,-3.3858570019608862,-1.632460056988456,0.2072982165660156,0.00729435899998951,0.00932735163100171,9.156626955846141,2.4386985981233087,-7.39291672036484
1544582681.3360271,42.57263557434119,-3.3913519463437454,-1.6339772760413764,0.1867673801428909,-0.005183733654317085,0.0051454528453353954,9.178282480468729,2.447978458622938,-7.396542932320834
1544582681.4360452,42.606332681692976,-3.3964089218964792,-1.635785360525135,0.16725803419121685,-0.0049177867602916165,0.0032009093856445684,9.210823167941433,2.4440342375805475,-7.398328870328361
1544582681.5360374,42.63269138584244,-3.4000011819361653,-1.6370555532636342,0.1468589627799332,0.0026587136703020886,0.0030111306374289394,9.225375520139101,2.441480951041405,-7.4009438134982855
1544582681.636029,42.65775047477976,-3.4033740558604992,-1.6376823934693627,0.12623395046839614,0.005053788664597214,0.00431287880789185,9.23119400377358,2.441719898270647,-7.406084694378281
1544582681.735956,42.67591124584516,-3.4059537879285884,-1.6380004540877224,0.10391814978467469,0.001726830174199793,0.004843527611974076,9.234056247905151,2.443595932955279,-7.407152035696086
1544582681.8360338,42.69061086701545,-3.4082678823982095,-1.6386696898589648,0.0812464326773485,0.000999010090609577,0.004171687585123493,9.24427372294683,2.444341366471304,-7.408017102418607
1544582681.9360235,42.70095929478851,-3.410115958650056,-1.6388945106460227,0.05627419296155757,0.0021644905787304323,0.004210198770110614,9.25583923903638,2.449838000253497,-7.408953217056175
1544582682.0360205,42.707409680117316,-3.4112017274298343,-1.6387656521187888,0.03226536327683698,0.0053921726997306005,0.0032852050900481905,9.249304570467158,2.451175779462588,-7.410080344635531
1544582682.1370144,42.71100178103506,-3.4120281068513556,-1.6384065790833278,0.0074724822150051525,0.00425599034095543,0.003922608024331024,9.249829699649075,2.4553382928442837,-7.40764932397332
1544582682.2360628,42.71244775888705,-3.41239895751358,-1.6382564970976958,-0.013547726901022046,0.004154591025689205,0.0021554810261712647,9.243998012610138,2.454786510624144,-7.409035077604443
1544582682.335997,42.71236920396485,-3.4124476404918247,-1.6385996819834268,0.020542238052706965,0.0030665664894299893,-0.0027591086695509448,9.249505711448553,2.438713087441887,-7.410056043204604
1544582682.4360423,42.71318855808442,-3.4121554641216307,-1.6402280120620063,0.08315260278125647,0.0050920367657019865,-0.00837354630163063,9.23410707558153,2.393932620298006,-7.416470670913512
1544582682.5359855,42.712289424012745,-3.411293913655974,-1.6422044776269742,0.1433744791520651,0.007608481864372703,-0.004076652419125538,9.220597688726441,2.3556486420218725,-7.427580439359832
1544582682.6360495,42.705977210085955,-3.4102635190477315,-1.6423591191822935,0.1775874419354474,0.007269080423790806,0.004420640160910838,9.192034090522407,2.3537283817844985,-7.428789882418289
1544582682.7360213,42.697342639389696,-3.4091424138564106,-1.641843930893243,0.2071819763337582,0.007894681909303109,0.005161154352852106,9.173975551469155,2.3580923383764927,-7.4281804769506765
1544582682.8360624,42.68802459488575,-3.407851540954674,-1.6415338438495226,0.2437177964297202,0.006217314670475634,0.0053529866303707605,9.146581691023984,2.3556592259860802,-7.429069126939189
1544582682.9360178,42.67717065107445,-3.4064660745422524,-1.641199932235153,0.2733543266693677,0.006996515702114502,0.003005229079351696,9.130982398814812,2.361376694529026,-7.428328259841924
1544582683.0359814,42.66604983421307,-3.4048301772079212,-1.6410192366231824,0.2983045019223862,0.008876127833694203,0.0017533889924905826,9.099112837687136,2.3559608523577467,-7.430125127479197
1544582683.1360383,42.65430491589229,-3.403297307970595,-1.6407142508786157,0.32766402624936725,0.008644857529612068,0.003708940390686543,9.078318585790175,2.3533210597624725,-7.42857857368503
1544582683.235966,42.644398873942365,-3.401974600161137,-1.640565275643051,0.35436289741318017,0.008844815110075406,0.002844155131544646,9.048838487904794,2.3557960642114417,-7.428577431672602
1544582683.3359647,42.63358490129367,-3.4004851508569334,-1.6403293777383194,0.3768409943179096,0.008684589106513381,0.0021725977954886264,9.02529767282581,2.353070343286416,-7.430747794505522
1544582683.4360569,42.62399920445336,-3.3992293024738767,-1.6402391784132053,0.4019205589222465,0.009204419006184641,0.002644207531500204,8.99826743344401,2.352251129346633,-7.429831087426143
1544582683.53602,42.616830429087656,-3.398375262019516,-1.6401855565806118,0.42600794124027097,0.008967010260711825,0.0029165090110504863,8.973748900712318,2.3519249168862744,-7.429853898991137
1544582683.6360471,42.61079563870922,-3.39757553691508,-1.6402275803777515,0.4469505963742702,0.009037657734565593,0.0011231014192423644,8.948000368581717,2.3492874517490114,-7.430207062233352
