timestamp,x,y,z,vx,vy,vz,roll,pitch,yaw
1544582653.235619,-0.0003176904545622885,0.027029563061402622,-0.009868408560117765,-0.028733069451203647,0.02961641702410168,-0.0018803329462055399,-9.63085370390976,0.6743864967142505,-0.8860220152641712
1544582653.3355758,-0.057709453660265406,0.033284614336060045,0.018378469822471225,-0.04445719418860058,0.009981602860067539,-0.008838653885088704,-11.143982622169563,3.267225588357928,-1.064095970529751
1544582653.4355476,0.004660890479116237,0.03863804894918177,0.024382476688414874,0.07382980091414057,0.017245035462963017,0.05247315813990723,-11.28054185810815,3.324201092332109,-1.2722630404837356
1544582653.5355966,0.017941889939831018,0.03231340191087492,0.020251700931194765,0.08922316544637975,0.002765020897651093,0.04328383356993376,-9.047161035440359,2.8815162191019055,-1.0784158181007177
1544582653.6366844,0.030368171036586886,0.028238590542548743,0.018942173551405875,0.07005638570354779,0.0045103009990807305,0.03799401216078871,-9.548933043876971,2.6546729699947917,-0.9646715715483261
1544582653.7357612,0.03139011161816913,0.026670688387732042,0.015472486264793337,0.03779409087135222,-0.016352429007441716,0.02594467242929377,-9.608442667125704,2.1882961764286013,-0.9213691003857564
1544582653.8356953,0.03948635285502045,0.02622593984894881,0.018771863406181314,0.05954331733475936,-0.017978274593360703,0.007344276592385639,-9.32707394885114,2.367623720116499,-0.922738511219168
1544582653.935691,0.05842037164254815,0.02466880159882557,0.016515442894537245,0.09271575609864116,0.004712707303123509,-0.0354377339460726,-8.79941698057118,0.06988470909376014,-0.8754454290102102
1544582654.0357778,0.06968838580469479,0.024118935248185168,0.015063603022177654,0.08062620732313182,0.008500511517789945,-0.03562752504084376,-8.985712830561964,-0.6503325503106892,-0.8634078642303213
1544582654.1357608,0.077727645806355,0.024317731031996123,0.011766464844370262,0.08727677934209438,0.019922319217275292,-0.01596892256869086,-9.02162051163056,-1.1372517187568913,-0.8747868018043168
1544582654.2357063,0.08756630265262082,0.02344473200416934,0.011609164393093997,0.09569905287879889,-0.009840296134693474,0.02178006258545645,-9.313095034895671,-1.5595981569111963,-0.858277416810594
1544582654.3357112,0.09403784397177947,0.02146181378251609,0.012515327005786312,0.089152543612039,-0.002676540518814794,0.016742350575884253,-9.429570639569118,-2.087693316534933,-0.7964168143002083
1544582654.4357257,0.10288261222944492,0.021900261478342415,0.012150149169568237,0.07544320773800492,-0.007278396897897617,-0.01406193394684838,-9.354996787339978,-2.122266170438107,-0.8169648564622284
1544582654.535738,0.10904605330454631,0.022079861856271303,0.009047748498718911,0.08569518986243163,0.014749669189268212,-0.020281346169818457,-10.431001100288778,-2.250761974729832,-0.8359560008307204
1544582654.6357143,0.11705806675146321,0.021820822143093402,0.009172516347434326,0.09534359200307063,0.008257955539517945,-0.0041025778388386076,-11.039002263816393,-2.221250983071777,-0.8344660216949772
1544582654.7357004,0.12637855764518055,0.021120084261607056,0.010653632259708754,0.09081119846723801,-0.010288890186178118,0.013439843669366479,-7.689453750092266,-2.231011715457605,-0.8262977223588597
1544582654.8358204,0.13546979642281215,0.02117958893766472,0.014089497834705995,0.09416841823508167,-0.01302951005231313,0.0171174939949317,-7.666408449546222,-2.1719082625590684,-0.8332568688787484
1544582654.9357076,0.1443773442291932,0.019655579872752404,0.016608309420415596,0.08152101754485513,-0.013249131697924325,0.036992312838315576,-7.798293816873211,-2.169813431625734,-0.7932475122594399
1544582655.035595,0.15247984792098884,0.020027966858678116,0.01826376849850535,0.09037908924557199,0.00737737105745922,0.004961059590137859,-8.256132208026356,-2.142224588056715,-0.8064535150715935
1544582655.1357186,0.16561855793318994,0.018870535925911286,0.019667618576390534,0.07088979619194506,-0.018213684703274356,-0.017926105769937625,-8.18316160273159,-1.9210287569365083,-0.7799567545431713
1544582655.235788,0.17709133677231997,0.018722616554499166,0.018407037977243985,0.08406321222942058,0.009446506209180885,-0.027530345960864698,-8.080970234565447,-1.8424883551708855,-0.7848754872141902
1544582655.3357348,0.18761405363615372,0.017549041932993337,0.01951859474281949,0.10418140389638117,-0.01709004651302218,0.0023966932110916286,-8.050424581029803,-1.8902803665841603,-0.7629945163542833
1544582655.4355114,0.19909519316707833,0.017346885049288337,0.019831744424796103,0.1188766574132628,-0.008640276623809904,0.022164958047841098,-8.105538625505856,-1.8649795004441172,-0.7851096350549486
1544582655.5357096,0.21368367993484763,0.01734267395548388,0.01907873995021105,0.11077730305478746,-0.00262084379302939,0.016554368679924276,-8.30680115447157,-1.6648538644865987,-0.7983139990312952
1544582655.6357563,0.22350939239008863,0.018052135570535657,0.019795339932540196,0.10245130424951936,0.0008304472821771668,0.01639748800315859,-8.28525823695086,-1.6950165824268395,-0.8305846477055976
1544582655.73579,0.23175084364918064,0.018153924263424704,0.02038690444676113,0.09591438830550464,-0.021344282637441613,0.012176218351071934,-8.547364404729857,-1.6964728473713722,-0.8369991234218536
1544582655.8356662,0.24162986995335523,0.01793688237425475,0.01868813613346707,0.09614549343681793,-0.019600244316634347,-0.025101997974790187,-8.496589698775468,-1.7521036538556756,-0.8441640124199048
1544582655.9357355,0.2533564625464875,0.017770121061461627,0.019572000080794228,0.10901708901209096,0.008433539289494559,-0.003172436170003933,-8.416003874073517,-1.7069571987822814,-0.8424776928593696
1544582656.0357258,0.26657985706386916,0.019122018656166327,0.02185711491750134,0.12930600129518863,0.019057866493725643,0.010037252994670339,-8.208942721457474,-1.6177358392816978,-0.889804650126899
1544582656.135624,0.2818147643323576,0.01960059369579788,0.02239995087833516,0.1118917093160929,-0.002289520565687566,0.020294171122241793,-8.115245064083036,-1.4103022757502872,-0.9191636526948334
1544582656.235593,0.29326994208837076,0.019321023957182496,0.023321494401836385,0.0924291828691088,-0.026387404941384973,0.042821343059724105,-8.235039487068567,-1.3665140847013897,-0.9216724450213776
1544582656.3356786,0.30927934063753126,0.018961776962504534,0.022092788480101214,0.09665881593851329,0.01193424330040874,-0.010492876932103557,-8.15727248386976,-1.1726281949521848,-0.934934315726917
1544582656.4353125,0.3203917608723478,0.019213277954309105,0.018914311878296997,0.08729989995933697,-0.03497149592693224,-0.055289252448699144,-7.476260196671934,-1.2797492401002837,-0.9540435203436319
1544582656.535715,0.335580614211789,0.016770087194824344,0.01542345718852459,0.10953713634544053,-0.008436464038971327,-0.037497688918157385,-8.00629048238011,-1.2982037343708708,-0.9051757847833528
1544582656.63568,0.34901179129599075,0.018566000949742367,0.016030126668386633,0.14629136385683922,0.05171729706998563,0.03030002541781746,-8.284595258180774,-1.2818278483899102,-0.9492862101407807
1544582656.7357273,0.3727377633733333,0.021375279302367337,0.01929844895376991,0.16575771915223822,0.04576486579367354,0.053819655978700795,-8.407402519601625,-0.9995687797854566,-1.0203829514469271
1544582656.8356993,0.3838785744663392,0.02150462973106926,0.020093801326881714,0.14135043365198496,-0.013776298484516735,0.04789675855065732,-8.600980216514865,-1.0040636081075665,-1.0522372211243565
1544582656.9355953,0.3995031002801291,0.01949090275140844,0.022735924660544807,0.12866894043049612,-0.06694047823754874,0.029227925032854117,-8.794495392790965,-0.9038979618879657,-1.0293156748375938
1544582657.0355458,0.4119204499499334,0.01943607620477209,0.021875600155179368,0.0838023624907825,-0.03404348208285331,-0.03186290617453944,-8.61904418498298,-0.9388902041287326,-1.0670631575711473
1544582657.1356158,0.4288433463717338,0.01982972524619312,0.017546290908712046,0.10146402584036124,0.017021865158910746,-0.05960727673355287,-8.6019484810357,-0.9754028570615991,-1.0723096255598172
1544582657.2373056,0.4421720977278315,0.020387029071799477,0.01726411567887644,0.13271598780699315,0.02399658418230474,-0.02999730526483493,-8.426284911343737,-1.000146986677665,-1.0994077349975988
1544582657.3357885,0.46417176730782617,0.02190111800317658,0.018569969343018956,0.1666405963048368,0.023917214574022915,0.01095174870691873,-8.327662314422724,-0.781915739622441,-1.160551076917466
1544582657.435715,0.47988854291051575,0.021421677689640817,0.02079365902880011,0.16952337435972162,-0.001794308826628752,0.038754876932328854,-8.262569281393507,-0.7278954237852737,-1.172624993764717
1544582657.5356808,0.5011345992176489,0.02165408125934133,0.025928424995950248,0.17095125553850674,0.011951134165723444,0.06743954457084392,-8.47596861237564,-0.5372390570056182,-1.1948884781539046
1544582657.6356847,0.514095792458157,0.021916252739932605,0.025746692783466713,0.1256617675325886,-0.0006404268442645835,0.016941729010064424,-8.558840175935357,-0.6134544454259049,-1.219475688540022
1544582657.7355678,0.5322993619735223,0.02294469536467828,0.022818339612725908,0.13718240069885881,0.020947667849624742,-0.02362564893717937,-8.570723859520424,-0.6093248867976315,-1.2393284692960156
1544582657.8357515,0.5480217392767699,0.023230349632870205,0.022076701210317077,0.15098489082891464,0.010424770870756331,-0.042546783904825275,-8.389112101068456,-0.6382730363379414,-1.254894676278518
1544582657.9356396,0.5727784655272374,0.02174803712843293,0.015570396526040396,0.15267437627385097,0.0025131210400382623,-0.03493201271857203,-7.9889766647783995,-0.5271732371950805,-1.2735040049561221
1544582658.035675,0.5882712358036085,0.0217943107469324,0.018396106113609607,0.1607937631764453,0.0016744142570711456,-0.011904005999067309,-7.6958007585172234,-0.4662374383741489,-1.2939137530012845
1544582658.1359465,0.6075788790378875,0.02305652973429558,0.01932422476784994,0.16826598296909367,0.023435339583296133,0.03255509714416814,-7.255653652539795,-0.3761327382657513,-1.3345438911204595
1544582658.235704,0.6236231047616421,0.023184372887032168,0.021252850255622128,0.1481644317554534,-0.0073415611639923994,0.0056151963839069525,-6.972102753208464,-0.34005730887997043,-1.3629485857402792
1544582658.3356647,0.6407756575670888,0.022531912829298412,0.02051739717053243,0.13391460367368258,-0.018235729605931707,-0.016377855546846887,-6.9378575416955295,-0.34854488240616865,-1.3775390340628142
1544582658.435798,0.6574934932268633,0.02231418667906611,0.017825562108094366,0.1540691858941157,-0.02084353795719536,-0.020052161751511463,-7.0155722457241145,-0.44019348906850037,-1.3903449370408794
1544582658.535781,0.6790747797112423,0.022338453081124966,0.014761559131984913,0.16644558678699414,0.0013376848811640803,-0.011641504624194318,-6.6384182083211005,-0.4444199782210732,-1.4263562977520416
1544582658.6358778,0.696706114250076,0.022889543022242317,0.01520699994228097,0.1690113127010204,0.010572764379182968,-0.004894117563839619,-6.426335185164046,-0.4326033596918208,-1.455227833755551
1544582658.7357347,0.7207848607680021,0.024767571858749685,0.014190297542710336,0.1964564976312609,0.025616932413766842,0.05951662290361555,-6.268601426267235,-0.2905295543510553,-1.5292234077755211
1544582658.835737,0.7393956291447623,0.024926946212058685,0.017847442772470034,0.17589292722595165,0.000776822373287732,0.016958737093709986,-6.479428496983184,-0.17134255919417818,-1.5544198022129796
1544582658.938186,0.7588835693376214,0.02502759993388008,0.02027323630055188,0.15250332367596423,-0.009461365228915216,0.007467242396911041,-6.663447435757445,-0.07146798191054146,-1.571885369278683
1544582659.0357723,0.7766161345210745,0.02399910066376337,0.021106646334717243,0.1699726551140927,-0.02556217681209678,0.003482361410754791,-6.442289952747343,-0.06765584272683613,-1.5707997942602203
1544582659.1357327,0.7978951770609205,0.023193457061593595,0.02538800026712702,0.17982895765645202,0.01665870512229149,-0.01341932823543588,-6.560490342337147,0.0407192613862857,-1.5770686899042723
1544582659.2359083,0.8159867071885711,0.02335179925035666,0.02585719494377899,0.19389382012132753,0.031755494894685335,0.02571384202224809,-6.590329752059288,0.043952063190629644,-1.591384100572026
1544582659.3359237,0.8359697692672032,0.024778933770736967,0.02682414769450846,0.1835555194809411,0.004317098749169747,0.026604022635247915,-6.928259519606162,0.07396009335468032,-1.6490421770115202
1544582659.435963,0.8546409802897748,0.023817063389886366,0.027446569323932513,0.16071942986349688,-0.014268672090803045,-0.0016648887668223994,-6.971923396433145,0.09476328161409914,-1.6519496932373
1544582659.5358238,0.8751553604334733,0.023017348904709117,0.025279516016091342,0.19124778503872872,-0.012485326626813292,-0.0062405321171681225,-6.9284934485383145,0.07023421017116906,-1.6624772812453996
1544582659.6358306,0.8939843534956822,0.022483782712331146,0.02352700352157799,0.19314543743241253,0.0017638948527149976,-0.002068692666794534,-6.930675742104662,0.01590574034622662,-1.677217195537617
1544582659.735659,0.9168546095933148,0.02244754906509886,0.024619822735630844,0.2005426805929917,0.006624862649795305,0.003391227202778579,-7.096910140223408,0.055408456875334015,-1.6854765951710888
1544582659.8356783,0.9379228276080409,0.022187180976049832,0.025298710337182537,0.2297092863784843,-0.006147354620118797,0.04207531963044291,-7.172319863504961,0.06631865223624156,-1.7075098582216157
1544582659.9356947,0.9632245622529112,0.020512342678188064,0.028246782457517345,0.2113136107066106,-0.014713295226432867,0.004417990984591596,-7.351157778794483,0.17809006274774036,-1.6944304417271856
1544582660.0357757,0.9831402464583515,0.019567762650574104,0.028665811810959115,0.20952517599853457,0.008406442693049914,-0.007122920440764411,-7.274825810099881,0.21118713614607337,-1.7078323919364062
1544582660.1355948,1.0058705432236579,0.019324253829188884,0.02762275195465905,0.23234933283051393,0.0069508833119998935,0.003477322385850765,-7.411272355984148,0.2189030011975188,-1.725770389781856
1544582660.2356532,1.0267480600278083,0.018700313177688013,0.027390609517542668,0.22455982867556878,0.004683996538950906,0.0024843768268131925,-7.27885197737808,0.21741292314018168,-1.7430477544855874
1544582660.3356743,1.04486443656006,0.018811339841909473,0.026631643246185468,0.2040540915439701,0.0012022681392694905,0.00828720995804736,-7.522920689657575,0.14363499380741862,-1.7547589494261282
1544582660.435724,1.0651075929203866,0.01873478276079171,0.02648837975394353,0.205035790437673,-0.0014123087622229342,-0.004055998467117298,-7.500995844901369,0.13527199386464037,-1.7766009244111676
1544582660.5357103,1.0872376179058056,0.01709714027623803,0.02398503711911001,0.17840101750665635,0.018891682223156236,-0.023457429318650372,-7.529016652270978,0.08160890774679963,-1.7446900691513536
1544582660.6356778,1.1091640445759918,0.0170687575254335,0.02303020715940678,0.23907833753067576,0.0358044613962949,-0.019714055761004278,-7.5443651486153165,0.05153807375400954,-1.7595084884600514
1544582660.7357788,1.1360351990996973,0.01791710199904576,0.022498618290903234,0.24483645753781305,0.00785548056788721,0.013014593768748936,-7.660895344192081,0.06107162271910359,-1.7792585842936541
1544582660.835814,1.1550362227825568,0.015813893723508957,0.021304241367400643,0.22722162976808677,-0.023050929304781646,0.026115950060990805,-7.681726995955528,-0.026124926932992686,-1.774785715231844
1544582660.9356647,1.1811602381395674,0.01390159661337135,0.019488678291503306,0.23859765623077522,-0.019494686395461615,0.025333445288773432,-7.800493976659964,-0.010347036467868028,-1.7628391175577771
1544582661.0356498,1.2027702144712342,0.013695540193415524,0.017125634812210095,0.17219836246482476,0.004808027734258745,-0.06829250639975153,-7.676726875374419,-0.06921154287975007,-1.791313663424092
1544582661.1355772,1.2294218249184594,0.013591158961627554,0.011036849957071385,0.2238415240612631,0.02714194929667007,-0.03881011143254764,-7.531918973390186,-0.12721515758510316,-1.7926717405271144
1544582661.2356775,1.2526999888219355,0.014037918051408846,0.014249989001908856,0.26625951307315676,0.10286927278672929,0.027449052087622158,-7.390581815097541,-0.03689230564655331,-1.832582599495093
1544582661.3357217,1.2845488103634448,0.016989966976543952,0.018784536214779293,0.2746574798351099,0.11393034167569899,0.01246675200551315,-7.357995800541957,0.14655118894711525,-1.8868995289455028
1544582661.435803,1.3038345573467753,0.015109598341773228,0.02068730215851913,0.22407171095911504,-0.012076316902672775,-0.024791155047017895,-7.190674718399872,0.17656189142735831,-1.8987614367422228
1544582661.5356042,1.3291856035135325,0.011525341973917424,0.01666138226227883,0.18981758399585252,-0.0652528679430039,-0.03181715721090531,-6.686250889357668,0.15471903271052484,-1.8864666659186964
1544582661.6357388,1.3509743566176575,0.009529466704544912,0.008628876543157988,0.17355959329881723,-0.02024967202402537,-0.11932585024087014,-6.212780721674431,-0.006991808581825204,-1.8764747487813545
1544582661.7358994,1.3799113637914353,0.010515513387975468,-0.0038817215960982275,0.21262561902325922,-0.08581870082643778,-0.10721021358218989,-5.1453450911662415,-0.1409004486916596,-1.9139869868787742
1544582661.8358622,1.3949769795180003,0.005447420160982255,-0.017374504027355898,0.1840096544806738,-0.032769655837773415,-0.15852652068284398,-4.729684639164246,-0.24738648454481774,-1.9515083201528582
1544582661.935875,1.4307883793729874,0.004395036007085105,-0.016162171146801362,0.21057471092075222,-0.03940725380328235,-0.08276045440255457,-2.725470602395855,-0.15561421390205082,-1.9225916489684622
1544582662.0358903,1.450105132941971,-0.002143545996804736,-0.022160978492396514,0.20591759017475056,-0.06769538859369445,-0.08288133191554176,-2.1783472871319187,-0.07782225173554252,-1.9800564989991534
1544582662.1358967,1.4655113828832311,-0.010143094392371842,-0.034891523205696884,0.13394897794958505,-0.06651475134856229,-0.10617563220405499,-2.120279330525562,-0.11869584236684542,-1.991499437474605
1544582662.2358663,1.502050923676703,0.00015361217397298968,-0.0013178522760327847,0.18259972582683723,-0.04248895790704806,-0.02218651492491001,0.7092507597193302,-0.1924276679134069,-2.000143214538068
1544582662.335787,1.5297145609489187,0.010088682265819434,0.010299364786327859,0.22252802566375998,0.013506053122806401,-0.009807689954498244,1.208296728783706,-0.12702345907313042,-2.101808792697432
1544582662.4399226,1.571326995082633,0.01077095785974563,0.013496576963506066,0.25968507270125035,0.033318268553445614,0.03773270143043512,1.11944287167543,0.029248477892267727,-2.129176674315004
1544582662.5360396,1.5957286861956355,0.009767031699117492,0.018475609832393994,0.2761592508205877,0.016855259730290992,0.0918998592948776,0.7653677593448013,0.19975354038958645,-2.1233737803328414
1544582662.6359193,1.6349396312765074,0.006804260286231998,0.02274927947146844,0.2603783855264234,-0.005052097803642885,0.07011489302670625,0.43810295796726434,0.4404335419087467,-2.101997650962092
1544582662.7359393,1.6596301854741942,0.006551209019304883,0.024388182147741157,0.26030134867579874,-0.015199520031521476,0.020562667984177038,0.11233087579465635,0.5038625895215754,-2.120671392675894
1544582662.8358507,1.6929068381245036,0.005502376226929499,0.025886180587183418,0.2710292921832082,0.021158228850477957,0.010968167907524879,-0.10611523590025393,0.5643753230230507,-2.135963744650617
1544582662.9360175,1.7169097142649237,0.006507125448594149,0.022808826550953686,0.2594735127273812,0.015273374638462572,0.007201463597118847,-0.3011071562061554,0.4193819556472649,-2.1942880460254397
1544582663.035855,1.7473031082179031,0.00519150312374911,0.022126737551860415,0.25491529810007896,0.0028588046453459576,0.04198615077104796,-0.6647093413166982,0.4150937213607227,-2.2206277434765673
1544582663.135884,1.775886866576124,0.004898722361510241,0.021947454055337056,0.2667124538025374,0.0010580940277246733,-0.00031908639066657255,-0.8993656128525085,0.40020538956915347,-2.269841146553563
1544582663.23595,1.8059095716633098,0.005608364177129283,0.015111274707959515,0.2708501614021376,0.011588455946268022,-0.004381448083861365,-1.227616616894653,0.30939450770707994,-2.3233796801705298
1544582663.335767,1.834306520508331,0.006171583759079757,0.017936835911896706,0.31330475328282376,0.0011879442430636216,0.040687280938779165,-1.1864912106685561,0.4159947957721982,-2.3930451141209543
1544582663.43584,1.8677281007462982,0.005271208849580626,0.022197688614377955,0.32542827895891113,0.01245526792733519,0.06594627449163952,-1.2339381520630563,0.5243532161223536,-2.4398884724729952
1544582663.5358484,1.8990588340942627,0.005054275052560683,0.024886935369526745,0.30840873669782515,0.0024377500742594057,0.0604959498253613,-1.335493333476168,0.564260517624757,-2.5078536733903
1544582663.6360788,1.9278818066133612,0.005117309939972798,0.02013661320537446,0.2695404728827636,0.0010964648029582506,-0.024811824274761196,-1.5090434925231138,0.41418909189718245,-2.543184352974371
1544582663.7357163,1.9553503053073418,0.004677616888736294,0.018449568771210536,0.25375433722444185,-0.003342237036204356,-0.042180570185959505,-1.5083214098842983,0.35962994061133263,-2.600039218571018
1544582663.8356192,1.9882185995338837,0.004891802050175378,0.012024271416792544,0.2753776767454649,0.02316478661670734,-0.02861890625692294,-1.6352405035267454,0.2623157799498481,-2.6209271616458327
1544582663.9356012,2.017950965418854,0.004744917092681391,0.015083172965580465,0.30212810452670946,-0.0013435908209978606,0.03290277382904344,-1.674643093779763,0.32971562933640114,-2.661712956728386
1544582664.0356448,2.057217315409214,0.0024342399519788754,0.018301729179262944,0.3334714040066179,-0.0042548578226457206,0.07029090418617118,-1.6372303465882394,0.4094256859227443,-2.704953508422186
1544582664.1357665,2.087516172488849,0.0026060566211817456,0.019846974049821973,0.3302756078837353,0.0080544129215114,0.05374992239684377,-1.7541393861604868,0.44468291941546817,-2.7679478440272436
1544582664.2383618,2.124973929267146,0.0014240065967544725,0.02052331261335461,0.33149610692761017,0.01003269013030482,0.026590241830655368,-1.8522975135372066,0.4570275536829874,-2.813535265362641
1544582664.3357165,2.1569863396043845,0.0012904236789194378,0.0222499296046858,0.33322038581292784,0.005263728732074974,0.02509811990166217,-1.870748403710132,0.47400844611566,-2.894501295435415
1544582664.4357886,2.193477050451789,-0.0017543777748572483,0.020054925491664367,0.33911858742627454,0.004335833381659582,0.003050701580355376,-1.8709401018175171,0.439191706933661,-2.9122275506636055
1544582664.5357459,2.225676010931063,-0.0017173036825944591,0.021249841479718316,0.32593360208696043,0.0018868555107958412,0.02020586893623718,-1.9225414163043615,0.4312436415087781,-2.977617085935719
1544582664.635618,2.2598103664623235,-0.0007329524538362041,0.014301317769168733,0.3164912908241759,0.02559034877071037,-0.004005315732436105,-1.9851628510931927,0.31237962751551157,-3.0642724730819735
1544582664.7359014,2.2936265974506207,-0.0007162689608844353,0.015157364406138279,0.32351585271817385,0.012044737258361422,-0.009842618736963911,-2.1346429653723433,0.34932829380803515,-3.129668689054748
1544582664.8358662,2.328317689310637,-0.0014126008990756368,0.014856537808976052,0.33794657177349624,0.009871721068207877,0.010042014654820668,-2.101691174146097,0.3798542374745081,-3.1823916980783924
1544582664.9360437,2.367868887955272,-0.003766031229519908,0.02004854597264796,0.3644006092165074,0.0028879020451863836,0.03344549274299977,-2.2057037837907685,0.49050049275149643,-3.204090616745395
1544582665.0359514,2.4093900140086375,-0.0038711174075217823,0.01991017785097327,0.3675404983319485,0.0004851272806652143,0.04549917786523072,-2.157964950595161,0.4714095992814201,-3.3085409547813054
1544582665.135691,2.4470599856970012,-0.004951373002939801,0.0188972364632839,0.36997905369801526,0.006922026634680639,0.04841358689786839,-2.280949669741947,0.4017002856668494,-3.374214565436232
1544582665.2357693,2.4832348246834197,-0.0062450498868667405,0.018165067494507654,0.3664133853204977,-0.0006956418424966609,0.02257741067960204,-2.279376083091453,0.3789457073835077,-3.4522329179486624
1544582665.3358452,2.524475517532527,-0.005769342347120542,0.012650670612514282,0.3609615812573764,0.010427767295719172,0.0009315495001442115,-2.343853412541621,0.32035050930183473,-3.5420843161824584
1544582665.4356196,2.5619827111969156,-0.00677166886354814,0.014938593690782005,0.36505702771951676,0.00046079331772881334,0.019518212713309953,-2.3064539108824555,0.3918524252011032,-3.6159850321536053
1544582665.5356417,2.60252415569447,-0.007223732088942316,0.015800540585197715,0.3630747840561044,0.019987670679935444,0.013369995443383569,-2.2889310629806214,0.44074286261252105,-3.6928766711439995
1544582665.6356263,2.639104831268198,-0.009223324925918736,0.015769236170625842,0.34336638834779176,-1.2717619979066993e-05,0.005474755963207639,-2.3097970723866577,0.45138537681726726,-3.7464037441256757
1544582665.735629,2.68102684544883,-0.011076294088485912,0.017475408011434688,0.36196272163651394,0.010153807481491776,0.005105438478641351,-2.3321117517080805,0.5059472808040273,-3.7902171546756187
1544582665.8357658,2.7162673078331028,-0.012009640630814005,0.017548279433451792,0.371001642429012,0.007929616356985535,0.015729425633387306,-2.3886261644195432,0.5179293826286784,-3.8387394819264795
1544582665.9356928,2.7564471404068085,-0.01243670471384272,0.01918725240549291,0.3797836390338364,0.0031137939907737167,0.03966675970942731,-2.382611335071812,0.5571504098671398,-3.9153843995590094
1544582666.0358925,2.7942222537269723,-0.013540949684080778,0.02085566824838975,0.374831945650487,-0.004965808191440147,0.04380486343110226,-2.4122249130250673,0.5601069808639796,-3.968518306163301
1544582666.1356893,2.8404757279925237,-0.013936765037976783,0.017923494028722304,0.3643011634273751,2.038218686161049e-05,0.017025689472070407,-2.37657035635821,0.5068920214889554,-4.047357413193706
1544582666.2359111,2.8783462053521083,-0.014531462420304017,0.01830955740604572,0.3684192905612592,0.01672999100729772,0.011102686462928614,-2.3953862372264876,0.5025859692465064,-4.113276654169501
1544582666.3357983,2.924936751775689,-0.015182728635018582,0.011954707853513314,0.37239793660449233,0.011853935521203418,0.0035713321666877443,-2.3956348388011324,0.46466619985181123,-4.20785664941932
1544582666.4357991,2.960609489208771,-0.017364681665523924,0.013306520885438673,0.36434887920060816,0.003835753084765674,0.014072075814288557,-2.4203012434403397,0.4839013171881066,-4.249704966397379
1544582666.5358825,2.99751665963044,-0.01877119909934723,0.012333560905632455,0.34926155048818536,0.004067844621715629,-0.0003859264810286392,-2.360205892200234,0.47494978588420217,-4.316181188221498
1544582666.6357315,3.043465422761476,-0.022877338579682976,0.01191895185833736,0.3673092770491609,0.0034964628726172797,-0.005659851234211583,-2.3199179281764772,0.4886902923223267,-4.30904078720267
1544582666.7357147,3.0844861231218235,-0.025149214019378936,0.013250034799553351,0.3987970089932126,0.039439954477319614,0.01237734294178357,-2.2542118888969997,0.5462563678046511,-4.336485875663925
1544582666.8357499,3.134779245771518,-0.02670079919163462,0.016290199431017217,0.4108852511665799,0.04214328344700779,0.04323543142169492,-2.265143931233641,0.6284975030417983,-4.402499223542642
1544582666.9357157,3.1776767493244065,-0.02798210982350365,0.019210856222838694,0.4015838179625775,0.04881228126786444,0.03145942887988162,-2.2277984421178645,0.6677145579954598,-4.457389197172485
1544582667.035709,3.2219398544080726,-0.02891185144962556,0.017377645617134344,0.36889660740711605,0.028016497134664465,-0.015450760167858938,-2.2522115320438405,0.5802937009760988,-4.541377534668339
1544582667.135769,3.2595333178841743,-0.03367353313105689,0.014115504495618481,0.3626876180685086,0.022105727987517705,-0.03398316112568563,-2.1854878324262383,0.4957421930733357,-4.544512966651962
1544582667.2357304,3.306578040605702,-0.036999098295366586,0.00829498986919636,0.3902987648794571,0.008757372738410653,-0.014321983509204689,-2.1273797374711547,0.4232038712808407,-4.614413167714808
1544582667.3357618,3.348677672245943,-0.04082143360154821,0.009680167965104004,0.4020936073314182,0.021360207679549343,0.014714278094379255,-2.0121828413401954,0.47821421212400184,-4.647932988110909
1544582667.4357018,3.4002011580013356,-0.0412391922406068,0.012710619762010173,0.4124823600752081,0.03400016619858628,0.05467401999053625,-2.0145248717843467,0.5501417969065713,-4.761919653388572
1544582667.5357873,3.4390681735442628,-0.043007238271300666,0.013130206928483826,0.38039796376375284,0.03829680112106648,0.01984417565910416,-1.994191016531587,0.537699428050331,-4.80549798249289
1544582667.6357486,3.4880931096069068,-0.047422208731907466,0.010940236333227191,0.3866085321323465,0.011903716397388662,-0.009488739036857558,-2.0335994088424725,0.5002703477468382,-4.840423046973489
1544582667.7357776,3.530500607757655,-0.0532289352873519,0.009392850156052585,0.39044552544229194,0.0037252278385620846,-0.008944757220426595,-1.8848878985057884,0.49955311455075935,-4.847546335726787
1544582667.837492,3.5811786935966836,-0.056776988265575874,0.008288575252794184,0.4128482307921027,0.036904757667713776,0.02073553995956182,-1.8261090917430398,0.48154162266421835,-4.895572467260008
1544582667.9380264,3.625289615569556,-0.058014485408494215,0.008536043302904976,0.42738524181260484,0.03000471857145227,0.03844749747553169,-1.8479134715485868,0.4660896222321306,-4.93091781237473
1544582668.0356805,3.6807178136005994,-0.06199124011242134,0.009870853266760463,0.43553967409809075,0.027986076537733162,0.022852897555935635,-1.8088255966828102,0.5413957569047524,-4.976642491455275
1544582668.1354861,3.724573053268811,-0.06608973825934308,0.012115037808129277,0.4497570768769092,0.024325458190155143,0.03111870059704606,-1.8403054396028888,0.6291596234106852,-4.978073251723053
1544582668.235938,3.77939960912292,-0.07415714792223513,0.013491657215793363,0.45476944486305165,0.002583731676105535,0.01537968741042314,-1.7817603682380239,0.6946915133776427,-4.96623713102576
1544582668.3359675,3.821829036917692,-0.07978459395348689,0.01344828581213461,0.4647231335869448,-0.008826118610326887,0.013495491919785859,-1.7418708867760553,0.6816855434063067,-4.9426387624365775
1544582668.436107,3.878355657524232,-0.08596432185613931,0.014635986642054056,0.48615484727077807,0.0067540670921636846,0.007149668451982116,-1.7374843286521204,0.6633676927626807,-4.910633023654868
1544582668.535791,3.9283055345441023,-0.09005540122919291,0.015596240613711,0.5003613994782081,0.031115477749097606,0.0217382388461546,-1.738272013771525,0.6882225351711172,-4.9118397319542915
1544582668.635766,3.977507862874528,-0.09311133332148325,0.016003264885932195,0.48060088338355966,0.036706367095220245,0.00647747588761876,-1.7558829875000337,0.7037808012534995,-4.9249003641708144
1544582668.7359607,4.017452023979259,-0.0980929453962775,0.00873323295920236,0.4511566415699413,-0.01737992635176133,-0.024041896336745677,-1.8299531569796184,0.5334613865654831,-4.96244237664038
1544582668.8358636,4.067124178112234,-0.1028830543361839,0.005730277213391904,0.46656711094476666,-0.014286245652373606,-0.046765221716827274,-1.754841585005635,0.48558298808413164,-4.966043865050529
1544582668.9357808,4.1183355274281075,-0.10728825101190373,0.004061534906611226,0.49619018629678746,0.014586992626659865,-0.003202157926632359,-1.774318564423953,0.43207443875668633,-4.965569218948036
1544582669.03585,4.1641254774754595,-0.11173206549660902,0.004835806947674357,0.5106009731895206,-0.002467067063633717,0.043613492792451615,-1.7869257882698206,0.42646238476057274,-4.963149830318983
1544582669.1357868,4.218764672333939,-0.11579011085000937,0.0077216915255198144,0.4954824899600781,-0.03092481047167721,0.02930280057215239,-1.9651689613722163,0.4678769821461274,-4.967782332576396
1544582669.235866,4.271563312078236,-0.1220750422696098,0.006648293081051183,0.48237225816799406,-0.08115993700738253,-0.003239417535887786,-1.8626095275969083,0.45227412217928953,-4.962359195961629
1544582669.3359237,4.331425857888599,-0.13181236691646625,0.0024917330974517267,0.47311302083000817,-0.05711477045660718,-0.011185834321207578,-1.75059355938327,0.40091597058188316,-4.902357456364259
1544582669.4356267,4.380076161212429,-0.13392864633117912,0.005019833972165853,0.44599142261920766,-0.032865223415189215,0.04644730299284452,-1.7595932928587024,0.48035710103366797,-4.932387150030332
1544582669.5358222,4.439171788634082,-0.14169609537215117,0.007124227011601262,0.3783236728495684,-0.042692211572113704,0.030327330792048357,-1.7156683218878113,0.5396935622696536,-4.893511398581438
1544582669.6367192,4.486276417351171,-0.1487698840994719,0.00732348464460442,0.32333242632511955,-0.036844866239805395,0.00807021706461129,-1.6369621325663797,0.5353754737605091,-4.878722409425145
1544582669.735859,4.560570537882145,-0.15410761664415873,0.003345716475689032,0.30360629531519384,-0.0010400318066541999,-0.01684147910819883,-1.6263755313078447,0.5328851634450023,-4.891803473080088
1544582669.8359072,4.626021300982604,-0.159332585512372,0.004395865529087956,0.3141571280290528,0.0007733444437461191,0.02578726846077359,-1.6660312189906763,0.6463504651694156,-4.873782355850138
1544582669.935697,4.650239023828969,-0.1605528912390618,0.00687509656300388,0.24721411366562288,0.0007905098618314764,0.04074123659567448,-1.7490227455253975,0.7425678979515845,-4.854356144477407
1544582670.0358934,4.735181596409282,-0.1679083468187339,0.01006348373554285,0.23232058347609183,-0.010516431359033839,0.02869518763295237,-1.7005717689380635,0.8279107103009584,-4.866122240416879
1544582670.1359317,4.751758543030808,-0.17034412750730502,0.008229711549765529,0.1679531033833903,-0.0104534714598783,0.0023117412154660295,-1.715676842331948,0.7226353769511303,-4.864940055421615
1544582670.235874,4.835769964463553,-0.1763890482758253,0.004449657995236295,0.1819729583419723,-0.01728177875060316,0.01600653617223425,-1.6741001044793926,0.720647240730713,-4.876273157256634
1544582670.3360133,4.855901846599174,-0.17952296061519613,0.008051316123545458,0.13829770052158355,-0.016474344750176277,0.03842284051163161,-1.6552865432079198,0.7933527183874471,-4.885175392509756
1544582670.4358804,4.9466602824608294,-0.18475870297461283,0.009798294409981315,0.1638684939179281,0.002018408630172813,0.03800097872733724,-1.7322086499335096,0.9016706143974855,-4.869940254072362
1544582670.5358446,4.961815563497684,-0.1855043515723626,0.010943278874099006,0.12008389495765869,0.000482955178524582,0.039597929273576866,-1.7818784603410966,0.9490049618065958,-4.904757688962709
1544582670.635757,5.028434862963671,-0.19110327089332035,0.011890505422432921,0.11890407959451565,-0.0013506004574937252,0.0220247516995769,-1.7074746881984697,1.0286979985837088,-4.955126329644861
1544582670.735843,5.03671375472857,-0.19304773541738118,0.014421673817868488,0.055099005488442446,-0.02722571177010487,0.028217280858396893,-1.7243429763850535,1.0438505607972481,-5.010262098713167
1544582670.835904,5.110430567866744,-0.1991093411395115,0.012715573975812047,0.06023491734065102,-0.011536428260669043,0.009007147007935387,-1.6184953808925844,1.0676758040249446,-5.027259596897642
1544582670.935928,5.112179620127903,-0.2007111737118559,0.013587663566788793,0.02395441788892678,-0.016230387361000683,0.023286566561296636,-1.6506704470015292,1.0632663776954638,-5.086371672201062
1544582671.0358882,5.203503621932912,-0.20502441286054324,0.013518527348787581,0.05980446631728687,-0.0058227391150609716,0.03817024542555716,-1.6028001413505357,1.127235901506948,-5.089320621912603
1544582671.1357293,5.298206201869623,-0.21008863176442094,0.010154707433573117,0.08756291001867327,-0.023908405570274138,0.040577804748733744,-1.5243829326492084,1.122548334801273,-5.09545599909637
1544582671.235884,5.369064385550895,-0.2211229929989518,0.011574465187861881,0.10580757390009705,-0.035393778107511785,0.016757652276282897,-1.380389645924076,1.145561994501625,-5.076359740371592
1544582671.3357322,5.4346254299983885,-0.23160474785392082,0.012314604534858605,0.13028303755284823,-0.05408584047998434,0.013701442458456456,-1.1913718667597215,1.1143335212807406,-5.0544387373964375
1544582671.4369621,5.49589521735903,-0.24265295376383192,0.011416686176389568,0.17134310433201902,-0.05444026038063676,0.0408316935464529,-1.0697638520364385,1.102648992001756,-5.030346719005872
1544582671.535912,5.503814376055407,-0.24915735067803077,0.01569597795542745,0.14898099836907444,-0.03002661366271999,0.059445059461930974,-1.0418067978724892,1.1639825043424903,-5.096084228552488
1544582671.6359186,5.561550562087599,-0.2595834559244155,0.018727375098785002,0.16912193965702696,-0.057101646574471004,0.054787757060261365,-1.031401606030095,1.2420890515363512,-5.043225235880988
1544582671.7359295,5.571590477013779,-0.2663050534696512,0.02486292197569443,0.12091504466969775,-0.07573690195082049,0.055937478309330185,-0.9793235272893809,1.306368930871096,-5.099370943853945
1544582671.8359323,5.617316511498093,-0.2752911590111652,0.024954800631491376,0.12411614906908086,-0.07760898493039418,0.016598406156349103,-0.9420160392455854,1.2620092735054171,-5.0950464514065334
1544582671.9360237,5.630119262894246,-0.27685088099222865,0.02632931847073882,0.08082272090930169,-0.05498890428138389,0.002098150405123366,-0.907026726614065,1.26554366134854,-5.21542525215043
1544582672.0359256,5.676371537137634,-0.28265196962158906,0.021645191236036664,0.08323124117494951,-0.05388086243734541,0.010495246795352494,-0.9091081843904809,1.1331503504114115,-5.211868063636857
1544582672.1358385,5.680122522584909,-0.2883377201399969,0.02093406102042143,0.040629614873470575,-0.0717410040160785,0.004424124942469727,-0.88312859108278,1.06212065922913,-5.323898099125436
1544582672.2357972,5.732283968606261,-0.29232561986926614,0.014535588443184186,0.05433180426117292,-0.061127586551594844,0.0030696913113363606,-0.8342637162884317,0.9229766543608826,-5.333945095224199
1544582672.335849,5.739746594452701,-0.2976684881472219,0.013786548289799465,0.0352966733520616,-0.07941352887871325,0.01942772539923089,-0.83727947640883,0.966279759075798,-5.435593132567458
1544582672.4359035,5.770098005684664,-0.3047397336211235,0.018633738826662055,0.0156544444221198,-0.08450729771957062,0.051598039152502904,-0.6463370345427114,0.9990253799636994,-5.459731506618299
1544582672.5358052,5.777851366430642,-0.3097438699083078,0.022226835572760003,-0.019551340119847445,-0.08596992713120398,0.06292210391366461,-0.6441127911323581,1.0158266037448747,-5.5608571019998765
1544582672.6360703,5.795260649441098,-0.3171136460615077,0.020534905220977128,-0.07047901273737775,-0.10380087438124258,0.02576841062830406,-0.5114428114568312,0.9748554164976874,-5.591225979960936
1544582672.7357612,5.800624561711035,-0.32138396678918835,0.026043146424816453,-0.15063602805124582,-0.08143267859948433,0.0070434108121596485,-0.3902096012085908,0.9038980468708961,-5.700757053700299
1544582672.8359013,5.796562164357864,-0.3319124713035111,0.014654864741820109,-0.19214601020868247,-0.09484811160655383,-0.013393180362362056,-0.4720597037328664,0.7600593195572269,-5.743539068859639
1544582672.9359128,5.790410209561913,-0.3377650319122898,0.02330191893165874,-0.23329077200917214,-0.13337293678135786,-0.01787408860081081,-0.3427120273681671,0.8522355723657971,-5.8850723716063
1544582673.035913,5.799330298569974,-0.34742999679502307,0.029554288496173458,-0.22021037388842213,-0.15370888076312716,0.0747090919236433,-0.17092832717147585,0.9463081291963013,-5.950525058102024
1544582673.1367152,5.791407526938585,-0.36092847311980847,0.03267993832440165,-0.2462689261625865,-0.11525280502921535,0.06551299102655828,-0.08292833877574432,1.0919777279962197,-6.036800423891248
1544582673.2358963,5.797131526788115,-0.3700041589688222,0.03786136337309283,-0.27630744903678556,-0.07985182559778403,0.04717065126731388,-0.12875964992466427,1.2931315563935424,-6.113646010440732
1544582673.3359463,5.776709751802434,-0.38011272175724453,0.04581528079483387,-0.3265843398050833,-0.11024734556831435,0.034792331225739166,-0.18532830610424653,1.3684200534515432,-6.202392105054912
1544582673.4358852,5.7723989265653985,-0.39938218084078975,0.03748977977886937,-0.37141905881638276,-0.16923362285681173,-0.0037590646920610876,-0.23386117924030447,1.322416894618359,-6.251894370064613
1544582673.535905,5.738622168681583,-0.41399643005047204,0.05593494731944161,-0.4388358438195921,-0.19575391182113422,-0.00018773292851867462,-0.05650472295388119,1.3615833366761547,-6.325347126266457
1544582673.6359231,5.718886989536873,-0.4260216816573974,0.05759052493620095,-0.4832383024299055,-0.19621122346848435,0.003876814337618625,0.061201618666345305,1.2468369870992597,-6.478688043191159
1544582673.7359366,5.682051309336276,-0.4559678316837654,0.06298545043233017,-0.5225828145184165,-0.18743804941745645,0.017293154468912757,0.18187019722741057,1.3136522493941845,-6.511828795561517
1544582673.8359184,5.621857511907095,-0.4683406574527652,0.06430142053044018,-0.5932218721626237,-0.17683671797028347,0.03525128116823642,0.038397387246766716,1.378666862342438,-6.612425872399706
1544582673.9358187,5.604072025209055,-0.4981569759276205,0.058098105804061696,-0.6345198266780983,-0.23695095772904465,0.03385388483495668,0.0157935489118124,1.4803657066449398,-6.756652280932679
1544582674.0359392,5.537652615648332,-0.5284726945255367,0.07048260593619304,-0.717045001562793,-0.3043186688916922,0.050193123179018306,0.1445204724586801,1.5677083778301637,-6.743380077310764
1544582674.1357296,5.506547164462856,-0.5780356651518368,0.0853921607100391,-0.7627566013789444,-0.344833432526247,0.04667545817110615,0.48026349720886063,1.6872041743531283,-6.855622470393969
1544582674.2358491,5.430235662971716,-0.6138371068430168,0.09588884498570693,-0.8464218901425581,-0.3421269602192288,0.044451432816816065,0.6708559438360288,1.792098450455253,-6.842270524790686
1544582674.335826,5.3371653388535885,-0.6376792677222217,0.10257645448467262,-0.9310119501508868,-0.30380768750594556,0.04781556478733576,0.6561479022739006,1.8318817917951182,-6.830036186581241
1544582674.435793,5.2801763387588565,-0.7022814629898972,0.07235942847413887,-0.9870635116037577,-0.3571475145247798,0.01369443388919847,0.5746915486936964,1.8207201116349296,-6.915057923624393
1544582674.5357752,5.171838559449636,-0.7222968476761825,0.09592790892570968,-1.0850940289536417,-0.3873052135196432,0.022475479486326194,0.6366967793294908,1.9644099292770787,-6.864305698122137
1544582674.635817,5.099728159874194,-0.7889981541167073,0.08922150479949982,-1.14272614601686,-0.43256525818182406,0.0033939680352987472,0.818532782062145,2.0569493095311366,-6.936680899967907
1544582674.7358375,4.980650256490224,-0.8259966155962011,0.10099630825367185,-1.2226010684757138,-0.4455984040290088,0.008659263922504781,0.8656299469045228,2.118497333326934,-6.869223442843745
1544582674.8357215,4.879722387478794,-0.8828864058834929,0.09897062391996143,-1.292863483182882,-0.4928759112485087,-0.009197432688785104,1.0148638720615801,2.1824783555186458,-7.041480257599773
1544582674.9384043,4.738837262977875,-0.925806353870306,0.10027978163681431,-1.3859620837583875,-0.5095769964604147,-0.009487925517244589,1.0123821807853128,2.1796417651214934,-7.02821391914253
1544582675.0357656,4.618452795235285,-0.9910324491354572,0.0906695498014485,-1.4512284348785573,-0.5329692659486631,-0.0245380441489926,1.0493324942844542,2.150691999688631,-7.276132535609004
1544582675.1356852,4.465988878551153,-1.0204948157022389,0.10570546056202948,-1.5277939188837608,-0.5679216002456032,-0.0025363334932122783,1.004640596445654,2.2007844314289806,-7.270908673827091
1544582675.235919,4.301599500356916,-1.0576427951614922,0.10914934309828683,-1.6227146342831242,-0.5813022944211154,-0.018952996162946247,1.0708469414905135,2.2133130680338278,-7.314987456745277
1544582675.3358085,4.1462962930305585,-1.129353030221329,0.12172849478124237,-1.6939848090121616,-0.6349002275795782,0.001041475618118716,1.231114479770546,2.1940467361395046,-7.5957193879877165
1544582675.4358885,3.979478397745714,-1.1916304253613395,0.13223577000015663,-1.7484019828944541,-0.6805144778833191,0.026388406560995857,1.374107312913415,2.201501694761945,-7.538863913040786
1544582675.5357041,3.7793043132037054,-1.2056110669327875,0.1439013334280554,-1.8364766781869692,-0.6753415423592436,0.03518064610770701,1.3848730090079133,2.2036882848997386,-7.975905722119986
1544582675.635752,3.6309741589400777,-1.335471515281029,0.16177978815613092,-1.8808089963996684,-0.7402845049308465,0.04592135970730631,1.5971449638211355,2.247894272669573,-7.6617226703653865
1544582675.7358074,3.4453591398913477,-1.4057466385735242,0.19479161185356003,-1.9472292309051686,-0.7646392026733104,0.07364501978311509,1.698704060267263,2.3473351032251655,-7.937144497226589
1544582675.8359559,3.2468624161594044,-1.4836181495796645,0.19352622621306503,-2.0015645878027915,-0.8230984501283186,0.07332831480740165,1.6365496973333904,2.2835058241833273,-7.792378113274343
1544582675.9359527,3.04367069174871,-1.5549725752815342,0.2221972714340533,-2.06549331775749,-0.8717541449349612,0.09963291000700794,1.728054454179681,2.5014102738064263,-8.052075613933845
1544582676.0359352,2.83274822572849,-1.656469061906088,0.22580909037028715,-2.1407371887392426,-0.9443703294733682,0.07714277841160194,1.809196754041075,2.4418886478200985,-7.827263846104818
1544582676.1359496,2.603866774132922,-1.7245930690380256,0.23968987098565506,-2.2338228083613894,-0.9470518811550076,0.07502633994754514,1.8522553207499408,2.449043869515173,-7.8490190043614
1544582676.2358367,2.369231775703141,-1.8170963599173455,0.2517695239059799,-2.312748094480797,-0.9787161736980177,0.06845231000354772,1.859384343304811,2.455223620387245,-8.024906967275589
1544582676.3358238,2.1295366896245023,-1.9097199427798084,0.2689412928392561,-2.3682356639970608,-1.0323223765995897,0.0936098994284372,1.8677761143864373,2.4552051134155484,-7.9568833635318255
1544582676.4357507,1.8773480189703644,-1.982207985326526,0.28550539809432807,-2.4509581216427,-1.0615252761870748,0.09217728292747329,1.8436118066072158,2.494348143209747,-7.984952584913112
1544582676.5357287,1.6174280376037173,-2.0169779026429695,0.3112123500945435,-2.52762893091604,-1.0571731623470368,0.08666820822497844,1.7765064425369756,2.5290224501397955,-8.290575794273192
1544582676.6357906,1.3596138341056156,-2.1544713539655,0.33117114212719234,-2.5803431010814712,-1.125761737976835,0.0956616794662078,1.8664880466107405,2.5863744032120244,-8.078877567671766
1544582676.737014,1.081882814122745,-2.2295250538352938,0.35412676859195213,-2.6615859210934123,-1.150698580766004,0.09798400856811773,1.8223664349314395,2.5799092818407106,-8.112343990322833
1544582676.8358924,0.8042033928195624,-2.2787314845177766,0.36620433884840115,-2.723143865009934,-1.1620488858952438,0.10321222660512262,1.6534786949231348,2.5436929400443735,-8.319440118193638
1544582676.9358745,0.5240938360853438,-2.3888802800365814,0.39897569647985265,-2.7840682869443647,-1.22896845969259,0.13001073373784383,1.810708050364999,2.7112740141850606,-8.215554682974618
1544582677.035986,0.22812435279765175,-2.4683219561404313,0.4220706068100776,-2.8612735136728413,-1.2407176787324457,0.12489952148972575,1.867395686000595,2.759884995588748,-8.230868098988164
1544582677.135872,-0.08504882026373384,-2.466963664061223,0.43262625321675474,-2.9667616919142286,-1.16750698208675,0.09379175465534237,1.5851368075076346,2.502013666431902,-8.597822705757274
1544582677.2359324,-0.38213617133151256,-2.6248007235715214,0.47243239851450036,-3.006715765829526,-1.2591254480006995,0.11603207605507172,1.789463127964718,2.7904554631058662,-8.356126562278176
1544582677.3357863,-0.6996310300576463,-2.70528106199024,0.4946713127417557,-3.074469855506105,-1.283362829485752,0.09872861596142488,1.729002850282621,2.8212442964415514,-8.384706941692968
1544582677.4360175,-1.035818021553887,-2.745639629698342,0.5058559817057873,-3.162574458261315,-1.273909638257791,0.0809167310472929,1.5518977104210308,2.6056660284447113,-8.64770857053694
1544582677.5359876,-1.3561958994381853,-2.866780199396629,0.5428311952387259,-3.195190572014719,-1.3448303362929583,0.11892062933332838,1.6592440537581432,2.73494897762086,-8.534555208051861
1544582677.6359527,-1.6953693536381418,-2.949874424573662,0.5660513388713162,-3.272735723479969,-1.3672295373103134,0.12100795662618843,1.6933287403011377,2.7801309495970203,-8.558117753425758
1544582677.7359092,-2.0423823587418766,-3.033302865717978,0.5885890831498881,-3.3488833749164875,-1.381009332218867,0.10705063931014666,1.6901329559300577,2.7979477121246865,-8.571020898524303
1544582677.835987,-2.397101151340085,-3.1146145707282873,0.6107717056520643,-3.4082726860970536,-1.3930991270607374,0.10657952195477716,1.6416841286178139,2.7937097376339364,-8.60246582646159
1544582677.935905,-2.782799778378972,-3.1174925918175544,0.6091314075399441,-3.5076202635200655,-1.3662491974658812,0.09072341813584042,1.492402246965397,2.541464542431846,-8.899496907167912
1544582678.0359716,-3.130921169426036,-3.2624627615669084,0.6599689874758681,-3.529348661028587,-1.4392897317783986,0.11815583698117665,1.6360468610259817,2.705705969438408,-8.71827955841792
1544582678.1359842,-3.504041062566569,-3.3511935497588614,0.6832655959521913,-3.569619141126834,-1.4614164977996569,0.12149125009712414,1.6473721777483752,2.693005246127559,-8.759514857647973
1544582678.236006,-3.9089030487467147,-3.395015078095967,0.6821965556876304,-3.6357260614506,-1.4411615890044234,0.10138693976021673,1.5035710209751836,2.5597807275363174,-8.994432996799047
1544582678.3359838,-4.268612622364697,-3.5187589916570223,0.7327604512515263,-3.631983143009183,-1.4963849319235871,0.13489174231221673,1.6205576444235987,2.5973753744571226,-8.89718037569566
1544582678.4359925,-4.651937043012156,-3.6145148805325853,0.7572250710607893,-3.651810742394754,-1.5199574075674076,0.14095232995975548,1.6172272276307795,2.5807648174213433,-8.914608690532877
1544582678.5386708,-5.046636634149042,-3.7102357517113598,0.785271813366073,-3.6637369720852417,-1.5411666146340264,0.146670237839377,1.6237824541668313,2.5669953185986247,-8.92618507501655
1544582678.635974,-5.448493101763848,-3.7297264431237416,0.7977007267033351,-3.707860993734994,-1.5051177458751201,0.14042793352950936,1.4931925454263582,2.6936439400757384,-9.229755310087693
1544582678.7359753,-5.840487785889792,-3.871061416815459,0.8117823955710818,-3.739341277519625,-1.5876089222210226,0.12457633804718779,1.5316184420585075,2.4291014020000317,-9.06593913676434
1544582678.8362045,-6.236191627977741,-3.97594231588937,0.8403399421995821,-3.765546854111665,-1.6026481566565678,0.15281601019712893,1.5584533014106976,2.377714333881986,-9.090942578943231
1544582678.9359531,-6.670172724983448,-3.9464745516579867,0.8380309213019531,-3.8302216824807003,-1.538629882367701,0.13278394319739983,1.292139756302688,2.3150898683004337,-9.419325402912685
1544582679.0361125,-7.037522674691305,-4.174991530987494,0.8956759665753936,-3.8066474148182596,-1.6584639395678964,0.15001460102287295,1.5610104055676106,2.374782680392615,-9.14667097740707
1544582679.1358237,-7.438525320443327,-4.275920625407892,0.9252118590299284,-3.841367477259959,-1.652117038535669,0.15966375006783934,1.5333362849985526,2.354527961340043,-9.175108675101605
1544582679.235854,-7.8463234407667795,-4.381786718025339,0.9532855083211135,-3.866078116728789,-1.694050982042617,0.16453835448298226,1.5280844204858248,2.3404820622007567,-9.198602182104684
1544582679.335908,-8.270256297032144,-4.40414320129638,0.9820619553406249,-3.9073629353064394,-1.6527783899541582,0.17504198892706918,1.3928238216038518,2.3388080774126023,-9.432680057874121
1544582679.4359457,-8.655692554073045,-4.5730876700944645,1.0377272249674059,-3.90595633557014,-1.7242083210664472,0.19670173591916207,1.493010504392735,2.345235479801192,-9.323893932224115
1544582679.5357697,-9.068905058965408,-4.6781172301565865,1.0718661409584032,-3.9380904419527356,-1.751449237251511,0.20040293963409606,1.4920771527976413,2.3173830181424697,-9.335293279679775
1544582679.6357844,-9.486945519873471,-4.785343304289626,1.1054203736362025,-3.963693773363703,-1.7773010255442747,0.20949061043755896,1.5213235079692229,2.293514429169753,-9.349136159151149
1544582679.7359703,-9.952115962556789,-4.779266340757253,1.1268134706085506,-4.02167360887099,-1.7387958923412536,0.21605752139077766,1.3554560845318613,2.126888626417547,-9.652397007098566
1544582679.8359308,-10.33510266898755,-5.0136853049352785,1.1743272086717507,-4.021213612717287,-1.8090452941226893,0.23374902721206134,1.576243901892905,2.26992827251921,-9.412683847528589
1544582679.9358974,-10.765019393104922,-5.132307182637096,1.2041254910114634,-4.051984480325496,-1.830976772069235,0.23494107069347786,1.5744362920532518,2.2760273103365405,-9.417573382228303
1544582680.0353818,-11.19639917716934,-5.25531481132203,1.2333510764054796,-4.081974451511171,-1.8676777852492543,0.2322623160472819,1.5811949421788924,2.294697678135095,-9.430625833931996
1544582680.1357777,-11.631128479440143,-5.383360095173998,1.2640936227356976,-4.10706971603942,-1.9001547804188799,0.23090260330773116,1.6167367339024137,2.3200150188625206,-9.44402935514669
1544582680.2359908,-12.068206807296981,-5.508303040121559,1.2953217674701776,-4.130096837308536,-1.9177723503633493,0.23340768612350027,1.6298859799727972,2.3400765085107174,-9.453289645410516
1544582680.3380306,-12.602692166254016,-5.520227491675598,1.284612211679302,-4.226412328474707,-1.8824796222545965,0.22446595278349463,1.381412514213179,1.9543665444675866,-9.666961838247904
1544582680.4360054,-12.959272698448522,-5.759496340421954,1.3749009737435567,-4.183840650116702,-1.978234234055386,0.26582453385224125,1.6484932656211118,2.305956968401537,-9.519564957229464
1544582680.53587,-13.401556453436125,-5.9020154808235805,1.4089913556906977,-4.212203088545285,-2.0018661483546976,0.2511609379727859,1.6861977337283531,2.3247710148695715,-9.536294057832682
1544582680.6355743,-13.847906453629998,-6.046872395228329,1.4424300338084823,-4.235014222795092,-2.032863707349121,0.2537477788228561,1.7055574832654206,2.350756236337881,-9.548298760998103
1544582680.736038,-14.301334846286029,-6.180103702030317,1.4786471388858429,-4.258398416476372,-2.0541079760398437,0.25520180785317403,1.7154708766533804,2.3686048388398833,-9.56481981727542
1544582680.836014,-14.756069327837151,-6.314752550840153,1.5148016964183681,-4.282862095028534,-2.0783766709940887,0.25745473916499023,1.706837529278606,2.383919590078885,-9.573919239832195
1544582680.9359574,-15.358556125226809,-6.295542239885636,1.524019522553685,-4.422446233304818,-2.012156396317781,0.2360710714078598,1.3845120690221708,1.9455520949495588,-9.767955179797951
1544582681.0359461,-15.680412758366108,-6.614525301010769,1.6263016507910029,-4.301810565514359,-2.1578579089624834,0.29924086241815995,1.8009805102773526,2.225560681727338,-9.640465937832476
1544582681.1360157,-16.135396444631468,-6.753625073224002,1.6662727088865186,-4.248853506911184,-2.1668990653471747,0.29187384406319666,1.8145229773788503,2.190343654576004,-9.649849815327679
1544582681.2355773,-16.585267420938784,-6.893974826153402,1.7062061348833821,-4.17979279869123,-2.1881444943734367,0.3063672644115806,1.8091727813551646,2.1469674161425685,-9.657951623981953
1544582681.3360271,-17.032290448044286,-7.040019122424015,1.7475807060194728,-4.132695699669134,-2.2102994649265515,0.32025430064477073,1.8174106735198963,2.1383470212601767,-9.66924104303536
1544582681.4360452,-17.477929971696433,-7.18165600659186,1.785566397983842,-4.09473778968345,-2.229788272729572,0.32784669453200005,1.8031199698307305,2.152321939700282,-9.674997665650508
1544582681.5360374,-17.919037242319312,-7.334773865439457,1.8181472629595845,-4.045578032685847,-2.2544971613128566,0.32840947997244674,1.8004619679368243,2.1644052463085064,-9.686422028605136
1544582681.636029,-18.35260383975267,-7.504029525799451,1.8540494626327546,-3.995112136288291,-2.2861691480998716,0.3291773637042556,1.8101503823379643,2.188621092894209,-9.699228653524052
1544582681.735956,-18.783391281027875,-7.662571897846453,1.8947178017497692,-3.953642823100738,-2.3072464649342956,0.3310631730374405,1.8142597511486211,2.1925323269913157,-9.713181371916253
1544582681.8360338,-19.2108234748883,-7.823419275924946,1.9358644958251783,-3.9069688075562214,-2.331702870330645,0.33802095558636513,1.8162166485347715,2.190872772883744,-9.721812317818424
1544582681.9360235,-19.632082415482305,-7.987183238343157,1.9733048160666415,-3.8560324793602425,-2.3533045419344143,0.34126395196084136,1.8121875341488878,2.2221620307554333,-9.728249515465752
1544582682.0360205,-20.04852663585637,-8.154263112446733,2.0112080261204754,-3.808516919895505,-2.3773447081336587,0.3419958894218612,1.8090863760254194,2.2535552615982946,-9.742193159511093
1544582682.1370144,-20.465047751608715,-8.323810051923816,2.0531066302027425,-3.7599735297784576,-2.4005780343902368,0.3444401765665229,1.8123618267887238,2.2651773089085134,-9.753984329976898
1544582682.2360628,-20.877730965728734,-8.495537102471785,2.0942215342640536,-3.714531266859746,-2.4236983059973567,0.3503127246102233,1.813374303668227,2.2768108536416505,-9.765493802580728
1544582682.335997,-21.28251851484612,-8.669317618995938,2.1359244824196963,-3.66925588657728,-2.445961483243023,0.3536799840006646,1.8145755615394863,2.2863444823614825,-9.773061280372898
1544582682.4360423,-21.687461232960757,-8.845587354396867,2.178657958969979,-3.6241877589456895,-2.468360758672868,0.35835094212412516,1.8168827166825237,2.288600629552149,-9.781749929845894
1544582682.5359855,-22.0908181150501,-9.023127700819007,2.2229391270821632,-3.580079616280119,-2.4920472386416823,0.3645489473828679,1.8216253093588792,2.2887091739441003,-9.783077835203782
1544582682.6360495,-22.490536320708575,-9.203925523246458,2.2671638256622417,-3.5382888903090475,-2.513206427542972,0.36975881842663255,1.828370857198385,2.2866254125470937,-9.7878437061192
1544582682.7360213,-22.88748337536978,-9.389236331459776,2.3111169122486186,-3.4948570666934753,-2.535768001346327,0.3754434476918036,1.830483184734447,2.291093283981706,-9.794335222957532
1544582682.8360624,-23.28067237908482,-9.5777662180411,2.355395529425729,-3.4504458194773915,-2.5599677734718793,0.3810154806463216,1.8376066774430089,2.2904371828292787,-9.803257343559956
1544582682.9360178,-23.672369988979604,-9.769522061797488,2.4000829484750863,-3.409677956259029,-2.584910484706583,0.3862195462896169,1.8364377520311035,2.2895270560335423,-9.809706628847346
1544582683.0359814,-24.061315880409214,-9.962530923564415,2.4458341482199613,-3.3688705690665053,-2.606724960844921,0.3925994232437713,1.8448332841538628,2.2804314703435975,-9.810980418328098
1544582683.1360383,-24.44794828608488,-10.161043222053177,2.492001700442235,-3.32705680965817,-2.631215487153629,0.39951455934662544,1.8462018838638077,2.2690791068561023,-9.813153404375162
1544582683.235966,-24.832913352607253,-10.361746591786769,2.538384735185419,-3.2892901990538803,-2.657929922735024,0.4050522939969436,1.859014677243258,2.2619572792910847,-9.8163040948018
1544582683.3359647,-25.214059413967274,-10.584473866366602,2.5821825433073857,-3.248576932121531,-2.687364466939396,0.41142495830572323,1.8731395934287767,2.25548571912191,-9.8187087918111
