timestamp,x,y,z,vx,vy,vz,roll,pitch,yaw
1560500326.9934127,0.02664087807293053,2.3357042926061813,-0.015533178639614717,0.040128818163487935,0.3846688915161832,-0.045933225122579434,-8.394282727783763,-7.32419457199639,2.3357042926061813
1560500326.9934633,0.035343920716176064,2.648579255799076,-0.02114315270661727,0.0471573798943289,0.401046206933331,-0.05751082531561193,-9.549728750169043,-6.822363299197033,2.648579255799076
1560500327.0595083,0.04396076705981541,3.0607942036273643,-0.029488647200923954,0.05921875593516349,0.4268771539179019,-0.011933025462150575,-10.722184830943927,-5.709930371026325,3.0607942036273643
1560500327.1249166,0.0627584171744151,3.4255906114876162,-0.04133806052494506,0.08601501242786364,0.44524999974191865,-0.022219323591933945,-11.911165246950942,-3.046901218491308,3.4255906114876162
1560500327.1911345,0.06568171349813541,3.9454930856078367,-0.05825950683769821,0.09396782886031843,0.47992761693854724,-0.04722155434691956,-13.422562426127358,-2.1296841766049734,3.9454930856078367
1560500327.256254,0.07622105554377069,4.499656956078996,-0.07479641614560183,0.11142150206713837,0.5335131404568678,-0.047606506689892386,-14.560054009848955,-2.384087805260572,4.499656956078996
1560500327.3220778,0.07541136999722974,5.081406350526743,-0.08864943953521051,0.10408857309800049,0.5840714178397116,-0.03866774244555693,-14.632612436516206,-3.17077145658552,5.081406350526743
1560500327.3870366,0.0758695822925556,5.710091742729005,-0.10671914698105232,0.10388570899852934,0.6396437174152881,-0.025240305813303138,-15.381487382385103,-3.135587594511323,5.710091742729005
1560500327.4536862,0.08394315468806411,6.404964150724479,-0.12740113949502535,0.12650127005339273,0.690969949562717,-0.022825763050657644,-16.396705819390544,-2.5749647756411993,6.404964150724479
1560500327.5192904,0.0861430734931978,7.170012561366194,-0.15200240099928924,0.12636581877294054,0.7575866815478863,-0.033535146517095826,-17.006806858703523,-2.0955381339120587,7.170012561366194
1560500327.5848641,0.08229835349123894,7.96740927215241,-0.17576911015666913,0.12737357384116343,0.8060032114333988,-0.03760958435930231,-17.03599401342612,-1.581392609760592,7.96740927215241
1560500327.650242,0.07606163766113458,8.804216595636733,-0.19421197794876982,0.1224101318476114,0.8403520825833407,-0.031022295262280286,-16.45988041994894,-1.8534265292308911,8.804216595636733
1560500327.7166972,0.05898061210087642,9.662604981502216,-0.19728587285394494,0.08701562152114908,0.8697230781609258,0.0020526060148711445,-14.795836041993722,-3.7916840232927265,9.662604981502216
1560500327.7794204,0.046793613128845564,10.449183833333173,-0.20247897890404862,0.0646403268186588,0.8914978709417194,-0.015349332818853062,-13.839783341257045,-4.873458951812891,10.449183833333173
1560500327.8466609,0.039335647010193944,11.22893740836837,-0.2121499476493771,0.06010463547555857,0.9392285282592587,0.002670646969085505,-13.594468379606779,-4.844762782763413,11.22893740836837
1560500327.9123063,0.03583976568594383,12.016451864032966,-0.23124314605021226,0.08482026327471609,0.9605117237281707,0.01248755800645368,-13.843339183986613,-4.033931562479702,12.016451864032966
1560500327.9794261,0.03654947928529553,12.772765873326016,-0.24729724004298612,0.10276951963043186,0.9777292123396276,0.015186308305982471,-14.075833207199542,-3.208304391969485,12.772765873326016
1560500328.044517,0.027713216402140733,13.67064970492311,-0.2613159011498203,0.12040654370838899,0.9558912835653163,0.009164838840955564,-13.646970832145639,-2.654380339605873,13.67064970492311
1560500328.109305,0.025890506310676825,14.458881892711648,-0.27906368043130925,0.13659474280350242,0.9827131471673339,-0.0021981184430596434,-13.869016401625823,-1.9816632633119273,14.458881892711648
1560500328.1752899,0.01911910815382699,15.299179458677918,-0.2946362121843921,0.1475656057072251,0.9577991455605941,-0.029119743641260964,-13.6157452691052,-1.432694748226392,15.299179458677918
1560500328.2407134,0.0019180230046470723,16.17396490232917,-0.29844776954664004,0.11955930431595435,0.9275265169915841,-0.025052582577688803,-12.272803125101907,-1.3990107268637841,16.17396490232917
1560500328.3070633,-0.015829143182400883,17.04671573165664,-0.2990276520714384,0.1288758040476579,0.9460405758274197,-0.03046403232554476,-11.307422316186809,-1.44144505188116,17.04671573165664
1560500328.3743117,-0.02987959751563074,17.909452085472775,-0.30930292265824,0.11787483502393957,0.9594836891978163,-0.010108503135705105,-10.783208709696,-0.9244038947535401,17.909452085472775
1560500328.4398844,-0.0429214672570097,18.738320209540493,-0.3228336034708173,0.1300098143200679,0.9673245302017826,-0.016864040151444354,-10.551981264952488,-0.3571664604292539,18.738320209540493
1560500328.5078638,-0.05956897639099514,19.64916332566598,-0.3334341152271644,0.13517078374860483,0.9401128399139415,-0.005595935128073853,-9.961393536038072,0.2615047473994213,19.64916332566598
1560500328.5751116,-0.07327666095887862,20.551341079387488,-0.3451929592370998,0.16162046644188918,0.9193502566784588,-0.035243388457432634,-9.304580561500213,0.5731860405522554,20.551341079387488
1560500328.6407232,-0.08969911886684617,21.413168907073484,-0.3540208729576317,0.16101608068458373,0.9132413851131592,-0.05186155175480156,-8.288934323600012,0.5708365000835012,21.413168907073484
1560500328.705646,-0.10586150869543155,22.235114972874563,-0.3597552753298503,0.14915063293393993,0.9349104926034242,-0.06133337993763033,-7.303583422799361,0.8406196473699183,22.235114972874563
1560500328.7710812,-0.11597691286603977,23.005448226439185,-0.3691188449687721,0.15114053922925982,0.9279879385369737,-0.06995621897350585,-6.837223945814169,1.2598909049399052,23.005448226439185
1560500328.8354576,-0.1462141256265086,23.83468794913678,-0.3639538137641789,0.0896386441263452,0.8718247122879584,-0.015560051729599234,-5.444537563336171,1.580758293692805,23.83468794913678
1560500328.9013894,-0.16856305394848897,24.70812154857197,-0.3721244135964381,0.07772094687158898,0.8423762297065606,-0.01190133820757508,-5.223589369398188,1.791915716030086,24.70812154857197
1560500328.9670267,-0.1913742164183011,25.611401488476943,-0.3767442629294986,0.06363651489233883,0.8646922176116454,0.03693983465012456,-5.1204294457712045,1.875065387080815,25.611401488476943
1560500329.0336366,-0.21391749630471613,26.476882756929037,-0.3822636569272748,0.05576390737368233,0.8956180871864747,0.049079911301629184,-5.118136554358878,2.1275825790462934,26.476882756929037
1560500329.0993319,-0.23242234166409048,27.2107952900452,-0.38997860659487293,0.07963830579397214,0.8535298271172873,0.0344513966578419,-5.222648424709924,2.611652066325119,27.2107952900452
1560500329.1659248,-0.25034764898726025,27.987094780173898,-0.3986502430934933,0.09108134266889809,0.7625198223325715,-0.0006254403383197937,-5.086797922420827,3.2397308482251286,27.987094780173898
1560500329.232665,-0.2667002239474947,28.618221401435022,-0.4034277433285119,0.0972786681287116,0.7082296793520905,-0.014966356411817136,-4.880726485309175,3.477339220703464,28.618221401435022
1560500329.298746,-0.286803772419167,29.34380243788208,-0.41580498054678877,0.1102488044878382,0.6820417592092478,-0.03803457324220093,-4.510977436720599,3.698570436139635,29.34380243788208
1560500329.364471,-0.30606541386426633,30.05917449059747,-0.4231599987411389,0.11099083182533409,0.6749111645044793,-0.03599586299886977,-4.111657644030533,3.758664628518342,30.05917449059747
1560500329.4304006,-0.3239864893335517,30.684176849717,-0.4283822926048023,0.1032985727564918,0.6687915653030734,-0.013691489181240232,-3.7080510992449587,3.86622069367432,30.684176849717
1560500329.4960191,-0.34346440970363007,31.307398192883507,-0.42463727357678105,0.08528000359755077,0.6056135863905808,0.022233974751973182,-3.196676858007202,4.0126354152765416,31.307398192883507
1560500329.561911,-0.35657730706551505,31.837267524938724,-0.42400870896616816,0.08435559101477418,0.5487378219509771,0.028962590828810662,-3.072294884174309,4.113846103919283,31.837267524938724
1560500329.625721,-0.3728239588451026,32.36108358706336,-0.4212463970637073,0.08649637685088997,0.5154966425680678,0.04156976995837558,-2.8610999630454073,4.063603330000009,32.36108358706336
1560500329.6901057,-0.38811564336807214,32.89368677397121,-0.420096550349788,0.07537853313009418,0.48718901427382355,0.04906440417961061,-2.791854964607653,4.082662702271828,32.89368677397121
1560500329.7555141,-0.39964969538764505,33.33892236715621,-0.423357211615914,0.06579897050122421,0.4680724858040083,0.04624646382233376,-2.7738329294538815,4.198123048060565,33.33892236715621
1560500329.819869,-0.4127485162190715,33.74397813991326,-0.4257694804148159,0.05881060822529234,0.4577506730023246,0.029329142001267218,-2.66267771927546,4.29910142055376,33.74397813991326
1560500329.8860137,-0.42541308681062406,34.12429786493545,-0.43137483379483016,0.05713632973945436,0.4215954527422469,-0.018435367222865245,-2.540894447987091,4.518279283218506,34.12429786493545
1560500329.9496398,-0.4379383241438438,34.50330177005475,-0.4337304753304147,0.05071051813473001,0.34730647043048096,-0.05505677074344709,-2.3150963357882945,4.69341825398469,34.50330177005475
1560500330.0130727,-0.44805558671727697,34.842110142701294,-0.43488780185739917,0.055639943800522576,0.2706921255228483,-0.05989201685535229,-2.202615331571146,4.71203484584781,34.842110142701294
1560500330.077602,-0.45444920535541683,35.10664904876509,-0.43805802847748454,0.06551908430542375,0.22716757759199172,-0.05379227778190772,-2.1048229164379606,4.728723034038637,35.10664904876509
1560500330.1417644,-0.4614844710616609,35.39301169210257,-0.4387101746024426,0.08534045719718204,0.22793720938253179,-0.041747243834688405,-1.9895268909777244,4.617631524459244,35.39301169210257
1560500330.2069974,-0.46553348536281614,35.614401134386185,-0.43737719819958837,0.10854908754330701,0.2202730048368788,-0.025708411417869524,-1.810220393114402,4.55727716888489,35.614401134386185
1560500330.271961,-0.4673184380992809,35.80606962054228,-0.4343850757371507,0.14877021873979632,0.1691445018800649,-0.020370471778066574,-1.5774939469060776,4.456287084166537,35.80606962054228
1560500330.3369262,-0.4656914393199132,36.015525104014515,-0.42818738978051085,0.18965102206866669,0.06079944456268384,0.03198192522584164,-1.317587283122153,4.182254211654753,36.015525104014515
1560500330.4023728,-0.46226404083625006,36.21574547377433,-0.4184770449986217,0.18912071027825733,0.014795283174802824,0.13271586467383184,-1.0637778419381212,3.8508562257589984,36.21574547377433
1560500330.4679253,-0.457179745218891,36.30603798348371,-0.4086891254731683,0.18117424502558704,0.06123972750210703,0.22372332352799576,-0.8309228474823199,3.6402268053052595,36.30603798348371
1560500330.534083,-0.46024012094900313,36.29084223316681,-0.39926226810368376,0.15560454135145907,0.09068862434988402,0.257280778043103,-0.47011328628286764,3.410967986306774,36.29084223316681
1560500330.6006885,-0.46402299326808066,36.23102349180013,-0.39440367109026725,0.1326120279715283,0.03348579632264274,0.21392698557508757,-0.17385603075973557,3.263822377742352,36.23102349180013
1560500330.6670048,-0.4526100322557604,36.167735958447196,-0.3871659485212883,0.17720869528045388,-0.06997481161201588,0.15861609922223588,-0.3050831428572742,3.445319343821421,36.167735958447196
1560500330.7335172,-0.44604468791254626,36.22647792097674,-0.41639151354403126,0.17105201242337423,-0.16825651398814043,-0.03212132518922074,-0.014613098872148109,3.4027844784179044,36.22647792097674
1560500330.7996633,-0.4468778620047456,36.19178068316767,-0.41782297214120606,0.15059513522615087,-0.15426169514213575,-0.06054961119928119,0.3416817044799766,2.9909448050858316,36.19178068316767
1560500330.865392,-0.43272909658286396,36.014738865680926,-0.4208005702362921,0.1681617254091981,-0.17207296841733682,-0.06006097129354926,0.34658860846087114,2.985419169277169,36.014738865680926
1560500330.9318485,-0.4243264329009777,35.81730542660824,-0.41347164722910473,0.16457297454855838,-0.22033499211724575,-0.013451986712279564,0.5385021298736611,2.7129463781734375,35.81730542660824
1560500330.9975915,-0.4175173865258335,35.64165793523184,-0.4045864384849091,0.14577030090906354,-0.29366085656996493,0.01845525223703234,0.7773799156269338,2.4044901449744307,35.64165793523184
1560500331.0634627,-0.39841320371143135,35.3896188537511,-0.4053479573381143,0.1585481832822061,-0.3570065614082154,0.025969029153746714,0.8356805394478728,2.347932557512428,35.3896188537511
1560500331.1289663,-0.3905016621230177,35.17675665779483,-0.3999428530424848,0.13743478884292817,-0.34843726104953154,0.028890962540132285,0.959909188422029,1.9832639919377988,35.17675665779483
1560500331.1946058,-0.3851066964932943,34.918806370179546,-0.39554259227288857,0.11761764635977225,-0.3427034619510121,0.01819846828356784,1.120442570572566,1.6479385598904557,34.918806370179546
1560500331.260127,-0.3710536989201164,34.572270813427096,-0.39331975444344575,0.12183721806634554,-0.368738603330366,-0.019221868364059216,1.2290658968043793,1.505349766737933,34.572270813427096
1560500331.3262532,-0.3467539755895496,34.09300904414118,-0.39627545729080893,0.14653767238952614,-0.45596217173480214,-0.017510786192022593,1.1395869011622826,1.5619930673920586,34.09300904414118
1560500331.391253,-0.32531644127346115,33.63697308606315,-0.3946387009200833,0.1540475705706896,-0.5417924833012763,-0.02172668398706623,1.1332473704740522,1.402572853082665,33.63697308606315
1560500331.4558313,-0.29747193958539286,33.17080840421157,-0.39640744125271826,0.17253153041532518,-0.6357156272227585,-0.02490304241340327,1.1282861694901893,1.3479392050126096,33.17080840421157
1560500331.5209262,-0.2743702182223783,32.75953905144114,-0.39603369699117175,0.1776714989495347,-0.6742272366903759,-0.0004100749272435561,1.2540722381134282,1.0689395139532178,32.75953905144114
1560500331.583191,-0.25054693101455316,32.31288925412983,-0.39312820026919626,0.1813188528443364,-0.6755304324142669,0.02616462597297829,1.3505470893112237,0.8831694548052305,32.31288925412983
1560500331.64741,-0.2274395075017922,31.76917673235867,-0.38925239146960905,0.1747154267555034,-0.6826273816381551,0.05578279576119388,1.4794989414042148,0.7381651416152822,31.76917673235867
1560500331.7111573,-0.20395540564106993,31.1993830005559,-0.3847889234366404,0.17485466837632874,-0.7158942314171318,0.06352979696019366,1.493561553170073,0.5903734535231805,31.1993830005559
1560500331.7759893,-0.17958523696993853,30.625388116867317,-0.3833002732728477,0.1707351442603334,-0.7705813905484026,0.027510188624547953,1.393799881236137,0.4760155576603071,30.625388116867317
1560500331.8416424,-0.1566105906635778,30.041010538280943,-0.38249519983961017,0.16884714739021414,-0.8146622632252423,0.018145177131552594,1.2631094811311538,0.36327515312660624,30.041010538280943
1560500331.9070394,-0.13349946331137202,29.444853171662384,-0.3830307351558274,0.15598044942365835,-0.8344616338990671,-0.002247258936038544,1.2486554924629794,0.2801963012960862,29.444853171662384
1560500331.9726214,-0.10523129837123829,28.78671272739936,-0.38565540525975384,0.16442577198024563,-0.8596183322771098,-0.029108133443189292,1.2759589145329313,0.2138945800223328,28.78671272739936
1560500332.0373726,-0.07790584623572372,28.07089842662348,-0.3852654955266452,0.17251087146070068,-0.8853263850816634,-0.03319965343830546,1.258601918631159,0.1143791801786509,28.07089842662348
1560500332.102914,-0.04245422427026502,27.366234643392826,-0.3853421863023178,0.19315733486218828,-0.9582066748878445,-0.02462509807592641,1.2879545126978906,0.07642545495563932,27.366234643392826
1560500332.1688983,-0.008949999620799065,26.675952779196056,-0.38189382500195235,0.20969813194460998,-1.0115190146635615,0.005788109554989727,1.2786546999413437,-0.04495888891566357,26.675952779196056
1560500332.2352867,0.030053164293887602,25.936722534192246,-0.37712411753180525,0.22446479797877134,-1.0649346534024067,0.028602515097003584,1.2881119814286301,-0.1205018745075759,25.936722534192246
1560500332.3014343,0.06542636091149251,25.14406254543035,-0.37604138428132555,0.24014185273937402,-1.0888573765037473,0.022050206892089183,1.2783029237731411,-0.1841893857206742,25.14406254543035
1560500332.366946,0.09941917972028425,24.329690987055322,-0.37728311648210905,0.25933959691268454,-1.1191021314793563,0.003324715648774481,1.2393581215313154,-0.22136834705477348,24.329690987055322
1560500332.4329689,0.13593730649946778,23.54818958507002,-0.37888444422642714,0.2850474081258373,-1.1490589845459611,0.0024886218734445804,1.214726502259495,-0.22916186057235746,23.54818958507002
1560500332.4984937,0.17605171396154773,22.787971628787517,-0.38515540772876117,0.31826728237567115,-1.1748697722884884,-0.0650615795280351,1.1619699922355653,-0.23384836545650906,22.787971628787517
1560500332.5639672,0.2129189312542923,22.027192563677204,-0.38539354671437864,0.3472302988330286,-1.2258537319035099,-0.04700761603314877,1.1131588586366907,-0.33012689812189744,22.027192563677204
1560500332.62944,0.2573540969545498,21.26134470971689,-0.38385813813431496,0.35432506350098425,-1.270771851070813,-0.0020065886017189873,0.9879393858178325,-0.3745597654463705,21.26134470971689
1560500332.6955884,0.300775333227425,20.434170324074874,-0.3807485453995941,0.378986410245853,-1.313964360822448,0.008276568340402152,0.8611904337034154,-0.3953975921223997,20.434170324074874
1560500332.7610085,0.3467199929515097,19.645014060482872,-0.38160324246829896,0.409087614454267,-1.368123495342706,0.00813319241485215,0.7329994547839453,-0.4029655359554446,19.645014060482872
1560500332.8266714,0.3926494085302593,18.892005344709965,-0.3783802315536897,0.4414136909685871,-1.4057456298647009,0.02748584129627428,0.6566088299835504,-0.42889741839940865,18.892005344709965
1560500332.8927104,0.4431646882102147,18.152360132596943,-0.37372080974315725,0.4855318571749986,-1.443770598288217,0.03310167991974696,0.5819725582501994,-0.41388354012301176,18.152360132596943
1560500332.959435,0.5001408693168728,17.42871684845583,-0.3708217202280381,0.50408851383074,-1.49926226252568,0.04517251552186128,0.5596241703602496,-0.3869075165687575,17.42871684845583
1560500333.026286,0.5615746127976811,16.738329166266702,-0.3678632974972898,0.5470283063917989,-1.5493725085890129,0.04551691894581751,0.5287904285411449,-0.3048865943193865,16.738329166266702
1560500333.0919056,0.6252057786172814,16.072603556863186,-0.37176502478961354,0.5895202160100721,-1.5985634843842116,0.026390892288691528,0.4558312159797873,-0.25782285828020696,16.072603556863186
1560500333.1579077,0.6944256779006348,15.446191038540587,-0.3758637438768334,0.6361462068006237,-1.6332915621907538,0.01507007814757976,0.39960347860441603,-0.19206605937212012,15.446191038540587
1560500333.2231266,0.7648221288627159,14.805086616817622,-0.38468533777923647,0.6802832497148477,-1.6518879020477113,0.007092010381800223,0.31481793095715904,-0.0771350647539463,14.805086616817622
1560500333.2899344,0.8438462054906579,14.197297140095735,-0.3911232422528608,0.7386900748132577,-1.6722982228290972,0.004562608723400953,0.2253157490664886,0.061692719154538306,14.197297140095735
1560500333.3561628,0.9260650535701666,13.650761922451531,-0.39869442570566416,0.795818794826432,-1.7025539021137013,0.008648280219683264,0.14586548507171268,0.2087955417473999,13.650761922451531
1560500333.4228077,1.0103605225382737,13.089694462143427,-0.4115015322799063,0.8614532168826385,-1.7055038126269675,-0.01734857229373577,0.017196576099024235,0.3865074165320109,13.089694462143427
1560500333.4864805,1.0957969841065573,12.599514597496709,-0.42095449032545257,0.9260267664514505,-1.7097833043950594,-0.037527786762311444,-0.08188444997522634,0.5329311438883871,12.599514597496709
1560500333.5532732,1.192066175739479,12.131341788624916,-0.4302868557274019,0.9939379498294755,-1.719154393917691,-0.030230252277572443,-0.167578738666262,0.7274303194537017,12.131341788624916
1560500333.6175885,1.2901462782275566,11.733852339726575,-0.4302025308989643,1.061434182245408,-1.7330336203000791,-0.007349567412845951,-0.21910750712467503,0.8919925408461186,11.733852339726575
1560500333.683631,1.394484072778206,11.381922854081347,-0.4378886405661241,1.1283138284514205,-1.738103086683204,-0.013530155660980708,-0.30185778146714215,1.0656347979582796,11.381922854081347
1560500333.7473247,1.4985262491039986,11.060393896456487,-0.429489162316385,1.1914840910633862,-1.7337565720732242,0.013649456898628438,-0.3915070649845584,1.1916136285514798,11.060393896456487
1560500333.8134334,1.6131010436037594,10.746600330100467,-0.4318530748376396,1.2651258645860128,-1.7347128721954952,-0.006809343767869564,-0.4488605797363234,1.345734010133623,10.746600330100467
1560500333.8813586,1.7359762877177445,10.467906706862282,-0.4293266810632205,1.3391806929172452,-1.742657671477649,-0.0028257393325290883,-0.46595765834016317,1.4534132292167607,10.467906706862282
1560500333.9462936,1.857740944624128,10.220552510186092,-0.42962854574912573,1.403265481473386,-1.7387010423900437,0.03632176521402773,-0.4821873100700087,1.5676381358541247,10.220552510186092
1560500334.0134711,1.988853490405782,9.974853889442347,-0.43362456691690493,1.4734287034910736,-1.7171266540803152,0.060370948793623744,-0.48779375004162917,1.7335671405285729,9.974853889442347
1560500334.07894,2.1244800414252745,9.771775947349782,-0.4389290206005893,1.5543858411026197,-1.6816496830092669,0.08609270382767292,-0.5272404041684707,1.9656135552244611,9.771775947349782
1560500334.148289,2.2724455301594406,9.568355926146518,-0.4412406245212872,1.6385181612535462,-1.639861470325562,0.11221810133506649,-0.585338449142666,2.241958522832487,9.568355926146518
1560500334.2170022,2.420891757329416,9.377043163798723,-0.4411461910836905,1.7198660484674198,-1.592941276954646,0.1242730072583974,-0.6764195330807393,2.497522413798028,9.377043163798723
1560500334.2903807,2.5852159753834494,9.143043502109203,-0.44727270057671026,1.8124253191519806,-1.510022571851031,0.1280308967913194,-0.805195670174744,2.8444124802185744,9.143043502109203
1560500334.3591065,2.74291042720417,8.888130484796529,-0.4489144124259113,1.8992941006794333,-1.4373521459671401,0.1503949264512392,-0.8955717284285416,3.1903243941975714,8.888130484796529
1560500334.4273312,2.902330632404963,8.603111980478717,-0.4640381231052831,1.9841691626150892,-1.3856321328099268,0.11842409837968493,-1.0189326943957016,3.549628490549747,8.603111980478717
1560500334.495073,3.0633078785682866,8.319934740779217,-0.4753161609515374,2.0756602995855467,-1.3088040630007323,0.12343179721118933,-1.1264049078580174,3.8789766020877257,8.319934740779217
1560500334.5631473,3.2263081775848006,8.051280910746092,-0.507654957188922,2.1665583154383397,-1.2394137193588501,0.05690882076579522,-1.2007233023694766,4.154384054471811,8.051280910746092
1560500334.6297355,3.3884770635455927,7.7978607397361275,-0.5356109494545771,2.2536165589170176,-1.1676018316887995,0.023893862074135727,-1.2762349836257874,4.395456246115789,7.7978607397361275
1560500334.695678,3.550087967737195,7.555396991437944,-0.5620351052645541,2.3317125913803216,-1.0822003442373727,0.0016544932554569403,-1.3936908317574355,4.583007666229581,7.555396991437944
1560500334.7615917,3.7050874491142904,7.2746937350696,-0.6125050718550274,2.409668050719644,-0.9416689267723433,-0.07401581925942721,-1.5781315080693659,4.899550048226297,7.2746937350696
1560500334.8274896,3.848657486013369,7.004479266704384,-0.6627611323175635,2.465069538841319,-0.7785697115527438,-0.12841727258317726,-1.7809767607396936,5.177167835082465,7.004479266704384
1560500334.8942895,3.9653511220765534,6.739393842286013,-0.7039495053083595,2.4677322136913116,-0.5602267165348077,-0.12634295471023702,-2.037493775209778,5.4408285510687495,6.739393842286013
1560500334.960959,4.0632524274387,6.518861112891393,-0.7309451946027586,2.4283809125891485,-0.36327449333657164,-0.08314212754146752,-2.2955686932807438,5.613366864777446,6.518861112891393
1560500335.028158,4.13589286396102,6.363829814565049,-0.736794939348727,2.341667704552852,-0.1931976267358962,-0.0328692436201469,-2.564648584000048,5.653413914133322,6.363829814565049
1560500335.0937924,4.255873086975098,6.271498414571917,-0.7465121474378735,2.349293775181737,-0.10792836493536268,-0.04086048686156432,-2.679650009525905,5.681212156707365,6.271498414571917
1560500335.1604884,4.406456724358118,6.213410193284811,-0.7651586822335293,2.3956428032291064,-0.069846816603051,-0.08340368021584804,-2.6872689736496933,5.648598877074938,6.213410193284811
1560500335.2283518,4.570069767002,6.124432015662329,-0.7825243837357919,2.4410994056407183,-0.04396584546084449,-0.06101097864998303,-2.622591573818132,5.672803699777829,6.124432015662329
1560500335.2943838,4.726326716911213,6.0785080290046265,-0.7956454588962825,2.454746664086185,-0.03642718480077054,-0.01538476827010038,-2.6495504642444367,5.685862292315187,6.0785080290046265
1560500335.3593287,4.882077502178629,6.032075682195467,-0.8116512897692256,2.4775072974963073,0.005004774448985018,-0.01571926382824121,-2.697105814495413,5.73574924532315,6.032075682195467
1560500335.4251168,5.041903015880778,5.989609387421038,-0.8279514531796973,2.5083333044436107,0.041682414852110404,-0.052852825190101316,-2.677755991443986,5.76820271746581,5.989609387421038
1560500335.4885979,5.19614782745513,5.945043984075388,-0.847063685019451,2.539000797491994,0.052633125922529764,-0.09587311687560063,-2.657963964923871,5.738774876665904,5.945043984075388
1560500335.553415,5.355525707401201,5.898427206177164,-0.8639508543511081,2.562660360797904,0.07761740834568742,-0.11067950455548264,-2.666859046924653,5.674954474361003,5.898427206177164
1560500335.6183815,5.521585436227372,5.860373859377228,-0.8739862280038155,2.5923542503550276,0.09653625651381934,-0.05398542409294771,-2.604341662922183,5.647297345368744,5.860373859377228
1560500335.6813183,5.676664327265926,5.83163991383436,-0.8809608364528151,2.605451019344353,0.10819368654092593,-0.0035343727347118548,-2.6011713020843144,5.582344583693528,5.83163991383436
1560500335.7463534,5.840811829836591,5.836530232332523,-0.8881273409425705,2.62341189600568,0.12849966762618062,0.04973409328373157,-2.6282492321933226,5.57712573300003,5.836530232332523
1560500335.8124356,6.015483135831113,5.84274300164001,-0.902178180258606,2.646263046822422,0.14513535636323702,0.07632425508110793,-2.6224887203352942,5.585961176621012,5.84274300164001
1560500335.8766792,6.1860240198831695,5.861706883062153,-0.9224930147823905,2.669244814884978,0.16159137107517402,0.06648220880001779,-2.647130666708906,5.681098292104141,5.861706883062153
1560500335.9427767,6.355773982312352,5.880043699165129,-0.9487818205079531,2.682982181562931,0.17581339271189916,0.01385644537589853,-2.6828164884751056,5.683807081810198,5.880043699165129
1560500336.0082285,6.527454308004945,5.890257670330593,-0.9772543966959226,2.7063618621471415,0.18996557807416112,-0.04490411028907959,-2.6870860379897574,5.690690943232986,5.890257670330593
1560500336.0746076,6.7103323604169365,5.909483777412234,-0.9968148684403904,2.751242313141098,0.20310705745617344,-0.039207832098683115,-2.6673254989358295,5.7189916415079,5.909483777412234
1560500336.1406507,6.890386147310913,5.9231433471141335,-1.0156301622768154,2.788475983420505,0.22458275621248497,-0.03532770900572835,-2.663106164307847,5.726028920467914,5.9231433471141335
1560500336.2074027,7.080314295557657,5.952124571278763,-1.038138556497912,2.831435750115652,0.25056149107478065,-0.03501625498040367,-2.6472491643024614,5.722702839107894,5.952124571278763
1560500336.2744968,7.272228903089227,5.966192942817228,-1.0613241672354286,2.867869844339908,0.27200342768438074,-0.04769819324857699,-2.6002493579740658,5.694962640104739,5.966192942817228
1560500336.341371,7.465596947024124,5.998475804955833,-1.0791261682544828,2.9013582954411405,0.2762205306241928,-0.01742841090994618,-2.5414881337546147,5.64473988294748,5.998475804955833
1560500336.4076583,7.666709332255645,6.031527769476251,-1.0952956777723835,2.943387227960929,0.2849234086903905,0.026403519762513872,-2.4882173936228704,5.644560372905173,6.031527769476251
1560500336.4743326,7.864868005699581,6.056112254904549,-1.1115926901802355,2.9745433441052116,0.2949903181314625,0.046715819219669,-2.4573648772354533,5.66273724461951,6.056112254904549
1560500336.5409114,8.067608408314886,6.081027734738468,-1.1321201655966138,3.0114366790196874,0.2949302772938988,0.031342671292090674,-2.406237797761619,5.69616821841554,6.081027734738468
1560500336.6069794,8.269772653387141,6.115648327909145,-1.1613830871853728,3.0521921663994878,0.2936025818919344,-0.00019450315458091616,-2.3602225165362087,5.733254854100397,6.115648327909145
1560500336.6742284,8.461455700101604,6.137187769002759,-1.1928148781420724,3.066305513485927,0.30192743625027135,-0.04417865871453258,-2.3634726019589505,5.702020658800795,6.137187769002759
1560500336.7406287,8.673626968021459,6.159491887847217,-1.216227116802935,3.1169752429591506,0.30063513802963343,-0.041584432910332425,-2.298738134351081,5.732817424065091,6.159491887847217
1560500336.8071399,8.875327263627407,6.164101650451535,-1.2369294355727476,3.1389661370432016,0.2930429567470705,-0.056326454092507305,-2.2502294961260842,5.6947282174006375,6.164101650451535
1560500336.807294,8.87230625180183,6.15256457662195,-1.2290841979665532,3.1306524439903205,0.27178998848907454,-0.04455198227446211,-2.223677039901504,5.649955430931488,6.15256457662195
1560500336.8735127,9.074589410922995,6.19234879218399,-1.2495467768891908,3.147667169654108,0.2702988685688255,-0.04536541133442745,-2.2150449298483816,5.608012036964291,6.19234879218399
1560500336.9401393,9.284676932491884,6.229184094557225,-1.2674056175677593,3.1749387942418696,0.26238986917635126,-0.029821815339762914,-2.221743143111969,5.627124197707383,6.229184094557225
1560500337.0068338,9.498060733943301,6.2657178424326085,-1.2880162773536474,3.203505444100428,0.2723247519215334,0.0008433048246287433,-2.2027415632899285,5.645810483408554,6.2657178424326085
1560500337.0731685,9.706780092499065,6.291490381115383,-1.306882985321241,3.228399561671161,0.27341566149844454,0.014211111152084788,-2.1631397711204907,5.67152559477746,6.291490381115383
1560500337.139218,9.916826773986097,6.324534941862882,-1.3304414704457121,3.255343259668262,0.2585937705755235,0.008506605975197257,-2.120330446255715,5.680339161415318,6.324534941862882
1560500337.2062926,10.135335360439647,6.3558692067842415,-1.3560841248135835,3.289779888837573,0.26582156657048406,-0.014527823819256658,-2.1169335499867485,5.6831899777257515,6.3558692067842415
1560500337.2718081,10.341459826891525,6.387957586992689,-1.381327626861664,3.301677652429755,0.283656170021882,-0.035632449315868564,-2.1125679877601096,5.6133300613733255,6.387957586992689
1560500337.3380284,10.55663445999531,6.414423758540799,-1.4000564480491993,3.3208876142869594,0.2959679994809249,-0.05234705935657119,-2.1105377214495133,5.563280494599599,6.414423758540799
1560500337.4047806,10.772270368359148,6.450153680584622,-1.4185934125642303,3.33125180973193,0.2926015925534011,-0.00711269228307948,-2.0956832964194776,5.521349794760345,6.450153680584622
1560500337.4707625,10.832573273937317,6.659651167002825,-1.4214129151739678,3.0975061799758694,0.32615230347323376,0.028579186440862103,-2.3833963520994317,5.411173488734864,6.659651167002825
1560500337.5375218,10.98529579466408,6.79409465750434,-1.4424575501733092,3.0320007197423116,0.36056219091705954,0.03333368227978001,-2.491938424803303,5.458185675382061,6.79409465750434
1560500337.603931,11.219725238604445,6.851779123496024,-1.4731114669709369,3.1025458711845357,0.35190961864367537,0.05100731727356611,-2.4640557975493866,5.597150935073738,6.851779123496024
1560500337.6705961,11.403164757739477,6.903592078082001,-1.4886031235221173,3.0820215256330417,0.3482944089418238,0.03211712072422257,-2.4677245737736255,5.5831540304667,6.903592078082001
1560500337.7367191,11.61363043356561,6.965230404465089,-1.51827438001306,3.1118091979356683,0.3402354225773782,-0.02882752706830588,-2.424900451188085,5.619840928935763,6.965230404465089
1560500337.8032162,11.816636691081314,7.027637911773915,-1.5469437204533798,3.114510219246196,0.32466000989248395,-0.039589873716097235,-2.3736348014610433,5.587401166591287,7.027637911773915
1560500337.8686943,11.991366660112023,7.074489127832177,-1.5665683625948565,3.065400635366812,0.3266477178591977,-0.03071097382592347,-2.388375299724652,5.569417616057681,7.074489127832177
1560500337.9350374,12.224124929501397,7.12833981761291,-1.5899028376669553,3.1058653841487667,0.3187380611099166,-0.024075475341434782,-2.374518697578271,5.635542656819176,7.12833981761291
1560500338.0011168,12.41356174144888,7.191820902308964,-1.601354900263816,3.074716359757908,0.3115262125663677,-0.018556669685331928,-2.3679222166469653,5.596232201998911,7.191820902308964
1560500338.0670836,12.62310822127554,7.255905581937054,-1.6167372509295133,3.0828103560772258,0.3049642897177332,-0.008998899307119501,-2.3282060893428884,5.620859782467542,7.255905581937054
1560500338.1333213,12.83510912582379,7.311235759325251,-1.6342399484214907,3.0865388506840103,0.28837505441085304,0.01899756685879994,-2.302169990267554,5.670747009172785,7.311235759325251
1560500338.1983397,13.041451463505005,7.369884333260321,-1.6505998149063874,3.0763439702849227,0.29281065140351553,0.04134059466535789,-2.330021644043732,5.695891537455863,7.369884333260321
1560500338.2648947,13.252218937790246,7.421048636021245,-1.6675669150941579,3.0638061685262272,0.3030509395422869,0.04252230754321207,-2.3809373359324293,5.758134111945736,7.421048636021245
1560500338.3330274,13.428990683661027,7.472003057502757,-1.681858662389099,2.991403359410918,0.3077030103526516,0.04080975348041682,-2.427005862164842,5.756016954433756,7.472003057502757
1560500338.4008043,13.670841348118392,7.542925149989208,-1.7133606633353335,3.0384367164976918,0.29474731835971885,-0.006142235935189422,-2.3646924555855398,5.834431228225291,7.542925149989208
1560500338.4682493,13.877909472578509,7.577294753251454,-1.7406949555067954,3.032122783574988,0.2926594404884742,-0.02343910931860199,-2.3241374689864744,5.836497263591282,7.577294753251454
1560500338.5355277,14.05357995436655,7.626402268307667,-1.7605290780122527,2.9718803708896666,0.28659610126304547,-0.012752745136620613,-2.286897109619742,5.76659633032852,7.626402268307667
1560500338.6028311,14.258297548705803,7.697293582429444,-1.7816992116086026,2.9577140471619723,0.2838503594613589,0.0057016443809495,-2.366356351247886,5.771114023124305,7.697293582429444
1560500338.6702883,14.46959851840411,7.7382128923970726,-1.7976576215480493,2.952494126969672,0.30886715318837715,0.033490751887673365,-2.3539497119031254,5.8355750725178845,7.7382128923970726
1560500338.7368443,14.689835691203147,7.7806781046715985,-1.8190683383083677,2.9652439647482556,0.3055976928065628,0.05349796252834149,-2.31491006770458,5.930537453150389,7.7806781046715985
1560500338.8019538,14.946888662099132,7.824525190930725,-1.8592026549671585,3.0471649811427954,0.29248461942755394,0.028421643579318423,-2.2415418762197157,6.10393965278739,7.824525190930725
1560500338.8686194,15.112211478099367,7.885043320784819,-1.8787663192369395,2.9689259042811234,0.294982947081028,0.019095042264484163,-2.227777562686684,6.1299132748359835,7.885043320784819
1560500338.9341264,15.350372663754264,7.910478668758809,-1.9161451776980023,3.0287682165482024,0.2939431943243329,-0.0299911736834077,-2.2320967726697476,6.236414697026155,7.910478668758809
1560500339.0008512,15.539075547943746,7.965655017842592,-1.9399459264278545,2.990861213371203,0.3216679863193842,-0.07585193457289452,-2.2390536450707437,6.247776900826386,7.965655017842592
1560500339.0670536,15.809048785304437,8.000539896424199,-1.9810548905214769,3.083275478747189,0.2746788921124916,-0.07332144315664862,-2.1524414158479903,6.267573306707373,8.000539896424199
1560500339.0671084,15.696590322227301,8.005541016711648,-1.9589278454856893,2.9045122697028187,0.2454768014988533,-0.044605224629942763,-2.0944780021751748,6.1813892030089175,8.005541016711648
1560500339.1336384,15.850237046574913,8.040295975457095,-1.9675479027969967,2.809257639740046,0.22329289666988192,-0.011729798007080572,-2.084795916937238,6.143443234090286,8.040295975457095
1560500339.1996467,16.011301129721023,8.10774795838471,-1.9842856419677253,2.737719572180836,0.22006888813393383,-0.0021982849966489804,-2.07383778477446,6.015823874638673,8.10774795838471
1560500339.2649615,16.177993035154177,8.165064147258231,-1.9994720933860144,2.689730570470172,0.22164348580759413,0.02921634859795269,-2.0888831067472076,6.071323735707864,8.165064147258231
1560500339.3307526,16.346411763405793,8.21635837877548,-2.0173387706708183,2.6512395635277963,0.2358484102916169,0.023372681449315424,-2.1142037113871295,6.0769945827142715,8.21635837877548
1560500339.395933,16.513994762010537,8.256810314769629,-2.034600436525224,2.6227139382836158,0.2387985726710491,0.0158834159424448,-2.1164752551085297,6.124082547772707,8.256810314769629
1560500339.4633722,16.68423889968996,8.349107356112647,-2.050726529942934,2.595110773998824,0.2441311831287775,0.018924581821796238,-2.099030373328855,6.169051180757405,8.349107356112647
1560500339.5290558,16.851327477859023,8.419937489897196,-2.070883168824955,2.5674623921661976,0.24057047595918424,0.01768644622000287,-2.083442851191722,6.191436606350824,8.419937489897196
1560500339.5929065,17.01287844110908,8.474239034720613,-2.0888986263392058,2.541711522724974,0.24412196886662157,0.007633522770479462,-2.1134670780549145,6.215010774616993,8.474239034720613
1560500339.6557949,17.17168749597226,8.521260553387954,-2.1116321779486906,2.5222094739290455,0.2503168060934221,-0.025150216293876315,-2.1255356634267764,6.185927520513241,8.521260553387954
1560500339.7213228,17.30792290346573,8.608392028546488,-2.1431024031601025,2.4652490561058027,0.2669057882571496,-0.04220231316017503,-2.374770706208967,6.342222395389027,8.608392028546488
1560500339.7856016,17.463280249781075,8.653629346543472,-2.1533975413886326,2.4350646529334683,0.25823027471607957,0.00688820013628938,-2.3436878645747266,6.321650967944911,8.653629346543472
1560500339.8523138,17.625145054633442,8.703875298992191,-2.170771832953124,2.413310800383614,0.2558672261584304,0.0054332974667721246,-2.301500385207737,6.322128515229662,8.703875298992191
1560500339.9198349,17.7893650493765,8.73403143997662,-2.189587895472923,2.3978073568490355,0.25619170754693527,0.002326205736971121,-2.254475155871312,6.370066847704434,8.73403143997662
1560500339.9875352,17.949301454615945,8.780259313606203,-2.2083104233541033,2.3703624713610996,0.25455399377403365,0.013961334992127428,-2.2687942424506966,6.333097863846855,8.780259313606203
1560500340.0550318,18.111978028766952,8.819404816147284,-2.2247629449261073,2.3522428097726573,0.256298896403956,0.050330119413044355,-2.2819629839503075,6.419455264241588,8.819404816147284
1560500340.1229603,18.275587937070977,8.866957059427142,-2.2399938536623587,2.3364339923230832,0.25587011021709244,0.06439964782447022,-2.3128625456520964,6.522005946635461,8.866957059427142
1560500340.188632,18.43304924416538,8.925342265467687,-2.26341148892954,2.325865893893861,0.25018157959929194,0.03700176986565759,-2.3366660747711956,6.5811330375550146,8.925342265467687
1560500340.2529182,18.58660547349154,8.967830213428657,-2.28614569389784,2.322012064516061,0.23835782784534756,0.010872954528772016,-2.284296321553416,6.638032000055213,8.967830213428657
1560500340.3212187,18.742578879556117,9.03849694563865,-2.314461185526159,2.3136697734132614,0.21369651248697527,-0.027032397778831596,-2.2591699861030614,6.64567366491493,9.03849694563865
1560500340.388123,18.900656577908727,9.076087584068265,-2.331182345285679,2.330761447144905,0.22271582531836628,-0.05407167940619528,-2.3043729424804797,6.679375905484891,9.076087584068265
1560500340.4535162,19.053658799817416,9.128613960554567,-2.3469217419509785,2.3349260489667736,0.22265918785462166,-0.030142810855386004,-2.3006464741076367,6.6628033346452735,9.128613960554567
1560500340.5179384,19.205639863403125,9.165369196072614,-2.3570734374701563,2.3310478946898607,0.20355839492967365,0.002031329622649347,-2.292787918475324,6.691660280177474,9.165369196072614
1560500340.5846322,19.365613535793443,9.212715242952823,-2.3713769097603365,2.3373052443762354,0.20045551547097315,0.025243149307425383,-2.3050901750043047,6.727480568554157,9.212715242952823
1560500340.6513588,19.521840442426235,9.268209368434276,-2.390031295014811,2.346322648326853,0.20028614678588294,0.005841963462650757,-2.2868850601289004,6.7161548471479255,9.268209368434276
1560500340.7198706,19.67632545703836,9.297288210152768,-2.4135886740819186,2.338680924407764,0.19743736900654238,-0.01083513982345019,-2.2614341563874825,6.672117681954792,9.297288210152768
1560500340.7891598,19.836586057018547,9.327866103660055,-2.429068533065751,2.333923593778631,0.2017099293746667,0.012804082359784252,-2.25182258086088,6.696525701285059,9.327866103660055
1560500340.8577976,19.995686629690564,9.359085163454482,-2.4469330702991012,2.333168369425657,0.19822459328134645,0.033038294642206256,-2.250476831335359,6.743048965599055,9.359085163454482
1560500340.9261947,20.153979836551674,9.414189098794678,-2.4678780331708015,2.3328583070357585,0.1987616626637451,0.038280483109928654,-2.2544331259338746,6.763469014471989,9.414189098794678
1560500340.9943187,20.307816546845892,9.434489366241836,-2.484265801686172,2.3285242952359444,0.20937223615399797,0.0365964518876318,-2.264416346212655,6.785442064533492,9.434489366241836
1560500341.0646465,20.47319078622927,9.443504680302706,-2.50396453984348,2.3337067177632034,0.20659158794521915,0.016075628619747317,-2.2364109423082805,6.826256433370155,9.443504680302706
1560500341.1314542,20.631299656531976,9.4445971047934,-2.5212944308724587,2.34354731389452,0.2118430175920679,0.020784632364985678,-2.2077673558423627,6.862301528205557,9.4445971047934
1560500341.197576,20.79165464411704,9.446277321749998,-2.537962486617426,2.3597042513766313,0.20677703383436347,0.0276124317263875,-2.211447323669287,6.89486925255859,9.446277321749998
1560500341.261255,20.952418770858927,9.468642132131,-2.555145971159821,2.385942771461328,0.20442820514903293,0.022573840092244946,-2.2189938872628914,6.926711329369588,9.468642132131
1560500341.325372,21.12010694715665,9.498435087718367,-2.570686563525671,2.4146659532503882,0.19381958959892814,0.039869006079657876,-2.2159398537853985,6.953468458896608,9.498435087718367
1560500341.3915205,21.28477361822842,9.545627893853645,-2.589388743418366,2.4186637171914334,0.1765034106470659,0.062347052582511914,-2.2230138786945743,6.94659966471522,9.545627893853645
1560500341.454715,21.445286956333444,9.569474431360264,-2.6068480402499654,2.4356126204966224,0.1576158190720746,0.0677576716046632,-2.218080073459725,6.9964655455919935,9.569474431360264
1560500341.5212708,21.608366474737256,9.586118179758907,-2.6265358817227624,2.4463675471031063,0.14473271718937358,0.037560357791672716,-2.2212042930763958,7.0387631883314015,9.586118179758907
1560500341.5849326,21.760627377883697,9.606371272857295,-2.6487111231670486,2.4434621226851,0.13389583030442095,0.0059764763282174616,-2.234205161331111,7.008079155032688,9.606371272857295
1560500341.6517048,21.908675033807718,9.620345348289709,-2.6676895048602365,2.4231085433220505,0.1401597566829587,0.002496469901249243,-2.2727194234078407,7.046812738833863,9.620345348289709
1560500341.7203283,22.073751908145873,9.63546858366429,-2.6902997017931556,2.432096574100696,0.14580170093694927,-0.022900373039841493,-2.2951345490929906,7.099172655099056,9.63546858366429
1560500341.7882104,22.22288681682963,9.630871414789635,-2.7108625246189804,2.4246975312819967,0.13867861692297587,-0.0570459614039448,-2.2870648815891452,7.17102133321792,9.630871414789635
1560500341.8542774,22.380050023292245,9.656840041110236,-2.7368713532399753,2.435017962602575,0.13823915732443653,-0.09065439640218215,-2.2992744369475764,7.176985009626918,9.656840041110236
1560500341.9204445,22.562406796158395,9.678172177239171,-2.76100352051144,2.481688676271232,0.14562075921039386,-0.0743512570304295,-2.2761247776508697,7.22691249527138,9.678172177239171
1560500341.9862254,22.727058065412844,9.684921846042936,-2.777818849806708,2.4962842608584346,0.15091495461816204,-0.033712337567116335,-2.25865805060791,7.273611798736042,9.684921846042936
1560500342.0533092,22.89527480317204,9.708755242443603,-2.79851623871026,2.5159505123737165,0.14390988622860953,-0.016089463378185065,-2.269190535248788,7.294712408696997,9.708755242443603
1560500342.1182451,23.052863724537513,9.75039407391393,-2.8201063524850385,2.5192204596384964,0.15312633702212122,-0.03218045459853519,-2.2755483771260274,7.258110691607093,9.75039407391393
1560500342.1842835,23.214362196181355,9.771352653861326,-2.8386001360372615,2.5208545487973093,0.14719086236730625,0.01505214448123654,-2.2531204951347252,7.2469609547699525,9.771352653861326
1560500342.250551,23.380770910042045,9.805668373813521,-2.8582039517736124,2.522117015451811,0.14566888129624117,0.0542461486726275,-2.237939693725796,7.270817220128342,9.805668373813521
1560500342.3167698,23.541684379144773,9.823112732005505,-2.8791469641408156,2.522845466850041,0.15238135157714544,0.061929999873306274,-2.2029340885421425,7.307668679926833,9.823112732005505
1560500342.3837485,23.705171257296687,9.846128587426426,-2.9049968992879083,2.5251379262231652,0.15106022422391246,0.0288672247626508,-2.1993539467620606,7.3202087715659925,9.846128587426426
1560500342.4508038,23.869388553664894,9.86843577037781,-2.9319834433685044,2.5251358605763046,0.15635447001270225,0.004304444780356298,-2.2626824780016066,7.2991773197473995,9.86843577037781
1560500342.4509413,23.845238048342555,9.788669774670357,-2.9301929215483105,2.4785790443531743,0.11863226623373446,0.004096502601621699,-2.078179633385658,7.210706047371429,9.788669774670357
1560500342.518605,23.998202971105755,9.802777864883586,-2.948177575668512,2.463253916531826,0.11741461407692386,-0.004516677457290286,-2.022597805117131,7.255219835919878,9.802777864883586
1560500342.5855668,24.154835784772047,9.8119707534086,-2.9637420022147314,2.460126147583984,0.11420248553141163,0.005374090875688298,-1.9976529287549678,7.283306499787723,9.8119707534086
1560500342.6546311,24.319628798670404,9.833160109426325,-2.981901838417736,2.4700952563896776,0.11179047331419599,0.00606104900087423,-1.9836659558698313,7.280283275397835,9.833160109426325
1560500342.7255425,24.49042307941677,9.873764606464684,-3.004963901192262,2.4772309132413635,0.11647664369995035,0.01253179584234787,-1.9778707942783886,7.2542331484516716,9.873764606464684
1560500342.7925014,24.65308079906558,9.872983571595324,-3.026012689915579,2.49920695399262,0.11240238186377602,0.028999841632028178,-2.0028852161805415,7.274668862636241,9.872983571595324
1560500342.8560984,24.809970379715132,9.880120387064798,-3.048978680762204,2.5246825408398985,0.12317607253475044,0.016287004049461595,-2.021974123623746,7.292159706140465,9.880120387064798
1560500342.9216151,24.972371844510167,9.875083349938313,-3.075259805650523,2.5438409612778305,0.1250722146510787,-0.018635505995460266,-2.0252867269001,7.334907044628538,9.875083349938313
1560500342.9894044,25.141155196864467,9.890011395295687,-3.1020382901423957,2.566254645323196,0.11885155016515067,-0.0172122476956324,-2.0366908865709075,7.3514675645284155,9.890011395295687
1560500343.0539198,25.30304162314588,9.892533298974497,-3.1246517807667806,2.5897813097647826,0.11972625454037641,-0.02176219136332952,-2.049208222305988,7.362080871445458,9.892533298974497
1560500343.1199057,25.466293760658957,9.8953914032928,-3.1476944556270223,2.596466621877368,0.11683111772251054,-0.01957569392848274,-2.1002802969471577,7.346788969228438,9.8953914032928
1560500343.1872103,25.63460867184122,9.908252387914223,-3.169934805209977,2.616049131576993,0.1107301814025168,-0.01480052932301279,-2.0783247001596163,7.310633427021214,9.908252387914223
1560500343.2527764,25.803215489743256,9.907585248041373,-3.1885796615412634,2.645913077591647,0.11499031483649581,0.0008252468670956747,-2.0984552878757117,7.329644673442935,9.907585248041373
1560500343.3189554,25.975608844527034,9.91862450359031,-3.208515744542403,2.6741147527471605,0.1224762988168064,0.019191106579301676,-2.098775620192165,7.333017229934536,9.91862450359031
1560500343.3849273,26.14611688120132,9.945867994556412,-3.2337995821958416,2.702448886706762,0.13288477774643495,0.015105930648517008,-2.101682903150968,7.333361425140021,9.945867994556412
1560500343.45102,26.320320983897012,9.959004744555632,-3.256181644753556,2.731836996394686,0.13312150322222563,0.007527572451602016,-2.062115123581849,7.354859057704388,9.959004744555632
1560500343.517932,26.499214331658948,9.958867369627187,-3.2801955796774664,2.7673456361559046,0.13056035108943584,0.0006101190490749864,-2.064334221933317,7.359216970052088,9.958867369627187
1560500343.5851114,26.68345989009296,9.966251129225014,-3.301719408244982,2.8085944829488483,0.1351978996953569,-0.006398544902694037,-2.079368533002696,7.3436715107079555,9.966251129225014
1560500343.6520023,26.869648154184947,9.988671037427881,-3.3208183237335143,2.8454509299523734,0.14220495639783337,0.012528945530375257,-2.064505454134981,7.330125928049768,9.988671037427881
1560500343.718146,27.055755701942413,10.009124772116332,-3.3397458563971627,2.882104457774596,0.14821090282193117,0.01651887311532224,-2.067370490167841,7.326686203754185,10.009124772116332
1560500343.7841034,27.245122286897367,10.044526009899945,-3.359780654483539,2.919569566829674,0.15091381665351478,0.01850212483344782,-2.0570485003184893,7.276513655477799,10.044526009899945
1560500343.8502645,27.434328489072016,10.07980303522413,-3.379724659856189,2.944156854965168,0.14608504608743833,0.058151486136891695,-2.051961270843477,7.255501918507185,10.07980303522413
1560500343.916357,27.62619725913616,10.099525485002731,-3.398744444235515,2.9733368212634743,0.15159741646399805,0.08356082044319108,-2.0680968270556024,7.26715071707496,10.099525485002731
1560500343.982587,27.819039752079437,10.120472854963387,-3.4234333354084012,3.006622327883891,0.15586277810054017,0.05871878915791645,-2.06123131487832,7.27562508086284,10.120472854963387
1560500344.0492928,28.01829682722254,10.132666258973352,-3.447993657066287,3.0478057836309973,0.14702731340742312,0.03675976630826144,-2.093367462431408,7.264395503178042,10.132666258973352
1560500344.1160033,28.21936026078471,10.139364915144418,-3.470487742247003,3.080767258244955,0.15533318378155903,0.04132468932381589,-2.123392258188086,7.264743627144044,10.139364915144418
1560500344.1827683,28.420586944534673,10.171359445235224,-3.4964880396863385,3.1102141478298075,0.15512596671994694,0.024867100582408153,-2.1080783569887487,7.23794562096792,10.171359445235224
1560500344.2494915,28.62254847500163,10.197148387345045,-3.5229344729328367,3.14001744637885,0.1444314948413296,0.004511724151055052,-2.0934928184522232,7.200452287904394,10.197148387345045
1560500344.316225,28.82547065946896,10.19565869536514,-3.5483154102574037,3.1634299295659374,0.1421677368798353,0.020054966214082648,-2.1202525178586855,7.192774635175312,10.19565869536514
1560500344.383006,29.032042994333462,10.199258970585838,-3.5736575430159716,3.1922944887606315,0.1551390703256171,0.024664354488339646,-2.1254352612668823,7.192675378449724,10.199258970585838
1560500344.4497056,29.241763206945834,10.205639610491547,-3.5981576281481704,3.2235789226348244,0.1543625452286816,0.03848444523434913,-2.1362975192777545,7.1577166962421,10.205639610491547
1560500344.5165763,29.451327314484026,10.201285892542886,-3.6235915670970065,3.250392725987528,0.15853885886984223,0.05374384847809521,-2.219222174454732,7.165617728084731,10.201285892542886
1560500344.582803,29.66408424447705,10.207652219905285,-3.646373698311704,3.2809969870897824,0.17713361371511752,0.08691792448156044,-2.291859127360259,7.191614818473116,10.207652219905285
1560500344.6485245,29.875617707727315,10.207038604857619,-3.675733222653075,3.312456633613338,0.1834007758357126,0.05473410122820832,-2.19027578197967,7.297616280096772,10.207038604857619
1560500344.7147615,30.088665428635778,10.178812225577373,-3.7110397643413116,3.339591058272479,0.16049664245994152,0.057359131465587576,-2.086978212877092,7.445713000033739,10.178812225577373
1560500344.780827,30.303690145201514,10.167087775278414,-3.7426671069084305,3.3681207800608144,0.16411272653854586,0.04498687295729881,-2.0297031788565856,7.568501642255487,10.167087775278414
1560500344.846465,30.519288937379464,10.159344657208344,-3.7803310510814323,3.3944782172369763,0.1802717176853166,0.027562363078658614,-2.0062384114042127,7.669263033978531,10.159344657208344
1560500344.9126315,30.732699799674283,10.157238855046325,-3.838039501888788,3.427711024262861,0.18944559415270146,-0.10362621223057744,-2.088714362694847,7.722256145920193,10.157238855046325
1560500344.9793117,30.95455852608327,10.16848421540271,-3.8815865046233182,3.464368185000889,0.18592214116840666,-0.20019565404186096,-2.003414279301065,7.722568906624575,10.16848421540271
1560500345.0447614,31.176842520812958,10.17007322555135,-3.9167191094819787,3.4919314261187173,0.12233263195674912,-0.16489310795762463,-1.8070376096048744,7.68774879875234,10.17007322555135
1560500345.1110215,31.404097105692056,10.199987321311829,-3.9456223746732024,3.5133466747882416,0.11571278962864763,-0.06744561658765685,-1.732486263513599,7.638283095144303,10.199987321311829
1560500345.1771326,31.63341604132708,10.191365903493962,-3.96445675183233,3.5427337625996,0.13108650404714578,-0.02192304471171752,-1.7242615551765563,7.610659208917272,10.191365903493962
1560500345.2436676,31.86579825890582,10.165891863930101,-3.9888760642593026,3.567391217202522,0.13881495651012785,-0.03677256695269726,-1.7461420100159428,7.548668298727693,10.165891863930101
1560500345.3087573,32.0948938069004,10.152779230029386,-4.019288232010703,3.5878900847468023,0.13903430055211158,0.05091338032196829,-1.7643815750910756,7.495266126023822,10.152779230029386
1560500345.3747776,32.32697357135551,10.158715932885086,-4.0460508066169805,3.604145267296793,0.11422315706703186,0.09860117111817363,-1.680787852600688,7.525977562960554,10.158715932885086
1560500345.4421964,32.56719981707187,10.174911690604132,-4.071964863632153,3.6199984056957772,0.08972658025794032,0.16904191217512754,-1.7593172784709734,7.650213368324638,10.174911690604132
1560500345.5093687,32.8044942066685,10.202410807086261,-4.107266005752732,3.6400659476221513,0.08833720574629714,0.122918163914919,-1.8082681233116453,7.783237104354522,10.202410807086261
1560500345.5767865,33.041403036260924,10.205924128576358,-4.154091617655499,3.666215318849596,0.0760503302966195,0.039101344818675055,-1.8244342210068845,7.8603455548349475,10.205924128576358
1560500345.6447194,33.284339234014396,10.150826157709686,-4.200901418808348,3.7060246789263425,0.06697812033629283,-0.03478129783318451,-1.8805861647277313,7.904508414326397,10.150826157709686
1560500345.7133262,33.528218487865885,10.117369947116341,-4.242290102779743,3.7446919412721913,0.05744578771534457,-0.110840701353622,-1.841583554395948,7.848034139674135,10.117369947116341
1560500345.781868,33.78711913891624,10.09024873137913,-4.272995505080484,3.804648118577245,0.049739896537389194,-0.13036354051239551,-1.8606010327367386,7.737882612362927,10.09024873137913
1560500345.84948,34.04522140665101,10.074609865757273,-4.296049455842175,3.8489970839889787,0.05551043275086387,-0.06711548061294192,-1.91168693496692,7.601662074576896,10.074609865757273
1560500345.9173474,34.30547419394589,10.064891172588984,-4.319728264854319,3.886125637918914,0.05947065254435728,0.012793611061006183,-1.9089875555626135,7.524150687323204,10.064891172588984
1560500345.985426,34.56870976874327,10.059220344486363,-4.341373193300655,3.9131966096214414,0.06239912198886616,0.1339104594957855,-2.0073761270958483,7.570319039855668,10.059220344486363
1560500346.0549436,34.83657018026641,10.080535372924581,-4.374222516439156,3.9410766692814194,0.09431264686182751,0.18205474802792648,-2.076773728539328,7.710763617149279,10.080535372924581
1560500346.1231215,35.10065502185138,10.084722831156265,-4.4178230009850425,3.9859165237356824,0.09053618727589663,0.10781579183617068,-1.998436537807262,7.866790259693242,10.084722831156265
1560500346.1903596,35.36053099779401,10.09074944486141,-4.463036052608825,4.0325492981510225,0.06647089213149925,0.04824490205304954,-1.9684472732680873,7.93279072161349,10.09074944486141
1560500346.2560115,35.612105909076476,10.103555239834435,-4.511051097227389,4.07790226794758,0.0792105962649293,-0.08748356567667048,-2.009733416958268,7.882979272620714,10.103555239834435
1560500346.322116,35.878679869845605,10.111486670559444,-4.544910104319867,4.126096295489942,0.09349358698113,-0.1142021288919618,-2.1341635711886835,7.772888293667003,10.111486670559444
1560500346.3880785,36.147794417237996,10.099887691508343,-4.573431455608093,4.165766654229843,0.11750727843089448,-0.07431637576684424,-2.224907041439152,7.639127836442299,10.099887691508343
1560500346.4547687,36.42556557654487,10.123265881352035,-4.59511060995068,4.206010162558561,0.1050244940900365,0.026896760196703062,-2.216202436541428,7.5741058298562844,10.123265881352035
1560500346.5202813,36.69804909630239,10.130688559708771,-4.615621617355806,4.230358537711059,0.10152543254577723,0.13082812928633414,-2.2277872540443653,7.555538275556644,10.130688559708771
1560500346.5871513,36.9728874726036,10.125381285383623,-4.654241222965947,4.252535492100814,0.1302046107127635,0.14552417200737322,-2.26190383435194,7.537121184323582,10.125381285383623
1560500346.653304,37.24622903624639,10.127430716863723,-4.690951858142901,4.282659611398908,0.1461680834716596,0.1117306710650971,-2.258658615519784,7.559383979768361,10.127430716863723
1560500346.7211962,37.52831244697516,10.15012113212639,-4.7308624047628784,4.3099653564320075,0.15974181173718788,0.07256007566703787,-2.308162725099484,7.554635169999529,10.15012113212639
1560500346.7881024,37.807099473200324,10.185702811631417,-4.768630617139672,4.332113837992488,0.16544437296604184,0.07086016383915528,-2.3704063563256876,7.562895141433035,10.185702811631417
1560500346.8557675,38.09271416716835,10.214097161868548,-4.808165584453186,4.371171264745185,0.1823550053602697,0.04734325615929835,-2.4096204112133828,7.587014495507908,10.214097161868548
1560500346.9233902,38.3806694431255,10.26133956976479,-4.8513984041057405,4.411156855888938,0.1881646495613479,0.02184028894465051,-2.4296446324617027,7.61514615589583,10.26133956976479
1560500346.9918165,38.67497567241091,10.301956372075873,-4.896566291505225,4.4535663743187595,0.19575390234509119,0.005649169367152429,-2.4648360708215944,7.65458577515931,10.301956372075873
1560500347.0598955,38.96887499962269,10.322471595955031,-4.945199940446953,4.494421248289246,0.20657656104991995,-0.007972281544849413,-2.536433323531938,7.69538594950945,10.322471595955031
1560500347.1277652,39.26739348429719,10.33823116205302,-4.9898794180041675,4.544693490921416,0.21730820693838962,-0.02252679184765738,-2.5946655347456535,7.739676596435214,10.33823116205302
1560500347.1951454,39.5639883462312,10.352690084235405,-5.0404362525282265,4.59346307367894,0.23650346582294185,-0.06365339067950626,-2.6252307468278855,7.756598405110672,10.352690084235405
1560500347.2619667,39.85863711416457,10.36397297720937,-5.082912072366609,4.6323060488219365,0.2567186419190084,-0.057889325429215766,-2.66622305028802,7.743916738190674,10.36397297720937
