timestamp,x,y,z,vx,vy,vz,roll,pitch,yaw
1544582653.235619,-0.07610341979813173,0.008270745056707333,0.0020724938095791207,-0.24049967295033547,0.010897586699323017,-0.0010370621301967363,2.507382530725201,0.3156943736020193,-0.3255838409414427
1544582653.3355758,-0.13562766232196583,0.014041499121724529,-0.004827592799180735,-0.3390457133631504,-0.003868723461588324,0.009630444664816759,1.9115800924055235,-3.3411044516131487,-0.4388709937050259
1544582653.4355476,-0.1314896051462596,0.008465387135730303,0.0037448344485353745,-0.31539247117185343,-0.0028037182309360556,0.025089825902524274,0.661037193672043,0.5147030242026281,-0.37332258897554965
1544582653.5355966,-0.11115885910608611,0.0161549365307682,0.007991608917036892,-0.24021039879619271,0.00971428860273573,0.024103308095323857,2.9783829769363326,0.4742424915015217,-0.4136626604689163
1544582653.6366844,-0.174418195288031,0.011304102303034977,0.007159973682731531,-0.33003730066124715,0.014324805868618803,-0.015344633202655505,1.038563441978994,1.4296659378862693,-0.42435615492635115
1544582653.7357612,-0.24786764289034646,0.01758875585188561,0.0025031818189057958,-0.4381126300698759,0.011710311662088337,-0.043344486321899064,-2.100762826588182,0.4333892595872,-0.48549227883429896
1544582653.8356953,-0.2582191641712975,0.015701841180660182,0.012706186959690124,-0.39901186105354725,0.015750725050783777,-0.01204866983382426,1.1280575806277116,2.62379941575125,-0.4696285180985049
1544582653.935691,-0.3213319387210902,0.013413233639542815,-0.0047485058098771255,-0.43776365053668653,-0.021588446257013835,-0.022368322238606592,2.630611363620546,-1.2595680161841605,-0.4611609858775821
1544582654.0357778,-0.35072463087435435,0.01173452583742722,-0.009049327442469165,-0.4525152254233817,0.007848696736000084,0.007238758556215679,2.504887402537709,-0.411059200901179,-0.4520831074539102
1544582654.1357608,-0.3757162590223523,0.013951181593454532,0.019425610018682832,-0.454377841418023,0.028848752687233317,0.02413232042763682,-0.07742602534724773,2.6806883669328765,-0.4768837282618094
1544582654.2357063,-0.39363422843287804,0.001163311746193601,0.03343923002285943,-0.44716708967228924,-0.019648783496784318,0.0032023606972662773,-0.571114350050151,3.567235215677012,-0.45274844525475466
1544582654.3357112,-0.4854382175429717,0.013006312097265594,0.006905706477100869,-0.5142737347919605,0.011061531439043261,-0.020101071775228373,0.9934407799511534,1.5861701595700566,-0.4638053088292557
1544582654.4357257,-0.47318608049604494,0.0014344064111307961,0.048923895709421836,-0.46907382820383003,-0.016498533180240138,0.03869556820588545,-0.5394073857109596,3.9152116810296134,-0.4536143278752146
1544582654.535738,-0.5399793812840004,0.004103088313581696,0.008528247552745564,-0.510439027173113,0.02217316803949947,-0.02098985418658248,0.16744609659790552,1.8151436300562318,-0.471382163471963
1544582654.6357143,-0.5444208488244552,0.034363433306181315,0.05468032847287493,-0.4478942569380376,0.06058478244516721,0.037858699652581713,-1.4624549785597194,3.4268711700894916,-0.49745729667773764
1544582654.7357004,-0.7702469479674038,0.014732894305555065,0.021651678914125512,-0.645254506878307,0.018454769190715856,0.008416680638376937,-0.4032130068565161,1.7871347174386136,-0.4829624648745004
1544582654.8358204,-0.6080586277969295,0.053823371513153626,0.05886239493884563,-0.444121090041437,0.09779110378107886,0.06285129746444237,-3.56695507601007,1.7801223968387518,-0.5068446998186635
1544582654.9357076,-0.8252508188779529,0.00649687171576228,0.04969271794110838,-0.6439568982655105,-0.014996726321975823,0.032628801641720405,-1.0477652430319782,2.274154641916332,-0.4486927527115765
1544582655.035595,-0.6951229319463736,0.07288398941957942,0.07285907232241819,-0.4779475556057841,0.08988482504080424,0.05196898348546819,-3.633752848087024,1.6840660343930016,-0.501245882184768
1544582655.1357186,-0.9636678702057918,0.009649207874357017,0.03949412108276744,-0.7250982136074599,0.007343315824856438,-0.02620533006336894,-0.39002715836272345,2.207175656843389,-0.46333316095077615
1544582655.235788,-0.8009856268714571,0.09700292155096389,0.07938791431382893,-0.5180189915388381,0.12516467189995176,0.006772267639553683,-3.611921186635971,1.5954941804652358,-0.49911793074821525
1544582655.3357348,-1.1681368704943051,0.024178631387251924,0.09106891624884182,-0.8340142870990437,0.030150278076278163,-0.022911606950664277,0.1557481284134434,4.90471876830225,-0.4760126642894326
1544582655.4355114,-0.9671337673071716,0.08982807095602843,0.08442836610079442,-0.6119000522231349,0.08952471867121607,0.009918166440603227,-2.8149861879815474,2.266725263279334,-0.5405509183159038
1544582655.5357096,-0.9628798520569067,0.12381630981513417,0.09548059742570222,-0.5596246878157479,0.12449931988402521,0.07072242696490974,-3.3988170377193043,1.7503847713474836,-0.5734144215608449
1544582655.6357563,-1.2861244971993089,0.039064466613629854,0.07902856629258888,-0.7934983227348457,0.009488630435561834,0.01781924253852733,-1.5723015793249027,2.2190463423443885,-0.5045835123311069
1544582655.73579,-1.1570070556745948,0.11431459562053473,0.11008710681727872,-0.6701017755793568,0.09942567063873914,0.049687754864118486,-2.632759231985376,2.511298783675654,-0.5872602299034861
1544582655.8356662,-1.2720269852860915,0.042807348101455506,0.08226628998016439,-0.724971597130899,0.015871395559320198,0.019378038986170833,1.3031043219645326,4.797648822275515,-0.5187643672453799
1544582655.9357355,-1.2539234195116364,0.11303469840464685,0.1119198987344096,-0.6523621687252902,0.08632027982395835,0.01673567538313634,-1.4364817273115058,3.5493514665515975,-0.580131936985489
1544582656.0357258,-1.2505431090143615,0.04151570434096302,0.08817117833350804,-0.6175959119426787,0.0023026085386580507,0.01608637513377425,0.26117968918790857,3.94632701536071,-0.6006573415936559
1544582656.135624,-1.3038989212612369,0.2067905728661288,0.1414517366252164,-0.6232596585246819,0.1745646969733859,0.05289001626544945,-3.542713405308699,1.8313204619244945,-0.6715438612687125
1544582656.235593,-1.4800458834214216,0.12054432661999015,0.06994898145426576,-0.7387758378658206,0.07988766228565644,0.007368534850327121,-1.272242740308571,1.7749566237250125,-0.6128278213568202
1544582656.3356786,-1.4171196969348334,0.277451553059587,0.18611773465701714,-0.6357177152580736,0.2267580109664295,0.0756863071319335,-5.158323018233578,0.22024435660871147,-0.7122432865215689
1544582656.4353125,-1.6881698398115428,0.08759750369364705,0.12088503645721976,-0.8286553324530525,-0.00011403560642308814,0.041678319683683344,1.4793101598506726,5.483101561947313,-0.7123721863475784
1544582656.535715,-1.7489659528751325,0.10994040532827101,0.1321080490949944,-0.8122345206700754,0.028013467702776556,-0.012497194068539122,0.8694969946362844,5.094342499389969,-0.7163454121436941
1544582656.63568,-1.721625050769023,0.08942292356176795,0.10738657884428292,-0.7589113823726529,-0.014345524895228542,-0.0045370997588534134,-0.009578981235051897,3.413453984806976,-0.7263259466627792
1544582656.7357273,-1.7395474187763273,0.3181843091527599,0.18472619031676507,-0.7183945059875186,0.22590150776790807,0.08043637599745149,-3.922215016524788,1.2505932120354086,-0.7846376810461402
1544582656.8356993,-1.9982348119739517,0.12769115364715583,0.12728770361144975,-0.8526972493574018,0.01310635678900839,0.07839515230487841,-0.39241125156117235,3.266708249028269,-0.7639820226716847
1544582656.9355953,-1.8524712131563523,0.38023972343935936,0.20020301387087486,-0.7164567188583518,0.2668625997299189,0.0886388190115501,-3.3121817215362963,2.3519636294117583,-0.8251061442350198
1544582657.0355458,-1.6465847905241855,0.3494051461019753,0.18983406751609982,-0.5112112675026212,0.23103140650472817,0.0669351774273563,-1.9889937380019507,3.5022610366814,-0.7987713284015076
1544582657.1356158,-1.7862636362001023,0.46622290312572856,0.21566389205842365,-0.5642383992987925,0.32779108795145007,0.08646414565238104,-2.998883505241934,2.9978103562798473,-0.8543347819854832
1544582657.2373056,-1.3595692381375188,0.490178863596473,0.22279421203284155,-0.15509541760475518,0.3716841202510649,0.11871589352218198,-2.835826106966299,3.870455843666545,-0.868991445323044
1544582657.3357885,-0.4172587789908565,0.1555300254611543,0.1016347418627964,0.592194734357383,0.08433814991007438,0.05017283619832078,-1.703669443281762,1.5616135154809079,-0.9042142287353577
1544582657.435715,-0.47763024799836395,0.13919150412049655,0.10230418837577934,0.47799676518489026,0.012416101375511253,0.032660961077070554,-0.9250937112821664,1.2699044037159586,-0.8903675434056502
1544582657.5356808,-0.4398036395683811,0.13308771667464736,0.10649562684602587,0.450421401388685,0.01939005602022489,0.022912818471010666,-2.029256883303287,-0.09023292986263728,-0.8851212929810611
1544582657.6356847,-0.29925239062307696,0.1305111251643079,0.07410426522690405,0.5138312400330761,-0.0346985194329867,-0.07090239349510405,-0.06911903167924373,2.5982583150915017,-0.9237448277147822
1544582657.7355678,-0.18303510212521845,0.12333011985843051,0.05328941704071209,0.5912465156915063,-0.025934111453085565,-0.054852867002661926,0.6444977556362914,3.1131223504865715,-0.9162434867132885
1544582657.8357515,-0.024833145917555255,0.11983430329794276,0.028043276293248473,0.6979056299852806,0.027676995378999595,-0.023357724063352008,1.3499099045724674,3.7695908754602985,-0.9359651287022331
1544582657.9356396,0.10290028006901952,0.12069234764386216,0.06285488743952197,0.7662090276460001,0.05290923035673276,0.07756671831957057,-0.7522200611163956,1.3776952447099124,-0.9778890189491106
1544582658.035675,0.29494670587058325,0.11829489905231647,0.025106576330406416,0.8565711704427784,0.01738712013014709,0.007257121089919693,0.9811854722735086,3.5663537648455903,-1.007834220270437
1544582658.1359465,0.39557960782412915,0.11352655361225666,0.04068890254345595,0.8758105540737502,-0.04603761663722412,0.04537819058695193,0.3962151598963334,2.7775665543993266,-0.9965680343479482
1544582658.235704,0.5634844317892481,0.10468742258964557,0.04639018075583824,0.925927805236323,-0.05116749326160779,-0.0020019253944811924,-0.03711061258848082,2.2411938282044472,-0.9856674013982603
1544582658.3356647,0.6780747256196634,0.1031060361181387,0.019808012822545226,0.9047589885616938,0.009741344267708296,-0.054981725296587944,0.7448968412380299,2.9559026063494094,-1.0597656063697238
1544582658.435798,0.7497055743885812,0.10720143865150852,0.011610304710552563,0.9161077886019652,0.03292635133737487,-0.03595857851367736,0.5472891664188348,2.906714542305143,-1.1080454261359336
1544582658.535781,0.8593305458678255,0.10475275636318371,0.01897287656385721,0.9577469701756508,0.015094129225670017,-0.004718480674062157,-0.41407374888631143,2.2273762232023926,-1.1328273774652737
1544582658.6358778,0.960154249201102,0.10230493439186684,0.019222285746242435,0.9884191805095917,0.01660228549525341,0.01192825018089171,0.1054081635514854,2.2368091679814204,-1.1635557303954958
1544582658.7357347,1.0635098036855513,0.10031404563113745,0.021270825589489742,0.9954332277355491,0.0016089233958142186,0.049724473690104035,-0.10560620526263151,2.312367784681104,-1.1791727208509377
1544582658.835737,1.17782357216671,0.09734424736692134,0.02880028743557904,1.0187275330806411,-0.008829235363686157,0.061316974230522694,-0.17322382494214436,2.2361244863230385,-1.21546173413779
1544582658.938186,1.2851257743153792,0.09535910071986067,0.02941650824490502,0.9988292559796763,0.014731726361170767,0.009751667652756289,-0.23175039475028814,2.1912234470926424,-1.230600829757132
1544582659.0357723,1.3875949496274216,0.0928317563593649,0.03954166890359945,1.0249651306151477,0.02549825787538294,-0.011479860318047048,-1.0190339790690737,1.5424877921432711,-1.2557844026217617
1544582659.1357327,1.4977407817373856,0.09032907502417313,0.033239613282451695,1.032387138441583,0.006590641615215177,-0.03186862156410545,-0.9406142292479619,1.617403130604131,-1.262188612894467
1544582659.2359083,1.636080606340017,0.08346270629701869,0.036301809767399884,1.0742604726056701,0.0008592476331267422,-0.009148312637716875,-1.0653371620758132,1.2801972055790982,-1.279945493960317
1544582659.3359237,1.7527280393924922,0.08092675666128378,0.033149435651981196,1.0952000311697,0.02265098254865853,0.025446828483775358,-0.9515313312414788,1.3876429534847001,-1.2802962940794385
1544582659.435963,1.8428257118870182,0.07986672717371712,0.05044330537691549,1.0967612629323846,0.017812209600179568,0.0363183185087996,-1.412087554985212,0.830161884920419,-1.3167884126515195
1544582659.5358238,1.959088915479971,0.07546556339475329,0.04941688216858441,1.0848403303398433,-0.010616016338157248,0.0018589743312009306,-2.0783915089373983,0.7868356063629602,-1.3142519061419478
1544582659.6358306,2.1590667116354703,0.06396637953670824,-0.006577437541603823,1.1700682571831293,-0.010311708374598823,-0.057456902374348154,1.4208625984686534,2.696252070559561,-1.29175045841036
1544582659.735659,2.2925149701885035,0.056868230785006614,-0.028604121753502465,1.1863323389426876,-0.016803787796618057,-0.019658182613959393,2.4073658862656777,3.1681912288882197,-1.2943762070063458
1544582659.8356783,2.4612279177269825,0.0511671208591523,-0.03663047269819468,1.2337282992401943,-0.0013305420303266233,-0.0034781162568927326,2.3879042950696165,3.0723236318013645,-1.321379673647865
1544582659.9356947,2.592491186138085,0.04936779228133146,-0.04134477685638978,1.2603924318020479,0.016822079040947395,0.024986925067595103,2.133978508009326,3.012439610702212,-1.3240407635003044
1544582660.0357757,2.7520578358736865,0.04541366211489724,-0.04053581457749457,1.3214044879859934,0.00931235402396597,0.04950909177451765,1.7672061812548727,2.9136052038556897,-1.3423435792327465
1544582660.1355948,2.8890346128838473,0.04069058427186843,-0.04440614701066693,1.2875112674292033,-0.005911746602082786,0.006911511113529105,1.5479406438068182,2.8389431887650844,-1.3405975201077296
1544582660.2356532,3.0441327122294948,0.03357452378643548,-0.05059433663601345,1.3257960247889695,-0.017373141342214248,0.008393163664117409,1.3974596709376035,2.7011102799930855,-1.3364648907029724
1544582660.3356743,3.177251300692376,0.029433777302590933,-0.05812540820688087,1.3412314500695057,-0.012779140733463043,-0.017453369642503685,1.3796882651217592,2.688898778810604,-1.3477000421284637
1544582660.435724,3.31321366330879,0.02524726737399484,-0.06788582469868995,1.3456079970317523,0.023981594288409517,-0.02749142892410291,1.3058747056467206,2.658997406750057,-1.3548074157246741
1544582660.5357103,3.445676175610445,0.02330652603390662,-0.07362270641687792,1.3599913937985284,0.02587961079386533,0.02002784929888541,1.221285560923275,2.655077825602607,-1.3695078490981807
1544582660.6356778,3.5914517396733614,0.017714473070907816,-0.08050899920583088,1.330954796200192,0.0006175328544996824,-0.01017356750401309,1.0520902542872583,2.5987593576817103,-1.3685376716622515
1544582660.7357788,3.7261576375363106,0.012213637717304146,-0.08921222515320515,1.3541555594757735,-0.019813165060258084,-0.014887433240184697,1.0216282298823447,2.470816295259818,-1.3659866168713264
1544582660.835814,3.8521457991843304,0.0077831360793697985,-0.09903356880022904,1.360992355921294,-0.02152593221610591,-0.013958766353605254,1.0010644605362944,2.3975501263998753,-1.381458586254451
1544582660.9356647,3.9908650024495635,0.0033341510340884895,-0.1082645411660382,1.3776571166720122,-0.005401220317682922,-0.007210073944603157,1.023045678073026,2.4151750225495694,-1.4053474253959415
1544582661.0356498,4.1596391787553495,-0.0022711447995735212,-0.11580114069580635,1.420943119628725,-0.008272380445712916,0.030392979323076823,0.9050695111943167,2.3366349833677327,-1.4009366848048606
1544582661.1355772,4.300034953748826,-0.006803129864675406,-0.11922046958475657,1.4385982617076603,-0.023390660964460595,0.04227560922819583,0.9086599042163453,2.4372541365891767,-1.4105552890926867
1544582661.2356775,4.470472103948783,-0.015822565450301182,-0.12165917861330791,1.4361647857334565,-0.025785513832433205,0.0028168036830812995,0.9551352962307144,2.3974888831647174,-1.4159558635197964
1544582661.3357217,4.615806185825168,-0.020267028938476914,-0.12767046583303668,1.4521545650203782,0.002280984351948197,-0.0005154735387144643,0.9394257353806569,2.390434722352018,-1.422950526102089
1544582661.435803,4.740309370205569,-0.022985468076152732,-0.1355370306264604,1.4580575917822918,-0.0039314469696233745,-0.006074138130186445,1.0110699014564237,2.528549249714598,-1.4362075661356175
1544582661.5356042,4.887262049906848,-0.026489948737095856,-0.1428089642064515,1.4557982567215093,-0.00663201040524155,-0.009296438502224252,0.9998041604529345,2.556950055025502,-1.4449987543219824
1544582661.6357388,5.040419794777729,-0.030053322847593107,-0.14878378348408772,1.4615917825462856,-0.007806240879908823,-0.0025457647707604614,0.9943971448990052,2.518112107759338,-1.4583472809770317
1544582661.7358994,5.182919097357823,-0.03269142646490363,-0.1550424010580019,1.4495932076209348,-0.004711017099451667,-0.03407858719545241,1.04818105052635,2.48767079160505,-1.4907838930163342
1544582661.8358622,5.362605491329876,-0.0376230612891683,-0.16257286214993305,1.4763582284446763,0.038351253647165046,-0.031729558465842495,1.0205727916490843,2.1911933975439,-1.5163960153075495
1544582661.935875,5.515414015330247,-0.04016911820577419,-0.1680520481187105,1.5422101908426282,0.022076721528748074,-0.007402165250810985,0.8902906678396544,2.169082356549984,-1.5299002337865248
1544582662.0358903,5.667323054455373,-0.044105944060927396,-0.17274619169726296,1.537463882024111,-0.006182826423969763,0.015803052751867643,0.9179011255587761,2.2253273807609473,-1.5607426052255298
1544582662.1358967,5.8309022852555525,-0.05136966926007412,-0.17786221047992867,1.5586918778705687,-0.017426697338667793,0.07454676907318057,0.8787095511676417,2.2651407019718395,-1.5599500004779485
1544582662.2358663,6.041670314308236,-0.06267330410626941,-0.17777660095054115,1.5883747459683604,-0.01397061945375319,0.011042753378623711,0.9363333708252788,2.2402653545908082,-1.5953472344987045
1544582662.335787,6.197430710691562,-0.06652641897475946,-0.18595008518735792,1.5633853790392354,0.014276743505973275,-0.03636885647662369,0.8560818004316594,2.14103376941195,-1.616115134734586
1544582662.4399226,6.384430454357988,-0.07269872365078527,-0.19410376293104836,1.6331144312079435,-0.004188740234680547,-0.0004949532704727339,0.792055948325269,2.011709098230883,-1.6506824338196113
1544582662.5360396,6.542610405565519,-0.07446159339711877,-0.19593511816932613,1.6728290919327575,0.047054527340854954,0.030647187511383883,0.6133473519439269,2.205866421626174,-1.6522658880397694
1544582662.6359193,6.743738296128258,-0.07932987678169096,-0.19673268248521025,1.6922189023962912,-0.011530865624352404,-0.011145325130669972,0.4932585175459909,2.32809846830598,-1.6572022742494978
1544582662.7359393,6.9245265495832635,-0.08664836334990461,-0.20011737481517675,1.6686244828161565,-0.010319089630438047,-0.03166783381712805,0.7340618410253387,2.395440309858639,-1.6789697876047576
1544582662.8358507,7.124799085712301,-0.10074294179470585,-0.20537403026050835,1.6488665195724008,-0.03126889386864547,-0.12513885745670894,1.279704153588458,2.179110723698035,-1.6884870913571983
1544582662.9360175,7.279192770708791,-0.1012625618479548,-0.22610843893867785,1.6504041720525566,0.060486543668636414,-0.22524472176531496,1.5642822213877978,1.8789704325304872,-1.75164452742041
1544582663.035855,7.4646858976924415,-0.10740967220036257,-0.24094056028930214,1.6960749704459692,0.02032805153489766,-0.1781993283724455,2.3696429157361254,1.7085652462742427,-1.8190073007185896
1544582663.135884,7.630149701435528,-0.11308221685847819,-0.25939138432594205,1.7038505530128254,-0.015977609002732533,-0.16620795459914256,3.222836978222132,1.6867731859000674,-1.8391719234917843
1544582663.23595,7.80354442206454,-0.12286681592727954,-0.2669918715448594,1.7054799441710973,-0.03435777056432696,-0.1065806192565809,5.818712488558269,2.0873708656897216,-1.8597830445452612
1544582663.335767,7.937612082012994,-0.12918044695160766,-0.2792623298054732,1.6606827225541998,-0.04583428854272206,-0.11606209243253737,6.496640543949862,2.134147355321132,-1.8687048389479792
1544582663.43584,8.04832670952295,-0.1351988419008604,-0.27923743949131075,1.6046413640778008,-0.039603064876836694,-0.07094972409446143,8.392969040706934,2.2802984778585027,-1.9306774312146233
1544582663.5358484,8.200879964427063,-0.14419012116071306,-0.29179482864812367,1.604114636543078,-0.025160284387778554,-0.07531556428877803,8.371377572377515,2.0639544084166346,-1.9678947048190392
1544582663.6360788,8.351550485486866,-0.15191564139479097,-0.29811941652760465,1.6297494677801825,0.004487014061856084,-0.03334331414223441,9.597213124770324,2.5432534475261646,-2.0238389055626014
1544582663.7357163,8.510446676474062,-0.160236390785791,-0.3022336439836598,1.6449450806931727,-0.003928597184959277,0.05548134012012777,9.426333970779604,2.5508765854108293,-2.0356756585781883
1544582663.8356192,8.663729780366957,-0.167382172456292,-0.3029438873913327,1.6626728415111771,-0.01427732444799064,0.0802345438950225,9.566369990011157,2.883873930968709,-2.0474723715826735
1544582663.9356012,8.8305139593714,-0.17663352993024473,-0.30653445077907493,1.620726173599527,-0.011193231952304431,0.057398770845244466,9.364434906823588,2.8618855807611907,-2.061712173334351
1544582664.0356448,8.96641391631551,-0.18274042099257481,-0.31235854006989927,1.621675068504702,-0.012434142740483265,0.022901258678910644,9.2110289559172,2.90399663163143,-2.1095558791320004
1544582664.1357665,9.128139883479177,-0.18654786220885933,-0.3201302381543327,1.6221248978735843,0.01727162749121609,0.031198227295537798,8.920071918227904,2.8502605977060815,-2.16407708414974
1544582664.2383618,9.306810237157366,-0.19256237826918776,-0.32625356515970205,1.6494427337875865,-0.014722509223011045,0.07507161522310644,8.760340208151227,2.8479736666826327,-2.2318488342440954
1544582664.3357165,9.472375730589885,-0.2036490094877007,-0.3264182199208528,1.6296048944564216,-0.03082628677858114,0.08195143228372213,8.821766755840427,2.8411952669611513,-2.307071285590102
1544582664.4357886,9.650622870792848,-0.21491960440478758,-0.33585583523237256,1.656848506429016,-0.01929468142946841,0.03857909763858847,8.618401681919602,2.7073345563510665,-2.3976449857492734
1544582664.5357459,9.817549098720454,-0.2220879976770516,-0.33816723997273945,1.6800434392289485,-0.020807936898227162,0.07163814554433386,8.581130318636786,2.7068008015325487,-2.4917810460249643
1544582664.635618,9.992160366789847,-0.23237668946132228,-0.350679025341448,1.710559679779092,-0.023276903390784066,0.0954959792546801,8.268664842197426,2.781209831242962,-2.53284031592564
1544582664.7359014,10.158182636641865,-0.24291517074555374,-0.35176471397874387,1.7318640652907198,-0.01960762449383921,0.13564299556079654,8.175011830572357,2.9827432071853623,-2.5811586169249736
1544582664.8358662,10.340733443875516,-0.24707454259296335,-0.3624881616558512,1.699513005331154,-0.027768771928539285,0.05920317026623005,7.863957708747011,3.085659957809309,-2.639055813338078
1544582664.9360437,10.52148724952659,-0.2565384920294599,-0.373053757750856,1.6901164018978427,-0.029951766834582737,-0.00876097900525516,7.804413977306484,2.969278729542705,-2.7289940882692814
1544582665.0359514,10.670725757396985,-0.26411857690611146,-0.3851942873251635,1.6762799599309663,-0.02550329343898463,-0.005400483690768551,7.717603079590667,2.867587807637058,-2.827536797499951
1544582665.135691,10.836420872808148,-0.2730457373842645,-0.39442592662725356,1.7018334702568285,-0.020948244343256033,0.034833979274405825,7.7160221261793875,2.7851853135219504,-2.931704467165481
1544582665.2357693,11.008895979574884,-0.28487674296351095,-0.4004410667326496,1.7267259799839554,-0.03921402511986104,0.0720117411732926,7.594486885200104,2.776518733975013,-2.9945972912826964
1544582665.3358452,11.166341673217275,-0.29390310427428556,-0.4080868293947189,1.738510241342495,-0.04255183226666146,0.0864885282993457,7.587296564452607,2.933350060472628,-3.0613197786486572
1544582665.4356196,11.343436546378094,-0.30613629836543277,-0.41140306074368665,1.7481037571945235,-0.022365528017278497,0.07710580871385811,7.459361941676728,3.0248002530983324,-3.1160682012555534
1544582665.5356417,11.507447345689757,-0.3100695304112846,-0.4280068647796269,1.7509534438578078,-0.03552432313442017,0.05244159394830294,7.3334693628999394,3.092391771709521,-3.2103552754007754
1544582665.6356263,11.674338123783372,-0.32012209925055457,-0.4350555964828496,1.7512254826660614,-0.004832514833850745,0.03575292738303538,7.264453431816966,3.183294868605999,-3.2692566819090767
1544582665.735629,11.860897728530416,-0.3307692675802957,-0.4456178715682821,1.7628182800890113,-0.019221442062287986,0.017946987349748617,7.187165612627244,3.221812092426596,-3.3267468648990643
1544582665.8357658,12.033705765942518,-0.3419910516800584,-0.4531632328559543,1.767574766731622,0.0038662617902042225,0.02672602716501682,7.173762629331254,3.2474050558272967,-3.3744916085582917
1544582665.9356928,12.227595175784542,-0.35119298322022796,-0.4640177274015616,1.7930608378262387,0.0027845246278209394,0.023354632413104037,6.994315786805267,3.161155810264147,-3.4392667723074957
1544582666.0358925,12.402664031390618,-0.3614184243180261,-0.474062857956711,1.801615830493752,-0.00784741957612313,0.01882469779537896,7.005661229250121,3.0952501743216936,-3.519861697898341
1544582666.1356893,12.589260813589176,-0.37141052752794074,-0.48650997736604246,1.825401906265513,-0.007140648261156374,0.02750235885601339,6.839340305058438,2.9853956777755415,-3.569312926841671
1544582666.2359111,12.766046407209286,-0.38190595660144505,-0.49362496546922974,1.8437052683614974,0.003089608682785412,0.044523219730867584,6.872930519279172,3.0206960268466516,-3.6465639390561497
1544582666.3357983,12.965815383731547,-0.3951197583913505,-0.5019964525296572,1.8587084763479775,-0.015752961084220196,0.05542530598982186,6.77287878219837,3.0266288322190835,-3.681240474606164
1544582666.4357991,13.154951918856929,-0.409421416744336,-0.5061689902404202,1.8702868543086089,-0.008093233041852508,0.05944777221879706,6.810535932129296,3.0530144559758283,-3.735045010627149
1544582666.5358825,13.346214614801617,-0.4221304522273765,-0.5111826663577315,1.8841853668722697,-0.0016386435466606893,0.048222731901715964,6.737695442468393,3.063308920857436,-3.784918225046661
1544582666.6357315,13.537176797438828,-0.43632355500533304,-0.5305727954927304,1.8935838154276188,-0.014232081990667741,0.036133377451793236,6.628410009444254,3.038482568674859,-3.839120436432686
1544582666.7357147,13.719812693850228,-0.44748244245560426,-0.5387403147342473,1.891251718878634,-0.004333894217204081,0.030727079784101802,6.559760139026597,3.0942278325020722,-3.879051353058934
1544582666.8357499,13.909119964844738,-0.4586312243208517,-0.5510934739572007,1.8912970842718138,0.004503662060371184,0.019642764298892654,6.526699994359681,3.0823926794692835,-3.9498453894256675
1544582666.9357157,14.101214554915062,-0.4735964857045455,-0.5593859038939679,1.8867830577588545,-0.003368229131358834,0.018217148396242763,6.491405512554993,3.0394208888431593,-4.005458755758964
1544582667.035709,14.310480851197033,-0.4850140865487085,-0.5727762381542387,1.9177653919764532,0.006519857147483968,0.013499445338362143,6.476094187424924,2.9942102736564022,-4.084808391790014
1544582667.135769,14.498136176613002,-0.49862964450118413,-0.5819215741555614,1.9298307560779029,0.007175231647266142,0.02154910451840833,6.389076684966641,2.994535218468637,-4.139055279273633
1544582667.2357304,14.710608346798143,-0.5137915138374995,-0.5941706204223123,1.9577680315659476,0.0004781596107127162,0.049028549418490455,6.370603755124817,3.010824426948197,-4.201251511362818
1544582667.3357618,14.903423472666113,-0.52945711982977,-0.6017903891860028,1.9519867083533764,-0.012820879673604044,0.03864659708288137,6.378394444628272,3.054799618419776,-4.256570654679913
1544582667.4357018,15.106556855832602,-0.5455026542131827,-0.6130479400926415,1.960114011753727,-0.007543241813590552,0.023117697932692027,6.401283958370396,3.0379771971036194,-4.3342911444014875
1544582667.5357873,15.299543012001672,-0.5607271890628249,-0.6222966908997654,1.9710062441863643,0.013852293466817578,0.012136252065469769,6.396978697242826,3.048579549786314,-4.399832766146344
1544582667.6357486,15.503100635434503,-0.5775087109219534,-0.6341815095272365,1.9780748969274917,-0.005302061329556644,0.014633258320809042,6.372948858457529,3.0719934497616643,-4.455018127146213
1544582667.7357776,15.69993721190766,-0.5951082601806315,-0.6413317352442232,1.980408167140512,-0.017804611793075728,0.029514729698118955,6.456459143862498,3.095501562375083,-4.503514270152994
1544582667.837492,15.906320969374663,-0.6145261191034654,-0.6523122882385132,1.9857768303298142,-0.033154554383150146,0.015009364073437462,6.517188236260715,3.0652828016424496,-4.5416991782230145
1544582667.9380264,16.10279885938295,-0.6318663358769628,-0.6625084713554562,2.0053571122396336,-0.00258828461623516,0.014511267369083397,6.611779064179574,3.04277870196967,-4.556887126722582
1544582668.0356805,16.290911763890662,-0.6472525826573516,-0.6714198077071165,2.028606865928262,0.014542114321628132,0.03414221184296608,6.574787302002872,3.1241348066924997,-4.5487177106382575
1544582668.1354861,16.495260186226876,-0.6630835405914814,-0.6768542935493094,2.0395546406081277,0.03471491006990696,0.05398981410689216,6.5605343885695815,3.250088805772762,-4.552601754515212
1544582668.235938,16.707182813541205,-0.6814484360385756,-0.6839804386784721,2.0343943573646492,0.02832429939379922,0.037238973123580765,6.47044690329206,3.2867552995376936,-4.541753177510488
1544582668.3359675,16.92247896192712,-0.6996672688843991,-0.6946055727356247,2.028431954246773,0.0030435909270155413,0.00038873314044875207,6.481390836827211,3.1930693928168314,-4.556240978135524
1544582668.436107,17.11726188286112,-0.716912427903631,-0.7090291545867653,2.0339947897705026,0.004739911731414963,-0.006182580694436418,6.461331843918904,3.0255296501906432,-4.559881162236555
1544582668.535791,17.317287613039394,-0.7331708930890946,-0.7209214283903219,2.0522527647234847,0.0005248721262220164,0.006753993671596098,6.531526423622095,2.979225829721973,-4.593795500248479
1544582668.635766,17.52379456699989,-0.7493780763910587,-0.7288049249360137,2.074115608804944,0.01844826189635779,0.06222350212356663,6.542713248490991,3.00756093278832,-4.599115958514936
1544582668.7359607,17.752143189856394,-0.7731161870390194,-0.7347062523813006,2.0814569596002674,0.03149178409288335,0.0555288622738244,6.5197860077161165,2.99906131683413,-4.598912189584207
1544582668.8358636,17.966087361842433,-0.7876954459297794,-0.742674254599769,2.068072741687359,0.02991752385298925,0.026263639796313673,6.442317568718897,2.9773253028443216,-4.613135857821128
1544582668.9357808,18.196644001456015,-0.8127890603846464,-0.756494748275721,2.0893987149857463,-0.012065805788143166,0.002657129854233886,6.4630924712247655,2.818623152322637,-4.599651821410961
1544582669.03585,18.394601176837863,-0.8311094810859907,-0.7676707984582362,2.090234055449758,0.01480496041955677,0.007026827260222829,6.492126159755523,2.725498220907035,-4.589624302661806
1544582669.1357868,18.616163312936173,-0.8513272716448286,-0.7779598743863283,2.1163746509599886,0.029381227196603438,0.027101050112885106,6.402303355026037,2.618389133673416,-4.565042419690888
1544582669.235866,18.846567846749632,-0.8680655887531125,-0.7864215813808201,2.1452178822405332,0.029890150382555363,0.04121700112442216,6.40765014381739,2.6520246046062224,-4.54861847665941
1544582669.3359237,19.091121576594848,-0.8909385297483812,-0.7932755889355414,2.1728428105287105,0.03194485473370718,0.046846083099163,6.316682426645776,2.6107564128055696,-4.507030918526554
1544582669.4356267,19.32847220504878,-0.9131876150290466,-0.7993554317754246,2.1900123530137168,0.0173901120612793,0.043636285027530836,6.308473003374523,2.6393025905582506,-4.4868369840248725
1544582669.5358222,19.561182083396552,-0.9365785347149818,-0.8083719859282813,2.2093133358723938,0.0021166369932097747,0.02092157056572934,6.335229896630312,2.6087269407557576,-4.448437617189687
1544582669.6367192,19.783833093821283,-0.9551104944771118,-0.8171786106579962,2.225556870672435,0.004601975860668862,0.02122388497785216,6.360660904529397,2.6274571857810654,-4.422411538357146
1544582669.735859,20.004405451612037,-0.981636092335558,-0.829752637745428,2.2465364330853834,0.011565700963932836,0.02110121676024221,6.408295031717603,2.6611400023974903,-4.3843085465147285
1544582669.8359072,20.223586810079997,-1.0026075235679501,-0.8386932599107133,2.258488944838182,0.028164108332151862,0.024089677436161167,6.315674023449569,2.7847395598262987,-4.342637257223255
1544582669.935697,20.46370953699072,-1.0203876331952315,-0.8464953817736485,2.2495980142460126,0.030449712646449918,0.01596257556626031,6.2188064802935195,2.7972847083879753,-4.314962710688386
1544582670.0358934,20.6780748604495,-1.041494869961611,-0.8570523309948197,2.2321170627721707,-0.013994067488106646,-0.0183547693527569,6.231286542172619,2.6963618577409227,-4.302622981264887
1544582670.1359317,20.89871422290456,-1.0578961034836158,-0.8712743961795164,2.2638414022487403,0.005479719473016134,-0.02101327169720374,6.253169255603252,2.5898948800350587,-4.295722129415772
1544582670.235874,21.120046421619932,-1.081569961981267,-0.8793962684287201,2.2910559975724225,0.025985635618358115,0.032121707930762716,6.192230837544261,2.602130576455623,-4.270706104178837
1544582670.3360133,21.3564166171668,-1.0999192518664933,-0.8861670401609265,2.3320747465098073,0.050885543333584415,0.06455270593046743,6.081423728573097,2.7311795212230683,-4.242178463475749
1544582670.4358804,21.597824415843426,-1.1231294697269707,-0.8913601743574524,2.3195897446644205,-0.047902039852580715,0.034905515342605845,5.993043035518992,2.836444919017745,-4.234504496966871
1544582670.5358446,21.825104242046507,-1.1451736185558221,-0.903074249411446,2.3127905320825786,-0.07230081883025914,0.002300397015531891,6.1746486524760575,2.80407279522036,-4.2320809891678195
1544582670.635757,22.05526425882949,-1.1681495563197473,-0.9140444714435116,2.303332123812328,-0.01444665577580312,0.0009567637656861944,6.232592005268367,2.8218763154804223,-4.228527416892306
1544582670.735843,22.28245893473011,-1.1870302192225792,-0.9221670973088578,2.2613733482974148,-0.03084509681963115,0.05902928955061615,6.287494176985282,2.9147265822565958,-4.240755215035847
1544582670.835904,22.549124767577293,-1.2111556763841267,-0.9303198200995729,2.2404222635073694,-0.045048915798288,0.04037589390222686,6.336169183495993,2.931888611813086,-4.213933818351293
1544582670.935928,22.787036472499935,-1.2319286826490288,-0.9417834627340995,2.200981925774499,-0.020883826457131,0.005240823494164798,6.358877913296869,2.8712604910976256,-4.221247829523385
1544582671.0358882,23.046090202724983,-1.2535709731572622,-0.9538187697265467,2.2026143747532223,-0.013855937481711546,0.01908582998879954,6.354986723632273,2.8111532457649417,-4.218892740148415
1544582671.1357293,23.295284347980665,-1.2748905253438876,-0.964708770040059,2.205886204963217,-0.010352809505243258,0.04777263000319606,6.310410766005766,2.837808014515774,-4.205108533395019
1544582671.235884,23.545249327848662,-1.2973151929934619,-0.9725046956457036,2.168086994851136,-0.009358175792730626,0.050673709858336254,6.3044005162263295,2.886924321588677,-4.200664627588941
1544582671.3357322,23.803712651476523,-1.3202539439647825,-0.9808512151848304,2.1589022734902024,-0.026067266520740914,0.0353098414216477,6.312663928523633,2.847899952383474,-4.212547372715924
1544582671.4369621,24.069046078128427,-1.3427563504774507,-0.9896146343241408,2.1617695853946186,-0.022602979385812898,0.026496242027891553,6.304328164429389,2.7142829024975845,-4.230148483182856
1544582671.535912,24.286800451413452,-1.3625542525427796,-0.9975616562774224,2.1301175525934686,-0.04429430692383487,0.04058606016651532,6.308436304451454,2.6637547695038073,-4.250208364444512
1544582671.6359186,24.522701120620518,-1.384598192606426,-1.003739757619069,2.1097314596518375,-0.034813650037170456,0.05821487376595724,6.328387329291136,2.6252912957567345,-4.266255389789372
1544582671.7359295,24.86525048454282,-1.4143106112229016,-1.0071082400439744,2.1929223618327462,-0.03803450549969417,0.06580956667185607,6.3107070369467895,2.4468077812822666,-4.2941107564875685
1544582671.8359323,25.061661566367537,-1.4332180131654844,-1.0102931241209454,2.137870174902689,-0.03504957670980457,0.058181822601291545,6.287668957703723,2.49849332933564,-4.321859559558261
1544582671.9360237,25.359051534055133,-1.4572856691811071,-1.0221133542868368,2.160872029291512,-0.0450347154118544,0.04490068348425045,6.213509611968921,2.3951800977501327,-4.360641399093375
1544582672.0359256,25.57559925086617,-1.4787563128801324,-1.027805872978865,2.107396277650009,-0.06830980590898714,0.042982428102069994,6.280762188753964,2.3443632163600663,-4.419789636965121
1544582672.1358385,25.887182983908037,-1.5014406965870175,-1.0410153823211301,2.1459306917500327,-0.03896876386143015,0.02374893781943048,6.276252792405756,2.194881353414777,-4.483729638988488
1544582672.2357972,26.096646320403725,-1.519095633509073,-1.0470635433883753,2.10903394421217,-0.03410576695431641,0.035994404489635645,6.245436866268212,2.1760579008196426,-4.564811630892572
1544582672.335849,26.397924198730724,-1.5374801245462009,-1.0621551748455444,2.1297047328803806,-0.03618736764636158,0.04346323940130218,6.180484630385537,2.1788130809759525,-4.644651446516762
1544582672.4359035,26.617945712208744,-1.5624351191918657,-1.06732658738567,2.0797507026362956,-0.057316450556586254,0.04571540502674852,6.220467314294011,2.1539557025579974,-4.722770364222928
1544582672.5358052,26.92521743985628,-1.5887123867384194,-1.0803775059063006,2.1033425783950515,-0.059150910457196545,0.014321040198394239,6.280196736291928,2.0627312876399873,-4.80549821368059
1544582672.6360703,27.149422618787273,-1.6144448848076227,-1.0867382204642149,2.077653502702607,-0.08062577099786458,0.028985750968816677,6.350392679772856,1.9644625053151852,-4.898411121376888
1544582672.7357612,27.49761118878535,-1.644151759386183,-1.1008846950282316,2.1581003686277596,-0.07426950612824412,0.054637978651741664,6.440675837582063,1.9420678153707396,-4.973020888448129
1544582672.8359013,27.72333231398404,-1.6694281173654901,-1.1042359549116811,2.132973485963953,-0.03518563293598474,0.05564995336856538,6.391729902098906,2.045709895100183,-5.037056681007739
1544582672.9359128,28.045209800012486,-1.6917295101596503,-1.1143429004135017,2.16876257594449,-0.05366541813764936,0.058226336682569976,6.3748344744461525,2.1332465351656125,-5.097669494448548
1544582673.035913,28.276487924868896,-1.7186000144825273,-1.1181270238039596,2.1354057788058545,-0.06271733599221299,0.0474948741508692,6.38355276013277,2.217840115888284,-5.145785418897358
1544582673.1367152,28.602035470017597,-1.737100961632816,-1.131674301618774,2.1623825832757757,-0.04474357293402947,0.002011727262192106,6.425617237717079,2.268842713400628,-5.236791315382507
1544582673.2358963,28.81240035452388,-1.7588365264898957,-1.1392347022469995,2.1147584888537376,-0.01913405204352231,0.00153026154016353,6.40949043130738,2.2572723582698466,-5.316061890320881
1544582673.3359463,29.12362124539826,-1.7783120489559452,-1.1537219897853352,2.1408418141348955,-0.012393692839748416,0.011858650608499666,6.340665530252189,2.21595331224924,-5.422572750849316
1544582673.4358852,29.340851626527016,-1.7993370368212704,-1.1626624744286498,2.096547106848822,-0.02333816957532163,0.001269835786046128,6.312459354304418,2.126621288356976,-5.503638237813792
1544582673.535905,29.66404620847324,-1.8273194513186426,-1.1741582413089284,2.1555474072497143,-0.012098730984636836,0.016046083809621053,6.33833853949333,2.0749357518277805,-5.593845650435926
1544582673.6359231,29.877287115745965,-1.8498629268090325,-1.1805462038413348,2.1122861253993865,-0.028169646889244757,0.033189716408496835,6.354617786143924,2.1287164689369704,-5.668064729140657
1544582673.7359366,30.201508760225494,-1.8807053823537334,-1.189801177878825,2.1548829519721644,-0.015206008703276253,0.056512527423318665,6.423228448858231,2.209014146694157,-5.73326166650742
1544582673.8359184,30.417055393461016,-1.9036682362125303,-1.1930621943465483,2.104327006069618,-0.03778528280269068,0.05180832664372797,6.453621657497718,2.3340028363579846,-5.796413943101183
1544582673.9358187,30.749441501171802,-1.9381125166597384,-1.2028165720373676,2.1013044816470234,-0.019585818216835613,0.023124527042379467,6.5856988571172606,2.4239008161174795,-5.863743246282805
1544582674.0359392,30.9601594873282,-1.9594856339097124,-1.2108191324418385,2.0275974268367722,0.006872425678833361,0.015363076500612735,6.51665459767755,2.332968465064922,-5.9434363663812055
1544582674.1357296,31.274644993926685,-1.9904711214681439,-1.2228501750699012,2.0600437703695476,0.00881007134915926,0.009958440680028047,6.541624682421667,2.2638815082128385,-6.037317553598798
1544582674.2358491,31.490238082773676,-2.014211475793775,-1.2323870670099037,2.0168420232904376,-0.031153829182609317,0.00320183796646549,6.6097913875686825,2.190425496078997,-6.110178721956491
1544582674.335826,31.711731814362558,-2.040310256750967,-1.239532525309393,2.0005506605526477,-0.038283851374230994,0.0708901832098204,6.7577303265364135,2.244997863993042,-6.179350126781965
1544582674.435793,32.05286065803105,-2.078900000417795,-1.248153920037108,2.0470202737321306,0.012076565538997344,0.07915091403393523,6.828184464730162,2.396791157051503,-6.242735520497221
1544582674.5357752,32.249873221020046,-2.098610002396176,-1.2492963332437421,1.9801409896982205,0.05002902670928931,0.06216373154962006,6.691617402501898,2.5306713635508573,-6.295860683224167
1544582674.635817,32.579091087069315,-2.1332275673199077,-1.2576403545447628,1.9990899915665907,0.030788439765830997,0.03466974380625184,6.5424333252382665,2.6138055105660434,-6.350198153308775
1544582674.7358375,32.77958104356108,-2.1581266744448477,-1.2624333687898377,1.9204763760168804,-0.01033888103790688,0.017374933285572103,6.528519180057549,2.6287066752568804,-6.387936893761201
1544582674.8357215,33.105322704136235,-2.1977280157876313,-1.2752023945892437,1.9415347384141666,-0.027545291447426942,0.0012783827977872059,6.611418387447208,2.5241942517325966,-6.4507600007441
1544582674.9384043,33.296776593273606,-2.222043029472046,-1.2828712963908302,1.8602705393311278,-0.01602079727862617,-0.001216023789433085,6.7098331910068305,2.465860232909456,-6.535054379864632
1544582675.0357656,33.620061408198566,-2.258370514344016,-1.2958066676745523,1.9022766282218682,0.019675017325027792,0.019578198389619272,6.727285904248602,2.4227415892102413,-6.59835549888062
1544582675.1356852,33.814455117870864,-2.2786298075361184,-1.3006118421423387,1.826575591895802,0.0272423704138628,0.039625584838385595,6.597504462252915,2.453074142527124,-6.668418574531314
1544582675.235919,34.10695176534318,-2.3138470684095047,-1.3080891099158887,1.8128584420768172,-0.012429579805705875,0.05082146803617012,6.616873043521807,2.4665704510741415,-6.722334507352265
1544582675.3358085,34.290663564379145,-2.339839976328119,-1.3122832326068028,1.7157095722745679,-0.04555263112895505,0.048002110495878214,6.682799679043569,2.5095416381398827,-6.748811443913804
1544582675.4358885,34.580224821292305,-2.3782578717769542,-1.3233751807610934,1.7042603277853374,-0.04593102541858106,0.03010790711046621,6.878576388179274,2.536370360024527,-6.7694568629980605
1544582675.5357041,34.770590616761275,-2.402786018317338,-1.3293755027829166,1.6139334178004037,-0.0009291057747933896,0.023194848434670325,6.985922782435545,2.568480808608227,-6.760218635340308
1544582675.635752,35.060900174307946,-2.433858870307849,-1.3394026126828542,1.6152510796793553,0.042544296645713874,0.029812624095208386,6.95797347278621,2.6154398468895605,-6.735570274360972
1544582675.7358074,35.232213744238855,-2.4508797552804182,-1.3428833039530654,1.5262920039181005,0.03306714694748889,0.04159563938106837,6.885165970164468,2.7047834733522977,-6.740930485235145
1544582675.8359559,35.528726865021035,-2.48787028243545,-1.3515732709574484,1.5246064983745604,0.022120815398651253,0.02791867209130744,6.9529549102844435,2.7663453197296755,-6.7105393953947114
1544582675.9359527,35.674518515051815,-2.505123220976744,-1.3545981353115772,1.4181882397163297,0.030515817594417217,0.019831336703638375,6.950319669061322,2.7927882961303565,-6.6850684679736645
1544582676.0359352,35.83696034600284,-2.5242197870194807,-1.3588255995165768,1.336854375870033,0.030279122710827666,0.021047898818541674,7.009344562725407,2.818603453066862,-6.69191859794265
1544582676.1359496,36.16375211030716,-2.56638125518404,-1.370676894976163,1.3751777687456912,0.01992036297221759,0.014475336853918781,7.127186130922275,2.841896548996193,-6.700829025049992
1544582676.2358367,36.27397427068374,-2.5740850673460125,-1.374034585675416,1.2518800343968788,0.03869179583297695,0.018289829764899318,7.152270148020137,2.8433072469020546,-6.735394327599007
1544582676.3358238,36.40194740797852,-2.5828251507567543,-1.3778336386372738,1.1538901780766828,0.061431632084486695,0.013579985362620298,7.064811735462181,2.822847066705766,-6.7840276457750575
1544582676.4357507,36.751561278527426,-2.6422325136963263,-1.3915633088138228,1.219612048206309,0.006743117059333187,0.026494282958916163,7.217937653964141,2.7630834889125198,-6.798170760795779
1544582676.5357287,36.84742187687339,-2.6520247260261147,-1.394139907430234,1.0936938466216137,0.011947606773174073,0.01609295729212925,7.1583323697353345,2.711619916064226,-6.814037739111568
1544582676.6357906,36.970123564980774,-2.664685765263528,-1.400458391832381,1.0046726690115342,0.01870884430828314,0.013276815738304158,7.237889696254704,2.6414324567421748,-6.866562781883735
1544582676.737014,37.25714590908958,-2.7010648486169346,-1.414284622264979,1.0350828272891548,0.017036930343910447,0.027540252124244147,7.3165437035320675,2.567484112675201,-6.896724858303372
1544582676.8358924,37.34627849047688,-2.7108945816903094,-1.414635993132282,0.9349891085697493,0.01921366423716742,0.03182253869254782,7.376842205902942,2.572287542283795,-6.930938737880681
1544582676.9358745,37.44402519001663,-2.719837435713984,-1.415353457009244,0.8334516032157935,0.04284647519045098,0.03368337658379233,7.359312281274693,2.5651765781451727,-6.967527280787267
1544582677.035986,37.75686966290784,-2.7624026102674977,-1.4348492006603994,0.8712497185839315,0.038532269370577514,0.027310596574510102,7.377296450741011,2.486916502508154,-6.986223855839828
1544582677.135872,37.85318268877871,-2.7705460552810868,-1.4345623308382507,0.7929978281298541,0.03561242973269928,0.04123795988749565,7.333354902080711,2.493291147229081,-7.018495076532004
1544582677.2359324,37.965882535292266,-2.7832698797811695,-1.4344170418455242,0.7126214879975808,0.016736912311619064,0.04763642443319267,7.377943822571051,2.5487997467857153,-7.040343521868401
1544582677.3357863,38.30119480375495,-2.83662968786293,-1.4551742401952095,0.7642447762892488,0.002044871833670042,0.03462682588881207,7.51484116371827,2.5479358639425063,-7.022312832036537
1544582677.4360175,38.3702448143702,-2.8429627678739657,-1.4542631763359855,0.6488099316853057,0.021795099583268498,0.024045819371646564,7.534057389055629,2.525503889410159,-7.054957920519287
1544582677.5359876,38.42492184966664,-2.8462276049355695,-1.4516492295376011,0.5432334435064436,0.039601986747294544,0.028055452741329256,7.474718631888829,2.4777474601531786,-7.084595621689819
1544582677.6359527,38.50902401161567,-2.8533672313711786,-1.4504841954680066,0.4769634295873929,0.042087997826251694,0.046422965307266986,7.435967812449318,2.489745879117646,-7.10882952291271
1544582677.7359092,38.79761067405309,-2.898300289456803,-1.475274356779733,0.4965033605773726,0.019547812584937735,0.019349499752806823,7.456766620519198,2.518048372170286,-7.115424193994063
1544582677.835987,38.87039649058847,-2.9062794673385386,-1.4753551232430042,0.4162221426626557,0.012072695010909743,0.01576806355320697,7.476627170800632,2.5369235603408824,-7.119712754185166
1544582677.935905,38.93291916769034,-2.9128422007904264,-1.4768470295212326,0.3313323450498743,0.044245248286526664,0.015698289730097705,7.408057650206492,2.5653921954374046,-7.134962431390418
1544582678.0359716,39.200664056748586,-2.94982087438893,-1.4921309946565295,0.36745868336687326,0.018015859005702465,0.013326953242209399,7.466373179176104,2.5810206048731437,-7.145673909073617
1544582678.1359842,39.22367333653192,-2.952467249426182,-1.4923288449269305,0.2761680265986342,-0.0040871852429605286,0.02469123149114205,7.401144292486275,2.6499780919617506,-7.145841760367321
1544582678.236006,39.2450477177184,-2.955898945176191,-1.4905890401679633,0.17731149177006658,-0.0026148682184601504,0.030339790574345455,7.453745982389473,2.728123029797089,-7.163837457659356
1544582678.3359838,39.28378630385231,-2.9610513016426214,-1.4873295166251326,0.09283885479745671,0.008990360638974116,0.026062837682481573,7.496012848394422,2.7999216397723417,-7.183016236206794
1544582678.4359925,39.63800910421076,-3.0084301406547347,-1.4986504857708383,0.17735186491254015,0.027371496554001094,0.017414032402770868,7.64733256396457,2.8145168935984106,-7.165612563901303
1544582678.5386708,39.6664849169443,-3.0088369880227646,-1.4977167691216426,0.09487964500007504,0.03298637963771094,0.016019423956319733,7.574822611906767,2.8483040904713333,-7.178821708752468
1544582678.635974,39.70651216137397,-3.012587126934072,-1.498963737834015,0.025456095710971932,0.025729143638239534,-0.0061223376225911135,7.554631683282256,2.8621268233571384,-7.2019755080891175
1544582678.7359753,39.73926132690036,-3.016063167421239,-1.5004292318311554,-0.037923602521112904,0.01802990006362159,-0.0013881992533730076,7.529240570423177,2.847825583288997,-7.2176747129390435
1544582678.8362045,40.14969956823196,-3.069654607105724,-1.5172971617518056,0.09839786771704159,0.010052851245546137,0.012705248670819493,7.733349787499688,2.8432045324839956,-7.198410207995872
1544582678.9359531,40.18505351286063,-3.072834695940942,-1.5160339855937102,0.023940419395157852,0.009192310307476803,0.0144798216054834,7.771972343205013,2.8791553541848924,-7.21197774817822
1544582679.0361125,40.201597627121046,-3.073964703221389,-1.5159374976441216,-0.05698209767337218,0.02887298080472164,0.004885172591396418,7.799852452020735,2.8833509195045557,-7.227241201242363
1544582679.1358237,40.22028882098448,-3.0744414618716003,-1.516222378184514,-0.11387533189476948,0.021330892689521857,0.005410097853292684,7.770006803064597,2.873070178410397,-7.2447395962411765
1544582679.235854,40.70593484811335,-3.1427792484910464,-1.5386794870108944,0.06625120956856037,0.006620976351561067,0.009397739668150829,8.078377215026629,2.854672350956591,-7.217355258707538
1544582679.335908,40.726155469493975,-3.144651410042438,-1.5376039992227681,0.013213860359285443,0.00706523433114525,0.0094557108680635,8.103424071554269,2.8187803322676466,-7.243376697444971
1544582679.4359457,40.75778389826364,-3.1485578749178247,-1.5406741677595497,-0.021313343176650998,0.008346066073169168,0.008741407506671735,8.155349181976723,2.784840922227704,-7.264549526875276
1544582679.5357697,40.80177359803055,-3.153630640450954,-1.5433955177977843,-0.03949441579524307,0.0181969032009998,0.005611237197239067,8.172297597894191,2.756048123169404,-7.2824657450058945
1544582679.6357844,41.18607367070765,-3.2045913813636258,-1.562109486917118,0.1181732316692127,0.01648642921463014,0.0061868648936574105,8.40284059822704,2.7250810335597375,-7.2823397553490645
1544582679.7359703,41.26108237396187,-3.2149155619609573,-1.5663725459693911,0.13115884176986264,0.007889800764209247,0.0068197282386469405,8.443134810439568,2.7114221125718854,-7.287461675133807
1544582679.8359308,41.30348192151192,-3.220820569973164,-1.569518659605572,0.12719605728287228,0.014322288418140417,0.0037394424932554768,8.481874846078522,2.7084512454236136,-7.30259925507939
1544582679.9358974,41.33949890141077,-3.224834345971928,-1.572100026485515,0.10809000340182569,0.012177552338480266,0.0033193695328357733,8.468663761790104,2.688587230594717,-7.3190987601090605
1544582680.0353818,41.34948175218061,-3.2257166161884663,-1.5726180943381276,0.06841703814976298,0.01116363826033394,0.007238268955276152,8.486416470223377,2.6256721575913393,-7.340997569635069
1544582680.1357777,41.36213355435878,-3.226108896929718,-1.5713172969578157,0.043498738056484465,0.010124381109423014,0.014096338469939056,8.48487136602991,2.592565664934031,-7.368339548774177
1544582680.2359908,41.745389202951934,-3.280626603025976,-1.5934948894597152,0.197351899241565,0.004318560238205103,0.0021771362569971437,8.737345113936135,2.5733975870691608,-7.347908125257231
1544582680.3380306,41.80738847122828,-3.288904231128593,-1.5966400223506207,0.19168993287387454,0.014325955684669106,-0.0026437114561890527,8.761163910021168,2.560840337715674,-7.339968674947911
1544582680.4360054,41.87894766487503,-3.2971162344627185,-1.5996253935159512,0.18992332300509768,0.019811437484644114,0.002012649972161863,8.797725453165736,2.5389715099738046,-7.368441016533535
1544582680.53587,41.94368467078189,-3.3065823012600495,-1.6020566128732427,0.187859827619334,-0.0032403715628545313,0.0056489254378793135,8.822941403256975,2.519994507056235,-7.367650360968086
1544582680.6355743,42.00327077552845,-3.3148283948266006,-1.6038746250710685,0.17964435707731605,0.01068830015306603,0.014863762434732945,8.8582339966271,2.5105889485324746,-7.371582949722861
1544582680.736038,42.05199790384593,-3.3185477611215886,-1.6051310960102545,0.1658660249882051,0.011489907838106394,0.012992825836112384,8.85102392457444,2.5020929526607976,-7.390778041239829
1544582680.836014,42.10270359092153,-3.3238866128629567,-1.606530985034133,0.15370342899173822,8.560461209685798e-06,0.008482959615243247,8.882717292343036,2.4828399842128746,-7.390504270696934
1544582680.9359574,42.17353422225606,-3.3342567265128666,-1.6096904762470934,0.15571239757731184,-0.004839528478924417,0.00993237104403401,8.961531448771195,2.4676723197330617,-7.397616040292485
1544582681.0359461,42.48527208053508,-3.379901514504317,-1.631476707999019,0.2549882650055446,-0.006441761998657187,0.005796743785357068,9.1621965681444,2.440047506081587,-7.393726520669567
1544582681.1360157,42.49930166401118,-3.3814928372525603,-1.632197596744762,0.22548877446549054,0.004870355219596966,0.009893226964274927,9.154245965024744,2.439957661461454,-7.39055799285397
1544582681.2355773,42.53813356628319,-3.3863385791853333,-1.6334539674900759,0.20753436342313625,0.0073061432218409685,0.009303787666421624,9.15563821325572,2.4454992934413893,-7.392413932844426
1544582681.3360271,42.575974923905214,-3.391818199429253,-1.6349721460551718,0.18693946563259278,-0.005174383887581255,0.005134073418421934,9.177228269468854,2.4547669617105967,-7.3960452850282845
1544582681.4360452,42.609630465662725,-3.3968718038846597,-1.6367805438454726,0.1673969936266731,-0.004907436686491142,0.00318756110199204,9.209728034981334,2.45083301671737,-7.397826374969263
1544582681.5360374,42.63594687659312,-3.4004598046031767,-1.6380481297216656,0.14697185150999664,0.002669559460526718,0.0029949624512632268,9.22426535459601,2.448303919070344,-7.400435220665069
1544582681.636029,42.660995325314914,-3.403827180382701,-1.6386758533117198,0.12633402045129669,0.005063581312260155,0.004295091577544553,9.23005613608153,2.448687845469675,-7.40558353442678
1544582681.735956,42.67917672803051,-3.406412756237701,-1.6389994118524769,0.10400296333400992,0.0017360650341490523,0.004827046151945126,9.232912984180466,2.4505043659823467,-7.406638873757283
1544582681.8360338,42.69386617630028,-3.4087272538908255,-1.639669804121207,0.08131320480959084,0.0010096997538069316,0.004157036266061902,9.243138508396799,2.451182287563182,-7.407499002131644
1544582681.9360235,42.70420380786252,-3.4105747687775305,-1.6398944124630344,0.05632459972660925,0.0021752776613386962,0.004200309665387338,9.254703574725403,2.456663673727427,-7.408432347826092
1544582682.0360205,42.710648501098696,-3.4116600320806025,-1.6397653717580933,0.032302579804013486,0.005400607576427627,0.003270472944657256,9.2481679857803,2.4579895829294793,-7.409557867760224
1544582682.1370144,42.714237007499754,-3.412485911410879,-1.6394062569733103,0.007496881599245331,0.00426481685406688,0.003907441665541471,9.24869352998003,2.4621399121923453,-7.407126304242874
1544582682.2360628,42.71567965724455,-3.412856270672526,-1.6392559134532818,-0.013535899840698619,0.004163294511950555,0.002140412027544003,9.242863439167255,2.461575053851315,-7.408512144002594
1544582682.335997,42.71559838137694,-3.4129044838116642,-1.6395988071002527,0.020542347986843918,0.0030754085378394166,-0.0027738925392549922,9.248374371178677,2.4454916846658317,-7.409532526669902
1544582682.4360423,42.71641573159609,-3.4126111915650825,-1.6412279944371273,0.08314164277497622,0.00510108676099091,-0.008388576172144497,9.232980529805635,2.400699838583311,-7.415947358436717
1544582682.5359855,42.71552493814386,-3.411749655557781,-1.643204921096195,0.1433547601028931,0.0076175413737240225,-0.004091198150844881,9.21948955329678,2.3623875900420055,-7.427058035333919
1544582682.6360495,42.709212538243825,-3.410719299829781,-1.6433587724475427,0.17755850470580714,0.007278330587921213,0.0044057755276097265,9.190932461294883,2.3604587356706066,-7.428265678980261
1544582682.7360213,42.700579117796785,-3.4095984048812835,-1.6428425971934235,0.20714505559267693,0.007904194932948147,0.005145824519052921,9.1728782142172,2.3648123330801756,-7.427656130159238
1544582682.8360624,42.69126286994014,-3.4083079090141957,-1.6425314926433774,0.24367353933011726,0.0062271014744713915,0.005337179943916167,9.145489724436793,2.3623692972398636,-7.4285443162321325
1544582682.9360178,42.68041191874311,-3.4069231128684336,-1.6421963364061263,0.2733034941648505,0.007006167091625357,0.002988945519109933,9.129898639814455,2.368077208984362,-7.427802252087404
1544582683.0359814,42.66904087773159,-3.4052566830660727,-1.6419948248035734,0.29818234670144805,0.00889295167667715,0.0017395336563049459,9.097990108822371,2.3626907497047496,-7.429553803280443
1544582683.1360383,42.65754732101029,-3.4037549744813957,-1.641707916465965,0.3276017169893545,0.00865496933798613,0.003691422366794565,9.077249615619632,2.3600063158012645,-7.42805020843411
1544582683.235966,42.64648992126911,-3.4022627519326893,-1.6414431200095452,0.3540417275027444,0.00892838632349115,0.0029097901748628037,9.047697736027956,2.362556746881824,-7.427914834039979
1544582683.3359647,42.63633622841503,-3.4008613699322567,-1.6412622863889064,0.3766680059590876,0.00873298356574122,0.002202534363008773,9.024216260443119,2.3597635300922826,-7.430191192271011
1544582683.4360569,42.62726152602209,-3.399690746382623,-1.6412313871337965,0.4018446845805946,0.009213300427373852,0.0026230707941456762,8.997225766144943,2.3589177549271243,-7.4292985576082184
1544582683.53602,42.61964954418055,-3.3987649212396374,-1.6411183905668771,0.4258600553863287,0.008964392142227579,0.0029014927693884075,8.972671967007523,2.358658771520637,-7.429297621743237
1544582683.6360471,42.61354343017854,-3.3980007360197195,-1.6411317122494666,0.4469202525702329,0.008848093772696625,0.0009761821518500038,8.946995985606353,2.3562924863447834,-7.4294518780362075
